last_edit_date	latitude	longitude	name
081025	40.4486953	-3.8648831	Centro de Salud Valle de la Oliva
081031	52.4800857	-2.1640139	Wordsley Green Health Centre
081108	50.8145813	-0.4910328	Willow Green Surgery
081113	51.2681269	0.486862	Blackthorn Medical Centre
081121	53.2701066	-3.2171926	Bodowen Surgery
081124	51.2372425	-0.5825766	The Rêve Pavilion
081204	51.4535827	-0.0778028	
081206	51.2595119	-0.717559	Ash Vale Heath Centre
081221	52.804004	-1.6384476	
081222	55.8290787	-4.4592252	
081229	53.7355795	-0.3718197	St Andrews Place
081229	57.1713235	16.0255678	Högsby hälsocentral
090130	52.6003837	-1.1158938	Asquith Surgery
090201	51.139229	0.8403057	Singleton Doctors Surgery
090211	41.1554079	-112.0265812	Herefordshire Clinic
090212	3.0374837	101.5512356	Klinik Ahmad Shah
090212	3.1755887	101.699307	Institut Perubatan Respiratori
090212	3.0644044	101.539228	Poliklinik Lourdes
090212	3.0641412	101.5385123	Klinik Bandaran
090212	3.0672474	101.5616976	Poliklinik Lourdes
090212	3.0742928	101.5619127	Poliklinik Seri Permai
090212	3.083099	101.5399263	Klinik Mesra
090212	3.0726592	101.4902706	B
090212	3.0570402	101.5405442	
090212	3.0720529	101.4904202	A
090212	3.1756318	101.6997869	IPR
090212	3.1758734	101.6996817	
090212	3.176017	101.6989284	
090212	3.1756243	101.6986539	
090212	3.1751546	101.698577	
090212	3.1756421	101.6987249	
090212	3.1030101	101.7406049	Pusat Perubatan Pantai
090218	51.3518305	0.5893475	Wigmore Medical Centre
090220	53.766295	-2.7413895	Ashton Health Centre
090221	3.0473734	101.527239	Klinik Baharudin
090223	53.7472163	-0.1973972	Rosedale Community Unit
090227	3.0828822	101.5398732	Poliklinik Umra
090313	40.3627585	-4.3286944	Centro de Salud
090510	53.2651466	-2.4884903	Vale Royal Chiropractic Clinic
090510	53.5125681	-2.242759	
090512	51.5123081	-0.2124271	Walmer Road Clinic
090519	45.4786237	-73.5839347	CLSC St-Henri
090524	10.437026	123.257043	Health Center
090524	10.437596	123.260036	Health Center
090524	10.550372	123.408666	Health Center
090524	10.457165	123.216249	Health Center
090524	10.523262	123.394339	Health Center
090618	35.9950925	-78.9428861	Duke Sports Medicine Clinic
090618	51.5376185	-0.9084422	Henley Chiropractic and Complementary Health Clinic
090620	48.8490617	2.5397033	Clinique
090626	58.3020035	-3.2863911	Doctor's surgery
090628	53.1073051	-2.0241718	Moorlands House
090711	53.1073636	-2.0206298	Park Medical Centre
090719	53.1026419	-2.0275417	Edith Shaw Unit
090726	51.4407533	0.2369356	Dartford East Health Centre
090726	51.4462726	0.2167655	Dartford Foot Clinic
090730	51.5155524	-0.1603552	The Berkeley Clinic
090804	52.9304125	-1.1323267	West Bridgford Health Centre
090810	52.8883014	-4.421674	
090817	38.5113325	-90.4457578	St. Anthony's Urgent Care Center
090824	51.8171131	-2.2896152	Chiropractic Clinic
090906	53.3677074	14.655928	Przychodnia Medycyny Rodzinnej
090927	51.4906364	-0.0964274	Walworth Clinic
090928	44.7200242	-123.9166632	Siletz Community Health Clinic
091007	41.1593858	-112.0272498	NowCare Roy
091009	-37.7975071	145.1790611	Medical Centre
091021	53.4224717	14.53093	Samodzielny Publiczny Zakład Opieki Zdrowotnej Szkół Wyższych
091025	53.3782371	14.6554608	Dom Lekarski
091025	53.3761155	14.6566691	Przychodnia Specjalistyczna Prawobrzeże Medyk
091029	51.5440667	-0.4494442	Oak Farm Clinic
091117	41.1033697	-112.0642952	Intermountain Healthcare: Syracuse Center
091119	52.0326343	-0.7540113	Spinal Injuries Association
091228	53.7723459	-0.4487799	Hansford & Crocker
091230	43.5876087	-79.6400992	Duke Heights Medical Centre
100103	38.8824496	-77.105439	Arlington Free Clinic
100103	38.9344001	-77.0722001	Northwest Health Care Center
100106	10.4449812	123.4186806	Health Center
100106	10.462227	123.4398952	Health Center
100110	50.8463856	-1.0449031	The Drayton Surgery
100113	-2.2667349	40.9017382	Lamu Medical Clinic
100119	53.339438	-2.5744646	Cheshire Natural Health
100121	53.3223718	-2.2381363	Wilmslow Health Centre
100218	18.5638737	-72.2776157	Centre de le Sante de la Cathedral
100219	39.3895484	-74.391233	
100222	55.9458294	37.8390182	
100325	-37.9187738	145.2355687	Stud Park Medical and Dental Centre
100328	52.0534969	-1.331074	The Foscote Private Hospital
100329	13.9846728	121.3439969	Sitio Baritan Health Center
100329	14.0189017	121.4168369	Pinagdanlayan Bgry Health Center
100331	9.55888	123.757507	
100331	9.591169	123.755089	
100331	9.58821	123.829041	
100331	9.62117	123.804558	
100331	9.59322	123.846077	
100331	9.73925	123.90789	
100331	9.719629	123.927437	
100331	9.72071	123.978317	
100331	9.74541	123.994606	
100331	9.75603	123.971619	
100331	9.79335	123.98877	
100331	9.782269	124.037621	
100331	9.79189	124.047676	
100408	51.1946706	-1.7353683	
100414	-18.8476122	47.4768224	
100414	14.627507	121.097097	Kidney Clinic - Dr De Guzman
100414	14.629387	121.096627	Marikina Cardiac Laboratory
100422	45.815768	15.9912404	Hrvatski zavod za transfuzijsku medicinu
100422	-18.8762064	47.5054651	
100423	-33.2905803	27.4732736	Hamburg Clinic
100428	38.9053894	-77.0519217	Betty Ford Comprehensive Center
100503	38.9284	-77.0354001	La Clinica Del Pueblo
100524	38.870331	-77.076336	Andrew Rader Clinic
100527	38.8959	-77.0133	Federal City Shelter Clinic
100530	38.8922	-76.9947	Capitol Hill Medical Clinic
100602	41.5574518	2.4019941	ABS Argentona
100602	41.4943195	2.3535766	Ambulatori de Premià de Mar
100609	45.4140419	4.3944467	Clinique Mutualiste
100610	35.8800224	-106.2986858	Los Alamos Urgent Care
100626	-27.466172	153.0163677	Brisbane Sexual Health Clinic
100626	-27.4661863	153.016432	Alcohol and Drug Information Service
100708	44.4264872	26.1272262	Doctor Anghel Medical Center
100711	51.5462397	-0.1618926	Smile Solutions
100711	51.5464465	-0.1615868	Belsize Health
100711	51.5463798	-0.1616834	Fern Skin Clinic
100712	57.3123332	25.2590661	Cēsu rajona poliklīnika
100725	51.1506027	-114.2130468	Royal Oak Clinic
100725	32.8248872	34.9848055	מרכז רפואי לין
100725	42.4888803	3.1280335	Centre Hélio-Marin
100807	55.7601601	-2.011938	Tweedmouth Clinic
100810	40.462024	-3.4575747	Centro Médico Integral Henares
100825	42.1792629	-91.774103	Mercy Care Center Point
100825	41.9801038	-91.6576526	Mercy Care Downtown
100825	41.9813824	-91.6553086	Family Practice Associates
100825	42.0352158	-91.5725037	Mercy Care Marion
100825	42.0338611	-91.5805454	Saint Lukes Marion Family Medicine
100825	41.9776427	-91.6578271	Physicians Clinic of Iowa
100825	42.0356931	-91.7072454	Saint Lukes Northridge Family Medicine
100825	41.9550637	-91.7151302	Saint Lukes Westside Urgent Care
100825	41.9762298	-91.6117336	Mercy Care Vernon Village
100826	41.9146656	-91.4219928	Saint Lukes Mount Vernon Family Medical
100826	41.9136	-91.4250662	Mercy Care Mount Vernon
100827	-37.6883638	144.8829727	Tullamarine Clinic
100911	52.536879	17.6076125	Klinika Stomatologiczna
100916	40.8903932	-0.3804531	
100916	53.3423946	-2.7353471	Runcorn Chiropody Clinic
100920	60.2897171	25.0360739	Mehiläinen Kielotie
100928	56.3478112	30.5180681	Медицинский лечебно-оздоровительный центр "Пульс"
101010	56.8601091	35.9187666	Ревиталь
101010	56.8598042	35.9224152	Медицинский центр Педиатр
101011	13.8814948	120.9149197	all doctor's clinic's
101011	13.8784997	120.9173006	Clinica Dr. Lindo
101012	53.338612	-6.251677	Fitzwillian Medical Centre
101015	12.9140267	77.613838	Shashi Clinic
101024	43.7336108	-79.2658568	All Health Rehabilitation
101026	41.3667596	2.1277543	CAP Jacint Verdaguer
101102	31.9061489	35.2148923	Palestine Diabetes Institute
101103	53.3496708	-6.2783112	Charter Medical Group
101107	41.9873415	-91.6518755	Mercy Care 2nd Avenue
101121	31.2594154	34.7795224	
101124	32.7857197	34.996869	תחנה לבריאות המשפחה רוממה
101205	14.0265414	121.5941134	Cailing Medical Clinic
101205	-2.0704033	29.0700847	Misimbwe
101205	-2.2221638	29.0944988	Bwina
101205	-2.1864736	28.9944527	Mpene
101205	-2.1818494	29.0685674	Mugote
101205	-2.2143759	29.0801726	Lemera
101205	-2.165472	29.0825476	Bwando
101205	-2.225256	29.0330071	Kintama
101205	-2.1898476	29.0387879	Kisiza
101205	-2.1549259	29.0220143	Camahiri
101205	-2.0228737	29.1034294	Bukumbi (Shayo??)
101205	-2.0465297	29.0934421	Bweshu
101205	-2.0364761	29.0609379	Lumala
101205	-2.2017885	29.0685986	Bulegeyi
101205	-2.0021279	29.0857182	Bunyakiri
101205	-2.2168106	29.0074382	Kasihe
101205	-2.1676481	29.0323933	Muhyahya
101205	-2.0957877	29.0420859	Mafula
101205	-2.0144196	29.0803877	Bushonga
101205	-2.2412145	29.0630789	Nyakalengwa
101213	51.4934267	-3.1615923	Roath Clinic
101215	-28.7438054	24.7571497	Medicross
101219	38.9459803	-77.0976469	Spring Valley Regional Outpatient Center
101220	17.4622983	78.4922542	
101223	32.8128664	34.9594044	מרכז שפיצר לשיקום
110102	44.9865797	-93.2019425	Como Healthpartners
110105	43.7320856	-79.2707041	Kennedy-Eglinton X-Ray Ultrasound
110105	51.1164222	-114.0694475	H2 Medical Centre
110109	53.830907	-7.0683826	Virginia Community Health Centre
110122	53.7380801	-0.4927649	Swanland Physiotherapy Clinic
110122	13.9592218	122.01151	Plaridel Lying In Clinic
110125	-12.2567107	-38.9567361	LADE - Laboratório de Diagnóstico Especializado
110130	52.5419864	-6.9543223	Graiguenamanagh Health Centre
110205	41.2435337	-111.9496435	Ogden Clinic
110205	41.2447438	-111.9612146	Now Care
110205	14.6555164	121.0183038	Cadag Clinic
110205	51.1672825	-0.1543617	The Carlton Clinic
110206	52.5422748	-1.8858287	
110209	11.9325003	-85.9542539	Clinica Alhambra Granada
110210	-12.2558101	-38.9551365	IDM - Instituto de Diagnostíco da Mulher
110210	-12.2552449	-38.957179	Meddi
110216	-12.256581	-38.9585759	Cliort
110225	33.696217	-117.7409219	Hoag Health Center - Woodbury
110226	-37.8483526	145.2309961	Wantirna Mall Clinic
110307	31.4855923	74.3946903	
110310	14.6522728	121.0319244	Humana by MEDICard
110316	41.1685125	-112.0637026	Ogden Clinic: Grandview
110316	53.2317894	50.2114204	Детская поликлиника №6
110325	55.7453005	37.3928153	Поликлиника ЦКБ
110331	32.3150489	-106.7522462	Nights Evening Weekends (NEW) Urgent Care Center
110416	14.6535955	121.0294107	Westmed Diagnostic Clinic
110416	-27.4215423	153.0341382	Curves
110416	-27.4218161	153.0342616	Lutwyche Medical Centre
110416	51.4623463	-2.5903516	BSDAS
110418	51.5986876	-1.4258323	Wantage Health Centre
110422	14.6469405	121.0283714	InterMed Healtcare
110422	14.6527098	121.029701	NSPI Dialysis Center
110504	14.4571334	120.9948499	Las Piñas Lying-in Center
110513	39.021811	-77.133924	Center for Back Injury Prevention and Rehabilitation
110513	39.0219229	-77.1339494	Center For Repetitive Motion Disorders
110616	56.8580336	40.5519435	Детская поликлиника
110621	14.0415783	121.5774312	Camaysa Barangay Health Station
110621	52.9513951	-1.1343692	Sneinton Health Centre
110624	14.6183384	121.0060521	Elicaño Cancer Clinic
110701	51.5333678	-0.1099768	Angel Eye Clinic
110702	55.7147459	38.9588806	Поликлиника
110702	-27.2390417	153.0213891	North Lakes Health Precinct
110708	33.4372989	36.1673167	مستوصف جديدة عرطوز الطبي
110713	48.5239457	44.5883296	Детская поликлиника № 16
110727	51.5468701	-0.230522	Willesden Green Surgery
110730	48.7124906	44.5000335	Медсанчасть ГУВД
110801	-37.7070219	144.9160809	Glenroy Family Practice
110805	48.6968904	44.496042	Поликлиника № 4
110808	51.5500454	-0.2196844	Walm Lane Clinic
110818	51.4449487	-0.1892084	
110822	43.6882143	10.4864595	Misericordia di Navacchio
110823	48.7031612	44.5149809	Детская поликлиника № 15
110824	55.6227972	37.5006831	Детская городская поликлиника №97
110826	44.9479733	-93.1687578	Family Tree Clinic
110904	51.5109643	-0.30188	Ealing Chiropractic Clinic
110904	51.5104917	-0.3120914	Marie Stopes
110905	46.9116902	-96.7865839	Sanford North Fargo Clinic
110927	51.8215126	-1.2896729	Kidlington Health Centre
111003	39.4798545	-0.3946349	ERESA
111004	41.6080577	-88.2140563	Advocate Plainfield Healthcare
111004	41.4204761	2.1382961	
111005	53.3803924	-6.1721607	Clinic of natural medicine
111007	39.8006505	-105.4990673	Mountain Family Health Centers
111022	55.7814853	37.7285205	Поликлиника №114
111027	-43.5597136	172.6580236	Helios Integrative Medical Centre
111027	-43.5591948	172.6544685	St Martins Medical Practice
111028	53.3279772	-2.7183058	Thorn Road Clinic
111103	51.4617386	0.0267145	Kidbrooke Clinic
111112	51.0890755	-0.7105927	Haslemere Chiropractic Clinic
111118	51.4675029	0.1335396	Birkbeck Clinic
111121	48.9646574	10.1305695	Ärztezentrum Ellwangen
111121	50.8210226	-0.1362939	The Sussex Beacon
111125	52.7015948	-6.9593342	Bagenalstown Health Centre
111127	45.4747514	-73.6068934	
111127	52.5851891	-4.0957353	Health Centre
111129	38.7873807	-77.2985928	Walk-in Medical Care
111202	47.4152617	10.2615862	Adula Klinik
111204	50.8714081	5.9759544	Huisartsenpost Nightcare
111206	3.0863315	101.6625546	Poliklinik Mona
111206	3.0869368	101.6631688	Klinic Medivron
111207	50.786856	-1.0600487	Eastney Health Centre
111212	44.9873447	-93.254625	North Memorial Clinic
111213	51.0332819	13.7869032	Ärztehaus Gruna
111217	40.4544979	-3.4676885	Clínica Cellosa
111219	50.8234646	-0.1395388	Dolphin House Clinic
111223	51.5377556	-3.1946166	North Cardiff Medical Centre
111223	51.3667317	0.3056848	New Ash Green Clinic
111225	53.8041927	-1.6129761	AK Clinics
111227	39.9875077	-105.116984	Clinica Family Health Services
111228	32.0440881	34.7803243	קופת חולים כללית
111230	56.0362479	-3.3555178	Dalgety Bay Medical Centre
111230	40.4536613	-3.4712547	Ibermutuamur
111230	57.6919628	11.977564	Vårdcentralen Gibraltargatan
120105	41.8170091	-72.8326691	
120106	42.3551597	14.1433652	laboratorio analisi cliniche mendel
120108	-3.6786286	142.9413211	Ilahita Health Centre
120108	-3.671472	142.9358229	New Health Centre
120108	12.938326	100.8871075	89 Medical Clinic
120108	49.4482904	11.0740997	Klinik am Gräslein
120111	51.730235	-0.0229641	Wormley Health Centre
120111	1.1070507	112.2924911	Puskesmas Labian
120111	51.8110703	-0.0271784	Ware Health Centre
120112	-37.9069021	145.1612015	Access Medical Centre
120113	19.3196565	-98.2092381	Sanatorio Nuestra Señora de Ocotlán
120116	53.3376029	-6.2484571	Albany Clinic
120118	42.1997688	-83.1724053	Flores Chiropractic Clinic
120120	12.9561969	100.8913455	Loma Clinic
120120	50.8543017	-1.1761231	Osborn Centre
120120	0.3034137	32.615082	Cairos Medical Centre
120120	0.3021513	32.6176655	Meeting Point Clinic
120121	51.3740496	0.5518561	Medway NHS Healthcare Centre
120126	41.6686848	-0.8834493	Centro Médico Rey Fernando
120127	53.0932813	-2.3013505	Alsager Health Centre
120128	43.2095375	-77.4509071	Rochester Immediate Care
120129	40.0296454	-105.2565719	Boulder Valley Women's Health Center
120129	40.3942128	-3.6534491	Centro de Salud "Buenos Aires"
120129	33.1433262	-107.2389472	Sierra Health Care Center
120130	35.0474056	135.7486679	
120130	42.1847704	-83.1786596	Penn-View Medical Clinic
120131	41.6103397	-93.6834555	Mercy Beaverdale Medical Clinic
120131	41.6110962	-93.6841452	Mercy Franklin Center
120201	42.1553738	-83.1907959	Loranger Chiropratic Center
120201	0.296938	32.6158225	CASE Medicare
120201	59.3513566	17.0754772	Ryggkirurgiska Kliniken
120206	-34.1373835	18.427452	
120207	41.6356905	-93.7037005	Mercy Urbandale Medical Clinic
120210	51.4309068	-0.5454427	Grove Medical Centre
120211	14.6339559	121.0361417	The Zen Insitute Medical Spa
120211	53.7328946	-1.3142172	Tieve Tara Medical Centre
120218	55.8938807	37.7225627	Детская поликлиника №3 (филиал)
120218	-22.898481	-47.0628133	Franco do Amaral
120218	37.472542	-4.4384179	
120218	52.1728558	0.1113852	Ultralase
120220	53.3396682	-6.3172723	Inchicore Medical Centre
120224	51.4964831	-0.1917576	Collingham Child & Family Centre
120225	49.471414	17.120311	Stará poliklinika
120226	14.6558233	121.0191313	Roque Optical
120226	14.6576202	121.022652	Asia Renal Care
120229	42.141007	-83.1939861	Farah Medical Clinic
120303	39.0134161	-0.1697398	Clínica Mediterrània
120303	33.4589437	-112.1287762	
120304	52.9754124	49.707358	МУ Центр диагностики и консультирования
120307	-26.0230994	27.9643668	Judah Africa, Clinic
120307	14.3646708	121.4822566	Karunungan Clinic
120309	51.7885551	19.4350105	
120310	51.1504759	0.8734728	North Street Surgery
120310	53.4902063	-7.6802347	
120311	43.7894111	131.9775399	Репродуктивное здоровье
120311	55.7031572	13.18037	Citadellkliniken
120313	-6.1811077	106.9142753	Puskesmas Pegangsaan Dua A
120315	14.0704357	121.3256501	Capino Medical Clinic
120315	-6.1610466	106.8720726	Balai Kesehatan Paskalis
120315	-6.1621773	106.8561308	PUSKESMAS KELURAHAN UTAN PANJANG
120315	-6.1655547	106.8527099	KLINIK KASIH SAYANG & KLINIK ANGGREK
120315	-6.1696422	106.8544949	Posyandu Lili
120317	35.520292	139.500271	
120318	55.7486201	37.8199555	Женская и детская клиника
120318	51.5233116	-0.1149479	The Holborn Clinic
120319	57.6335228	11.9369864	
120321	45.7474017	21.2479563	Profilaxis
120321	14.1202551	121.557423	Lucban Municipal Health Center
120322	55.7704692	37.6533433	Центральная поликлиника ОАО "РЖД"
120323	51.4281327	-2.5969912	William Budd Health Centre
120323	51.4290501	-2.5961838	South Bristol NHS Walk-In Centre
120325	55.6857903	37.6841122	Медицинский центр "Президент"
120326	-6.14528	106.7835281	puskes jelambar baru
120326	-6.1594521	106.7049187	PUSKESMAS 1 SEMANAN
120326	-6.1674425	106.7032829	PUSKESMAS 2 SEMANAN
120329	-6.3026334	106.8475682	Balkesmas PGI Cikini
120329	-6.2758195	106.8200523	KLINIK 24 JAM AMPERA
120330	-6.2110382	106.7944539	Poliklinik KOMPAS
120406	-5.7861007	-35.1972264	Emagrecentro
120411	-6.1894052	106.9010103	Polyklinik Pertamina
120411	-6.1984839	106.8687966	
120411	-6.3272393	106.8500274	Klinik Dipo
120411	-6.3261509	106.8502144	Klinik Medika
120411	-6.2406063	106.8268334	Puskesmas Kec. Mampang Prapatan
120411	-6.2061609	106.8339582	halimun Medical Centre
120411	-6.3047359	106.8040859	Yayasan Panti Nugraha
120411	22.3839623	114.191914	瀝源健康院 Lek Yuen Health Centre
120412	55.7711019	37.6339199	Городская поликлиника № 5
120413	59.8281426	30.4067626	BaltGaz
120413	41.8419908	12.5520936	Villa Fulvia
120414	44.931648	-93.0805525	West Side Community Health Services
120414	44.930142	-93.0780768	La Clinica
120414	62.0062581	129.6668619	Перинатальный  центр  РБ № 1
120414	62.0073084	129.6655343	РБ № 1 - Национальный центр медицины
120414	52.2552083	20.922472	Samodzielny Zespół Publicznych Zakładów Lecznictwa Otwartego Warszawa-Bemowo
120414	14.9429068	120.6216854	Municipal Health Center
120416	35.4760736	-97.5041537	Sylvan N Goldman Oklahoma Blood Insitutte
120416	47.2207314	-1.5935541	Centre Medico Psycho Pédagogique Henri Wallon
120418	53.0684115	-2.519026	Church View Primary Care  Centre
120419	51.5222973	-1.1350322	Goring & Woodcote Medical Practice
120419	51.4701635	-2.5624088	Eastville Health Centre
120421	43.2837558	-3.0545736	Osasun etxea
120421	35.4793635	-97.5181824	North Oklahoma County Mental Health Center (Northcare)
120421	35.4807765	-97.5190097	Mission Treatment Centers
120422	28.025007	-82.4161155	Pain Management & Rehabilitation Clinic, Inc
120423	40.6000432	17.2360501	
120424	-21.0384151	-40.8220112	Programa Saúde da Família
120424	35.4871085	-97.514272	The Broadway Medical Clinic
120425	33.692673	-116.1860288	Planned Parenthood
120426	39.1600692	-8.786136	Ferrodengomar
120429	58.1424925	11.8177687	Carema Vårdcentral Orust, Filial Svanesund
120429	14.0674003	120.6330637	Clinica Nasugbu
120429	0.2800669	32.5854815	African Patitative Care Association
120429	0.28235	32.5827441	Profam Makindye Domiciliary
120429	51.5842292	0.6026303	NHS clinic
120430	24.4351035	54.434053	عيادة الزعفرانة
120501	41.7266339	44.7662179	მრჩეველი
120502	51.1104158	9.078278	Mediclin Klinik für Akutpsychosomatik
120503	40.6675908	22.9051817	Κέντρο Υγείας ΔΕυόσμου
120504	27.8536451	-82.6931601	Sai Medical Centre
120505	25.0994797	121.7359092	婁診所
120505	25.100283	121.7355609	百會診所
120505	25.0995605	121.7360113	蓬萊中醫
120506	-37.6359666	145.2004662	Hurstbridge & Districts Medical Centre
120506	40.6164045	22.9707322	ΙΚΑ Τούμπας
120507	50.6664043	-2.6047352	Garden of Eve Holistic Therapy Centre
120507	35.7276919	139.7458384	かみやレディースクリニック
120507	41.6504742	41.6395169	ჯანმრთელობის ცენტრი "მედინა" (Medina Medical Center)
120507	53.4218184	14.5500692	Przychodnia Kolejowa nr 5
120508	41.9767747	-91.6566599	Cedar Rapids OB Gyn
120508	55.8088241	37.5696725	Медцентр
120508	42.0313833	-91.6574469	Mercy Care North
120508	45.4475452	-75.7353484	
120509	55.7851696	37.6014221	Med4You
120509	51.5248833	-0.1192132	The Wolfson Centre
120511	14.4442573	120.9947189	Hi-Precision Diagnostics
120513	55.9170587	37.993914	Детская поликлиника
120513	55.8863559	38.0774647	Городская поликлиника №4
120514	45.4804547	-122.5684646	Working Class Acupuncture
120514	47.314618	-122.3320747	GroupHealth Cooperative
120515	55.7694917	37.6400148	Мамина клиника
120516	60.320059	29.2572424	Медпункт
120518	-43.5263933	172.6451321	
120519	51.6510448	16.0741315	
120520	31.4883909	74.3789672	Hassan Medical Center
120522	50.4295938	14.9187113	Poliklinika Modrá hvězda
120522	55.7939133	37.5809952	Поликлиника №21
120523	55.7414545	37.4133706	Детская поликлиника №73
120524	41.5534077	-90.5472727	Spring Medical Park
120528	47.4045977	-120.2825475	East Wenatchee Clinic
120529	57.7036762	14.1168044	Vårdcentral
120530	40.58709	-111.9663202	Granger Medical Clinic
120531	40.5871145	-111.9568735	Intermountain West Jordan Clinic
120531	47.4628628	-120.3345878	Central Washington Hospital Dialysis Center
120531	47.4349036	-120.321838	Wenatchee Valley Medical Center Pediatrics
120602	43.1313937	-77.4376063	Eastside Medical Urgent Care
120603	52.2330711	20.9620214	Przychodnia Wolska
120603	14.4215251	121.0348653	Belo Medical Group
120603	45.5460819	-73.6032058	Clinique médicale Papineau
120603	45.5462899	-73.5944037	Clinique Médicale Beaubien & Des Érables
120605	35.2494045	-120.6431453	Foot Clinic
120605	28.6087736	76.9851896	Rajpal Clinic
120607	-0.7375574	-90.315813	Servicio Médico IESS
120607	47.2894506	-122.3155962	Auburn Regional Urgent Care
120608	-28.2269178	-52.4374496	Cais Záchia
120609	45.4794898	-75.7223413	CLSC de Gatineau
120610	51.5360184	0.7693859	Thorpdene clinic
120612	57.8238013	28.4011896	Гарнизонная поликлиника ПВ РФ
120612	22.3225014	114.1788372	中九龍診所 Central Kowloon Health Centre
120612	56.1182721	38.879876	
120614	48.1464933	17.0950774	Gynekologicko - pôrodnícka nemocnica KOCH
120616	50.9699637	16.9318367	
120616	0.3076073	32.6005807	Holy Family Clinic
120616	51.3952151	0.3124706	Longfield Integrated Care & Physiotherapy Centre
120616	47.3010514	-122.3224688	Healthsound Therapy
120617	-4.2847787	39.5657503	Ukunda Medical Clinic
120617	-4.2945303	39.5630696	Elisha Medical Clinic
120617	32.717061	-16.7663649	Policlínica de Machico, Lda.
120619	43.8506706	18.3913084	PZU Nalaz
120619	-4.3164933	39.5733675	Huruma medical center
120619	43.8506871	18.3769394	Dom zdravlja Omer Maslić
120619	44.3368057	7.5446086	Stella del Mattino
120623	40.6898131	-8.4794632	Psycoclínica
120623	40.6892946	-8.4792084	Equitec Albermethis
120625	41.6285236	-93.7281056	Accelerated Physical Therapy
120625	53.1224088	14.3913227	Przychodnia
120625	51.6292878	-3.98534	Trehafod Child and Family Clinic
120627	-15.6088592	-56.0934695	Centro de Saúde Dom Aqino
120629	49.7068028	23.7573089	
120629	45.4532672	9.1967865	Centro Medico Mediolanum
120630	43.8697836	18.4122225	Studentska poliklinika
120701	10.4751384	-75.4953297	Centro de Salud La Boquilla
120703	53.5048227	-2.354861	The Sides Medical Centre
120707	51.5179241	-0.1000417	St Barts Sexual Health Clinic
120708	51.9069059	-2.0831698	
120708	51.9071897	-2.082058	
120708	51.9071864	-2.082522	
120710	44.4575569	26.1291418	
120711	55.8009872	37.5825462	Столичный докторъ
120711	53.4347105	14.5471642	Pramed
120711	-35.0130885	138.5407635	Marion Medical and Dental Centre
120712	53.4337167	14.5465798	Spondylus
120715	41.5364997	2.4303219	
120715	39.7199173	-75.6540819	
120716	54.8952881	23.9254548	Pėdos priežiūros studija
120717	55.7378392	37.6567905	Поликлиника №104
120717	63.5357581	16.4683959	
120718	40.4589439	-79.9312633	Allegheny Chesapeake Physical Therapy
120718	-27.5866243	-48.581709	Clínica Doutor Casuo Ishimine
120719	-33.7515642	151.2878057	Warringah Medical Centre
120719	-37.8709404	145.2431489	Access Medical Centre
120720	55.7918009	37.6060677	Центральная детская поликлиника МВД РФ
120720	55.7909659	37.6069845	Поликлиника № 1 ГУВД Москвы
120720	32.3201404	-106.7346744	Covenant Clinics
120720	32.4204073	36.8186077	
120720	32.3553081	-106.7615024	Dona Ana Family Clinic
120721	14.9976385	120.6545585	University Clinic
120723	60.5977222	15.6672444	Norslunds Vårdcentral
120724	37.7999326	-122.4089353	North East Medical Services (NEMS)
120724	37.7542476	-122.4794682	North East Medical Services (NEMS)
120724	37.7424931	-122.4910534	North East Medical Services (NEMS)
120725	39.7709584	-101.8038718	Cheyenne County Clinic
120728	52.3168342	8.0748967	Fachklinik Nettetal
120728	51.3628473	6.4120532	
120728	51.3624437	6.4109115	
120728	51.3733834	6.4470399	
120729	8.776528	-82.4314227	Centro de Salud de Boquete
120729	8.7758918	-82.4313154	Caja del Seguro Social
120729	45.1709179	5.7235904	Laboratoire d'analyses médicales des Alliés
120729	51.338662	6.19255	
120729	51.3390325	6.1904293	
120729	50.9482305	17.2983847	Przychodnia NOMED
120730	55.9387148	37.4964622	Лечебно-диагностический центр "Медицина"
120730	55.9387208	37.496904	Медицинский диагностический центр «Благовест»
120730	51.483948	-0.093784	CMHT North West
120730	55.7653988	37.6498243	
120730	50.7559818	25.3634566	Луцька міська дитяча поліклініка
120730	53.574982	52.6251412	
120731	42.8977412	-71.3240241	Derry Medical Center
120731	40.3586956	-3.6889779	Centro de Salud El Espinillo
120801	51.2131882	6.2771816	
120802	51.3226566	6.4897396	
120802	51.3227797	6.4880785	
120802	51.2590666	6.3436329	
120802	25.6908054	-100.2794032	Centro de Salud Municipal
120803	13.8017054	100.3118624	คลินิกแพทย์มารุต
120803	47.4063344	-120.3238904	Central Washington Hospital Family Physicians
120803	49.1891713	-98.0928047	Boundary Trails Place Medical Clinic
120803	51.2934754	6.351767	
120803	51.2916549	6.3578653	
120803	51.285065	6.374482	
120803	51.2921566	6.356645	
120803	51.2910965	6.3511723	
120803	51.2893412	6.3582985	
120803	51.2908154	6.3541509	
120803	51.2919778	6.3576295	
120803	51.2917863	6.3568459	
120803	51.2924437	6.3585792	
120803	51.2933646	6.353434	
120803	51.2916942	6.3568567	
120803	51.2935836	6.3572782	
120803	51.2952766	6.3468394	
120803	51.2912648	6.3500624	
120803	51.2921117	6.3582471	
120803	51.2903883	6.358846	
120803	51.2909048	6.3503162	
120803	51.2517862	6.3824063	
120803	51.2503909	6.382021	
120803	51.251788	6.3819789	
120803	51.2517737	6.3812119	
120804	13.8014086	100.3180621	Mu Clinic
120804	40.3414743	-8.5876475	Centro de Saúde de Cantanhede
120804	15.1268308	120.5728654	Sta Cruz Barangay Health Center
120805	50.7928083	-0.0050893	Rowe Avenue Surgery
120806	50.940567	17.295899	Przychodnia Medica
120806	12.0928287	15.0801666	La Maison d'Emmanuel
120806	12.0935167	15.0803918	
120806	12.0929257	15.0802306	
120806	12.0931946	15.0802486	
120808	16.4246456	98.7851753	สถานีอนามัยรวมไทยพัฒนา หนึ่ง
120809	13.7358897	100.5256941	ศูนย์บริการสุขภาพแห่งจุฬาลงกรณ์มหาวิทยาลัย
120809	-33.7363164	151.1004808	
120809	13.8014756	100.3244986	วสุการแพทย์
120809	13.8013156	100.3249661	ศาลายาคลินิกเวชกรรม
120809	45.5199705	-73.5869007	CLSC Saint-Louis-du-Parc
120815	41.9934563	21.4195258	Офтамолошки ласерски центар Др. Ристовски
120815	40.992532	28.781754	KÜÇÜKÇEKMECE ZAMBAK AİLE SAĞLIĞI MERKEZİ
120815	52.3843171	16.9501797	
120815	52.3841535	16.9503833	
120816	41.9182584	3.1602652	Centre d'Anàlisis Girona
120816	55.7811255	37.6379014	Городская поликлинка № 137
120817	35.4550604	-97.5222609	Little Flower Clinic (formerly school)
120817	41.9969777	21.4265139	Приматерапи
120817	43.7269356	-79.797348	Sandalwood Walk-in Clinic - Dentist
120818	50.4113212	14.9163832	
120818	15.214496	120.6620369	Magalang Municipal Health Station
120819	50.9010727	13.6677086	Ärztehaus
120819	-15.6105968	-56.1317577	Centro de Saúde Cidade Verde
120820	35.4791883	-97.5010569	Oklahoma City Clinic
120820	35.4824887	-97.494643	US Department of Veterans Affairs Medical Center
120820	35.4822092	-97.5002834	Oklahoma Allergy and Asthma Clinic
120820	35.4799723	-97.5010703	Dean A McGee Eye Institute
120822	54.2556916	-7.4463671	
120823	10.485568	123.403897	Health Center
120823	53.9757163	-1.115693	Clifton Park Clinic
120824	50.2368171	18.6577419	Laboratorium Analityki Medycznej
120827	33.2408741	35.6082558	
120827	22.249879	114.1564874	香港仔賽馬會普通科門診診所 Aberdeen Jockey Club General Out-patient Clinic
120828	54.6607548	25.2750392	Vilniaus m. Naujininkų poliklinika
120829	22.0251665	121.5540771	蘭嶼衛生所
120901	50.6585399	5.5675792	Centre PSE Promotion de la santé à l'école
120902	54.9246222	23.9613384	Aušros medicinos centras
120903	51.2972063	45.6562479	
120903	39.7753371	3.0240237	Ambulatori
120904	2.7725672	32.3000704	Mola Medical Center
120904	51.5363002	-3.3827838	Talbot Green Clinic
120904	2.774518	32.2979537	Marie Stops Health Center
120904	51.6335449	-0.053392	Forest Road Primary Care Centre
120907	12.9453201	77.572698	Samarth Clinical Laboratory
120908	27.7000172	85.3218067	
120909	43.6148783	-79.5574801	Appletree Medical Centre
120909	-22.1151421	-51.4062327	Vision Center
120911	55.9464303	37.8648715	
120912	42.0189054	-91.7013436	St Luke's Family Health Center
120914	43.7302592	-79.8213886	Performance Physiotherapy & Wellness
120915	6.9552687	-71.8813171	Unidad Médica Del Sarare
120917	44.4916687	34.1566696	Городская поликлиника
120917	44.5749512	33.5158806	Поликлиника
120917	44.855011	34.9731407	Поликлиника
120917	46.3506317	34.3316383	Районная поликлиника
120917	10.5726862	-1.192668	Chansa CHPS
120917	10.327591	-1.2466083	Gbedembilisi CHPS
120917	10.447105	-1.0469692	Kpasinkpe Health Centre
120917	10.480188	-1.2284805	Uwasa CHPS
120917	10.3687564	-1.3360766	Wiesi CHPS
120918	-0.8416598	100.3437595	
120919	22.2851099	114.1393824	西區牙科診療所 Western Dental Clinic
120919	43.0593308	-87.8985496	Humboldt Ridge Dialysis
120920	-10.1592983	123.6676595	Klinik dan Biara Fioreti
120921	47.47422	-3.1043117	Diététique Quiberon
120923	55.7928534	49.1743647	
120923	43.0598274	-87.8977333	Colombia Saint Mary's Family Health Center
120924	43.6324693	-79.7689277	
120924	43.5782669	7.0358034	Centre Hélio-Marin
120924	59.5711507	30.1186893	
120925	61.2664961	73.3648263	Хирургический комплекс
120925	-35.1845161	149.1359219	Gungahlin Community Health Centre
120926	42.0476948	-91.6394374	Saint Lukes Bowman Woods Urgent Care
120926	-6.8102112	107.6357764	Posyandu Melati RW 05
120926	-6.8111382	107.6374688	Posyandu Melati RW 05 Cibogo
120927	-6.8164882	107.621587	Bidan Halimah
120927	-6.8169139	107.6217429	Posyandu
120927	-6.8158485	107.616878	Rumah Bersalin
120927	41.9856247	-91.6588443	Helen G. Nassif Center for Woman's & Children's Health
120927	51.2490473	6.5099089	
120928	49.8085538	8.5669789	
120928	27.6827856	85.3349166	Deuti Clinic
120928	41.4761263	-8.2687729	MediCastro
120928	41.4222266	-8.2995746	Maria La Salete & Irmão, Lda.
120928	39.0952119	-84.6405367	Wellness Center
120929	50.0651584	19.9504419	Małopolski Ośrodek Medycyny Pracy
120929	27.667407	85.3168351	Brigrade Boys Club community health center
120929	27.6750405	85.3174344	Chhahari Nepal
120929	57.7114313	-3.3066112	Moray Coast Health Centre
120929	57.7111561	-3.3070263	Station Medical Centre
120930	-15.5430817	-54.3031441	Programa Saúde da Família
121001	0.9475077	34.0588984	Namusteo Clinic
121001	0.9518688	34.0551722	Top Care Clinic
121002	55.8130911	37.4705762	Медицинский центр PROFI Clinic
121002	35.6028468	139.5171901	宇井クリニック
121002	45.5477451	-122.6807231	Interstate Medical Office South
121002	45.5473516	-122.6796981	Interstate Medical Office East
121002	45.5475975	-122.6812751	Interstate Medical Office West
121003	19.634542	-72.4257516	
121003	41.532543	45.0155093	ვენდისპანსერი
121004	-35.2526942	149.0915108	Nephrocare Northside Dialysis Clinic
121004	42.696923	9.442953	Clinique Filippi
121004	42.700691	9.447136	Clinique Chirurgicale Docteur Maymard
121004	22.3288815	114.2069685	九龍灣健康中心 Kowloon Bay Health Centre
121004	32.7876501	35.0186964	מרפאת מכבי
121005	-34.7729567	-58.4052687	*
121005	38.7001374	-9.4211723	Instituto de Imagiologia
121005	0.9169641	34.024943	Divine Clinic
121005	-34.7727926	-58.4053126	Dispensario de Salud "Aráoz Alfaro"
121005	0.9273521	34.037435	Doho Health Cneter in Lumbembe Village
121005	0.9707559	34.1007928	Lubanga Clinic
121005	0.9549639	34.0314872	Manma Peace Clinic
121006	35.7149245	139.705156	ゆみのハートクリニック
121007	-31.6591917	115.7080792	
121007	46.8355561	-71.3565503	Clinique du Châtel
121008	38.699806	-9.32312	Clilavis
121009	14.4523853	120.4994761	Maligaya Barangay Health Center
121010	48.8603619	2.2809337	Clinique du Trocadéro
121010	53.8209368	-1.5767099	Headingley Health Centre
121010	-9.6128861	124.9059609	Puskesmas Waederok
121010	-7.2674141	112.7357902	TCM Sari Alam
121010	-7.2676322	112.7382593	Erha
121010	-7.2678759	112.7390385	Ibu dan Anak (Matahari Terbit)
121010	-7.2682076	112.7370523	Jayanata Klinik
121011	-7.9970017	114.1648441	
121012	32.5066083	35.0774233	
121012	-8.6339252	116.3542395	Puskesmas Kopang
121012	41.9844938	-91.6607722	Medical Plaza
121012	54.0390427	-1.0339613	Strensall Medical Centre
121013	27.71853	85.3346732	Community Urban Health Clinic
121013	40.9115358	14.7744888	Clinica Malzoni
121014	38.1096637	-0.7868334	Clínica CEADE
121014	44.1265316	12.0646702	Villa Elena
121014	48.7023213	2.510979	Clinique Les Jardins de Brunoy
121016	27.7245404	85.3137911	Samakhusi Community Clinic
121016	27.7213523	85.3178922	United Medical Center
121017	43.4917714	-73.7695591	Warrensburg Health Center
121018	52.1708309	-0.5060623	Twinwoods Health Resource Centre
121019	51.4483709	-0.1890625	Brocklebank Health Centre
121019	32.8070228	35.0024178	
121020	36.682341	139.9567763	さくら産院 (SAKURA BIRTH CLINIC)
121020	36.6820793	139.956901	
121021	-8.2784741	118.442282	Pustu kiwu
121021	-8.6102974	116.3729069	
121022	-27.9945748	122.8960118	Cosmo Newberry Clinic
121022	-8.5352309	117.4128616	Pustu Desa Kerekeh
121022	41.6737127	-0.8840312	FREMAP
121023	41.9496337	-91.7154854	Mercy Care CenterSouth
121023	-13.829587	-171.7709334	Savalalo Medical Clinic
121023	-8.433799	118.33448	PUSTU TAROPO
121023	53.4851741	-2.3411076	St. Andrew's Medical Centre
121023	42.0502005	-92.9068436	McFarland Clinic
121023	53.4851696	-2.3413273	St Andrew's Medical Centre
121024	-8.6584777	116.3308459	Puskesmas Muncan
121024	-8.7763025	116.5175922	
121024	-8.7760719	116.5174881	
121025	-13.8332895	-171.7672693	
121025	50.1408559	19.3983701	Centrum Medyczne Diabet
121025	22.3826234	114.2017021	圓洲角診所 Yuen Chau Kok Clinic
121025	46.8847765	42.5167237	Камышевская амбулатория
121026	43.8685579	10.3412748	presidio distrettuale Massarosa
121026	43.8678596	10.3429568	Dr.Bonamicio Lisabetta
121027	-8.5966306	118.3795456	Pustu Desa Mumbu
121027	43.856253	10.3535007	Ambulatorio
121027	44.9370411	-93.0885572	Health Partners St Paul Clinic
121028	50.8212942	-1.3751085	Blackfield Health Centre
121029	55.1341397	60.1485675	Детская поликлиника ГБ №4
121029	-5.8788575	110.4341748	Puskesmas
121029	55.0416417	60.113511	Врачебно-физкультурный диспансер
121029	55.0039457	60.1022652	Детская поликлиника ГБ №1 им. Г. К. Маврицкого
121029	54.9882129	60.1002264	Женская консультация ГБ №1 им. Г. К. Маврицкого
121029	55.0485581	60.0781458	Терапевтическое отделение №3 ГБ №2
121029	54.9890433	60.1016555	Поликлиника ГБ №1 им. Г. К. Маврицкого
121029	-5.4301472	119.411179	Puskesmas pembantu
121030	27.680718	85.3472155	Singapore Gorkha Polyclinic
121030	50.2296115	18.6621827	Sanvita
121031	-8.1820369	117.7163746	Polindes
121031	-8.1820369	117.7163746	Polindes
121031	27.8949639	-82.7443858	Apollo Hair Loss Clinic
121031	27.916889	-82.74727	East Bay Medical Center
121031	52.9773616	-0.0281777	
121031	52.975601	-0.0344433	Boston Dialysis Centre
121031	52.9752075	-0.0339938	Boston NHS Treatment Centre
121101	6.3527591	-58.707135	
121102	27.812402	-82.638305	Allergy & Asthma Center
121102	43.6102425	3.8649204	Centre aide à la santé mentale
121102	48.6907172	9.1612215	Physiotherapiepraxis Trapezius
121102	27.8015908	-82.6390364	Farkas Chiropractic Clinic
121103	37.848102	-122.2782301	Over 60 Health Center
121103	62.6244417	17.9298577	Hälsocentralen Södra Sundet
121103	43.6212731	-79.5262599	Heritage Physiotherapy
121103	43.6212886	-79.5261874	Dr. O.K. Medical & Dental Clinic
121103	56.1669129	97.1917136	Поликлиника
121104	48.5669284	16.58505	Ambulatorium für Rheumatherapie
121105	54.7076766	40.8563809	Медпункт
121106	-8.7125706	116.3080743	polindes
121106	35.1467337	136.9065089	平子医院
121106	-5.441863	119.4106442	Pustu
121106	-38.9516641	-68.0531544	Clínica Raña (Hemoterapia)
121106	-38.949752	-68.0559556	Clínica Salud Mental del Comahue
121106	-38.9498487	-68.0557632	Concultorios médicos
121107	63.8204264	20.252773	Tegs vårdcentral
121107	63.8564806	20.3173338	Ersboda vårdcentral
121107	63.8387076	20.3281622	Mariehems vårdcentral
121107	63.8374018	20.1611117	Läkarhuset Norr
121107	64.9095531	19.4910779	Norsjö vårdcentral
121107	63.8372641	20.1632744	Backens vårdcentral
121107	63.8331469	20.252637	Dragonens hälsocentral
121108	27.7353807	85.3151194	Nepal Siddhartha Sadan Polyclinic
121108	27.7347513	85.3162511	Sai Polyclinic and Diagnostic Centre
121108	55.0357607	60.1127452	Стоматологическая поликлиника
121108	41.2704991	-8.080254	Clinica de Amarante
121110	40.8367487	-8.4781182	Aveilab
121110	40.8390885	-8.4792492	Clínica de Análises OAZ
121111	51.0496763	0.1850511	
121113	63.7287312	8.8277988	Frøya Legekontor
121113	52.2509578	20.9896804	NZOZ Karmelicka
121113	-8.6822984	118.3561283	Polindes
121113	28.0160894	-82.7381305	MedExpress
121114	64.5403624	40.509852	Клиника пластической хирургии и косметологии "Пульс"
121114	39.6405794	-75.6476994	United Spine Center
121114	43.5574446	-79.7560985	Britannia Medical Clinic
121114	39.4232665	20.0488173	Κέντρο Υγείας Λευκίμμης
121115	43.8530457	18.4012899	Zavod za ginekologiju, perinatologiju i neplodnost “Mehmedbašić”
121115	46.3603502	6.4486958	Clinique Lamartine
121115	41.6682314	-4.73548	
121115	-0.8758211	119.8735143	Puskesmas Talise
121115	42.190814	48.0678836	Врачебная амбулатория
121116	25.690431	-100.252437	Centro Médico Lindavista
121117	55.9785522	49.3048267	Усадская амбулатория
121117	41.6822135	-91.5643533	University of Iowa Health Care
121118	27.8439754	-82.6884186	Fresenius Medical Care
121118	27.8225504	-82.6471746	Community Care Medical Center
121118	27.814379	-82.6389955	All Florida Orthopaedic Associates
121118	27.8292483	-82.6503409	Quest Diagnostics
121118	27.8578656	-82.7005802	Florida Medical Center
121118	54.7255707	20.4807887	Центр лазерной микрохирургии глаза
121119	24.858187	-99.568573	Ginecologia
121120	54.3984841	-1.6156997	Scorton Medical Centre
121120	53.5241626	-113.6391555	Belmead Medical Center
121121	59.9128845	10.7629955	Gamle Oslo smittevernkontor og reisevaksinasjon
121121	51.3370111	25.8450849	Приватний медичний кабінет "Здоров'я жінки"
121122	25.69024	-100.253174	Policlínica
121122	27.893584	-82.784595	Medexpress
121122	55.8229381	37.7558768	
121123	-8.5188344	118.2659257	PUSTU
121123	37.3587068	-5.9806152	consultas Sagrado Corazón
121123	37.3589215	-5.9801211	Instituto Neurologia
121124	53.2025006	63.6268577	Медицинский Центр "Жемчужина"
121124	-8.5303099	118.2322528	POLINDES
121124	53.2205136	63.6233424	медцентр Коктем
121125	42.8497432	-2.6686139	Clínica La Esperanza
121125	41.7141521	-71.1387145	Truesdale Clinic
121125	12.9267313	77.6346384	Shilpa Homeopathic Clinic
121125	31.70115	-98.9874117	Coggin Avenue Medical Park
121125	34.9986501	35.9139167	
121125	44.4243949	26.103226	Medlife Unirii
121125	40.617956	-8.6250624	CERCIAV
121125	41.6600322	-4.7807352	Centro de Salud de Zaratán
121125	2.7739129	32.3006578	Gulu Child and Family Clinic
121125	41.6602234	-4.7807955	Centro de Salud de Zaratán
121126	41.7750406	44.7756391	ჰერა
121126	27.8289221	-82.6506684	Amcare Family Clinic
121128	27.6716852	85.339385	M Family Polyclinic
121129	55.8363664	37.6444653	Московский научно-практический центр дерматовенерологии и косметологии - филиал «Бабушкинский»
121130	-10.23577	123.6341984	Polindes Lama
121130	-9.6421068	119.8366682	Polindes Katoda Okur
121201	-9.968912	120.4366713	pustu Kambata Bundung
121202	55.8188596	37.9656653	Городская детская поликлиника № 7
121203	38.9729418	-0.1758321	Centro Médico Gandia
121206	55.8712094	37.6773517	
121207	52.2702715	8.0325185	Medicos
121208	31.7537569	-93.0737695	Natchitoches Community Care Center
121209	39.9932818	-82.9427969	Wellness Center
121210	56.1096265	40.431598	Клиника вертебрологии
121210	56.1027499	40.4395767	Поликлиника областной клинической больницы
121210	56.1084207	40.2841613	Поликлиника №6
121211	53.599147	-113.387004	Medicentre
121212	35.158015	136.8821875	野村医院
121212	59.3401936	18.0522633	Inside Team
121214	55.7264007	37.5792136	Будь Здоров
121214	55.7919302	37.5998077	Будь здоров
121214	40.5587879	-74.3487313	Edison Imaging Associates
121215	35.991623	139.546087	かわかみこどクリニック
121216	42.4662407	-93.8177875	McFarland Clinic
121216	39.0451757	-94.4115742	Jeffrey Lamb Chiropractic
121216	42.5195233	-93.2662647	McFarland Clinic
121217	-24.7310774	-65.4020226	Centro de Salud N° 15
121218	-9.6110032	119.6235894	Polindes Waihibur
121219	27.7452741	85.3588122	Gaun Ghar Clinic
121219	54.8587234	69.1644593	Железнодорожная поликлиника
121219	54.8656501	69.1287724	Детская поликлиника
121219	49.0949861	7.9887082	BioMed
121221	-8.1820005	117.7163215	
121222	50.8495177	4.3752403	Pacific medical center
121222	55.575806	38.2167966	Раменская городская детская поликлиника
121222	33.6924396	-116.1860263	Coachella Health Clinic
121223	-8.7460737	118.5671552	Poskesdes
121223	59.9288747	30.3254173	Офтальмологическая клиника Эксимер
121224	49.2989756	14.4689598	Lékařská služba první pomoci
121224	55.7762412	37.6297916	
121226	-37.8293679	147.6136046	
121226	3.2595747	101.5519015	Klinik Desa Kuang
121227	3.2192224	101.5823132	Jabatan Patologi
121227	43.916035	-122.822091	PeaceHealth Medical Group
121228	-8.5977561	116.3531247	Puskesdes Mas - Mas
121228	22.3396936	114.2075	東九龍分科診療所 East Kowloon Polyclinic
121229	32.0817784	34.8838038	קופת חולים כללית
121229	22.3098352	114.1694069	油麻地賽馬會分科診所 Yau Ma Tei Jockey Club Polyclinic
121230	34.755238	135.05599	国広医院
121230	48.4541619	-4.2599405	Clinique Saint-Luc
121230	34.6992202	-118.1479401	Antelope Valley Neuroscience Medical Group
121231	27.7204125	85.3242895	Lazimpat Sulav Clinic
121231	45.4248866	-75.7407263	Pavillon Marcel-d'Amour
130101	51.0711727	19.4503615	Przychodnia NZOZ MEDAX
130102	47.762374	-122.206434	Lakeshore Clinic
130102	43.2400049	28.0161372	Здравна служба
130103	40.4347702	16.8670929	
130104	13.7798054	100.4367486	คลิินิคแพทย์แผนไทยและการแพทย์ทางเลือก สาขา 1
130104	55.7695313	37.6305853	Будь здоров
130105	46.3163061	7.4935782	Clinique Genevoise de Montana
130105	-8.8176718	118.627685	Poskesdes
130106	-12.2559938	-38.9495747	IMME
130108	39.9976322	-105.2358413	Kaiser Permanente
130108	42.5166193	-92.4636233	Student Health Center
130109	27.712118	85.334081	Carving Hands Polyclinic & Diagnostics
130109	-8.5014347	117.4275455	Puskesmas Seketeng
130110	-8.7761593	116.5174759	Polindes Tanjung Luar
130110	-8.7762207	116.5176059	Pustu Tanjung Luar
130110	-8.6189915	116.266916	POLINDES DESA TAMAN INDAH
130111	52.0446585	1.165157	Riverside Clinic
130111	52.8128324	-2.0778113	
130112	27.7079395	85.3315521	Super X ray Clinic
130113	56.5221764	43.5494404	Здоровое поколение
130114	42.5338208	-92.4592233	Cedar Valley Medical Clinic
130115	45.3878849	-75.65176	Revisagé
130116	25.1009224	121.4512865	成洲診所
130116	55.8084966	37.2861537	фельдшерско-акушерский пункт
130120	51.1225726	-114.196969	North West Health Center
130120	48.345035	7.8850987	Ärztehaus am Klinikum
130121	55.8968597	37.7120403	Поликлиника №5
130122	32.0199177	34.7662442	המרפאה הקהילתית לבריאות הנפש
130122	57.2982707	39.8521204	Поликлиника
130122	47.446903	-0.408861	
130123	35.811097	139.550643	オギシマ歯科
130123	53.2599748	14.6193302	NZOZ Gardno
130124	45.0682253	39.0269885	Городская поликлиника №13 "Калининская"
130125	27.7195266	85.3126478	
130125	34.698336	135.531868	井上クリニック
130125	36.398281	139.726551	Dental
130126	-13.9683411	33.7415478	ABC Clinic
130126	34.698673	135.532543	菅澤眼科
130126	34.704433	135.558058	馬場内科・循環器科
130126	-8.5543953	118.8576383	Pustu Kombo
130126	55.6414601	37.6163657	
130126	57.5839106	61.7509703	Санаторий "Самоцвет"
130126	35.80701	139.452443	桃井耳鼻咽喉科
130126	27.786954	-82.63826	Cool-U
130127	35.448692	139.397448	にしのキッズクリニック
130127	35.448708	139.39725	やまなかクリニック
130128	35.762584	139.308061	柳田医院
130128	35.707214	139.371017	富士診療所
130128	35.774612	139.301405	松田医院
130128	-22.8982836	-48.4493254	Policlínica Cecap
130129	32.0530466	34.8097572	לאומית
130130	43.8198941	18.3618446	Poliklinika "Bioritam"
130130	36.397933	139.730866	こばやしクリニック
130130	35.785987	139.28647	かごしま眼科
130131	35.535197	139.699417	大野クリニック
130131	48.4238006	-89.2742155	Fort William Clinic
130131	31.8081736	35.1989057	מרכז רפואי רמות
130201	27.94522	-82.515883	Moore Clinical Research
130201	36.389885	139.737218	
130202	35.655214	139.336143	みすぎ整体院
130202	35.680634	139.392821	よこやま 耳鼻咽喉科
130202	35.6806	139.392893	こばやし 皮膚科
130202	45.1904909	5.7173274	Cabinet Infirmier Viallet Soins
130202	57.7003541	11.9814894	Akutläkarna
130202	40.4259846	-3.5331745	Adeslas
130202	-34.687357	-55.9020451	Policlínica Empalme Olmos - ASSE
130203	35.275253	-120.646004	San Luis Obispo County Health Agency
130203	47.3452506	3.6705477	Le Réconfort
130203	35.2505442	136.978318	呂接骨院
130204	35.535921	139.700394	アルファメディック クリニック
130204	10.3379301	123.943115	24hr Birthing Center
130205	35.700145	139.464818	にしこく鍼灸整骨院
130205	35.697557	139.410481	たにざわ歯科クリニック
130205	33.6409987	-86.6262079	American Family Care: Urgent Care Clinics
130206	44.3974086	11.8930258	villa Maria
130206	55.8129257	37.7801855	Поликлиника № 222
130208	56.7847455	36.1156295	Амбулатория
130208	45.4993333	-122.8100626	Virginia Garcia Memorial Health Center - Beaverton Clinic
130208	-5.1753696	119.4063498	Alifia
130209	55.8041007	37.64499	
130209	43.2639705	-79.878526	Massage Clinic
130209	43.2607052	-79.8840522	Medical Clinic and Lab
130209	43.2608028	-79.8836231	Massage and Therapy
130209	43.2596504	-79.8819869	Medical Clinic
130209	35.673273	139.478982	弓狩眼科
130211	-37.9789913	145.2593668	Endeavour Hills Specialist Clinic
130211	-37.9787714	145.2610271	Raymond McMahon Medical Centre
130211	35.530403	139.495375	牧医院
130211	55.7380301	37.5161912	Клиника лечения позвоночника
130211	54.2448938	-0.7808728	Pickering Medical Practice
130212	35.798642	139.435465	彩のクリニック
130212	35.790138	139.455127	にしとこ接骨院
130212	43.5919407	-79.5428326	Signature Rehabilitation Clinic
130213	48.394679	9.9645057	Tagesklinik Söflingen
130213	35.799402	139.449555	桐原アニマルメディカルセンター
130213	35.532749	139.492893	横浜ながつた内科・呼吸器クリニック
130213	35.801841	139.446351	高橋耳鼻科
130213	43.593363	-79.5375959	ETPS Pain Centre
130213	43.6019123	-79.5455738	Alderwood Medical Clinic
130213	56.7437271	14.9220203	
130213	51.5825043	-0.0101152	Addison Road Medical Practice
130214	26.5164801	-78.6871375	
130214	51.583868	-0.0072563	
130214	35.786476	139.285506	河辺きらきら整骨院
130214	35.787297	139.28592	ソフィア鍼灸治療院
130215	-32.8907983	-68.845587	Clinica Oido y Garganta
130216	34.702911	135.56308	小林医院
130217	47.6239557	-122.3210822	ZoomCare
130217	35.744661	139.322798	内山耳鼻咽喉科医院
130217	35.783683	139.282345	桜井クリニック
130217	50.1183376	22.2328115	Ośrodek zdrowia
130217	47.6465547	-121.9149324	Tolt Family Clinic
130218	36.386781	139.738749	田島眼科医院
130218	45.428209	28.046956	Doctor Pediatru Baciu Ginel
130218	45.4356422	28.0549276	Avant Medica
130218	45.436176	28.0245044	Danubius Medica
130218	-38.0210328	145.298545	
130218	27.8009388	-82.6472673	Reinhart Chiropractic Clinic
130219	54.8614406	23.8688221	Šeimos klinika „Sveikatos ratas“
130219	34.721274	135.126826	金子クリニック
130219	12.918328	80.187629	RA Usha's clinic
130219	12.917927	80.187478	SV clinic
130219	12.917897	80.187416	SV Lab
130219	12.917246	80.1873	V-Care Clinic
130220	25.0598724	121.5305602	德容聯合診所 (DeRon Group Practice Clinic)
130220	12.886344	80.188974	KK clinic
130220	12.74556	-8.01583	ALLAMA
130220	13.5500367	-7.4335517	BANAMBA clinic
130220	14.3335958	-3.6000519	BANDIAGARA clinic
130220	14.066895	-3.5166811	BANKASS clinic
130220	12.56682	-7.97684	BARA SOW
130220	12.60019	-8.00704	BIOTECH
130220	12.93358	-5.75022	BLA clinic
130220	16.9533333	-0.3538889	BOUREM clinic
130220	14.65001	-6.00001	Bakary Katilé
130220	13.43339	-6.26677	C M I E
130220	12.8669439	-7.5335197	CIBSSK
130220	13.13352	-5.06669	CMA
130220	14.46979	-11.42823	CMIE  - Chemin de Fer
130220	10.95662	-5.90781	CMIE  - Sikasso
130220	11.42287	-7.47783	CMIE - Bougouni
130220	12.60697	-8.00223	CMIE - Commune5
130220	16.34272	-0.091	CMIE - Gao
130220	12.63037	-8.03364	CMIE - Kati
130220	14.46979	-11.42723	CMIE - Kayes
130220	13.03525	-9.47413	CMIE - Kita
130220	12.8934	-7.56654	CMIE - Koulikoro
130220	12.39055	-5.47027	CMIE - Koutiala
130220	15.17979	-7.27389	CMIE - Nara
130220	14.25846	-5.98423	CMIE - Niono
130220	13.31178	-4.9041	CMIE - San
130220	13.43968	-6.27467	CMIE - Ségou
130220	12.61686	-8.0501	COH
130220	12.60219	-7.97853	COMMUNE5 clinic
130220	12.60405	-7.94127	COMMUNE6 clinic
130220	17.0347222	-1.5702778	CSCOM de ABAKOIRA
130220	19.46233	1.98864	CSCOM de ABEIBARA CENTRAL
130220	23.00839	-5.29455	CSCOM de ACHARANE
130220	16.87462	-4.35126	CSCOM de ADERMALANE
130220	18.05124	1.43629	CSCOM de AGHABO
130220	17.19239	-1.75981	CSCOM de AGLAL
130220	21.07792	-3.5159	CSCOM de AGOUNI
130220	18.32173	1.70062	CSCOM de ALIOU
130220	16.2669317	-9.0333719	CSCOM de ALJANABANDJA
130220	15.09111	-8.6054	CSCOM de ALLAHINA
130220	17.47898	0.2513	CSCOM de ALMOUSTARAT
130220	14.79329	-2.97185	CSCOM de AMBA
130220	14.7936	-11.75116	CSCOM de AMBIDEDI-KORE
130220	15.5275	-4.213	CSCOM de AMBIRI
130220	15.5088333	-4.2068333	CSCOM de AMBIRI-HABE
130220	15.79104	3.38357	CSCOM de ANDERAMBOUKANE
130220	15.9418	-3.94919	CSCOM de ANDIAM
130220	18.23253	0.87414	CSCOM de ANEFIF
130220	15.53711	2.49717	CSCOM de ANOUZEGRENE
130220	14.99123	-11.4955	CSCOM de AOUROU
130220	18.90417	-3.525	CSCOM de AROUANE
130220	12.5500544	-8.0000089	CSCOM de ASACO KANER
130220	12.3908333	-5.2447222	CSCOM de ASACO LELENI
130220	12.51719	-7.82432	CSCOM de ASACOKA
130220	12.62568	-7.85851	CSCOM de ASACOSIME
130220	12.5500614	-8.016705	CSCOM de ASAKKOUL
130220	14.57205	-4.20992	CSCOM de ASCOTAMB
130220	19.09701	0.73925	CSCOM de ASSEKHAT (ADEL - HOC)
130220	18.09329	-3.0158	CSCOM de ASSIDI
130220	15.74868	-4.33661	CSCOM de ATTARA
130220	15.15438	-9.52366	CSCOM de AWOINY
130220	13.78417	-5.67674	CSCOM de BABOUGOU
130220	15.47479	-11.45445	CSCOM de BAFARARA
130220	13.80095	-10.75875	CSCOM de BAFOULABE CENTRAL
130220	16.6373	-0.14557	CSCOM de BAGNADJI
130220	12.65298	-7.69019	CSCOM de BAGUINEDA
130220	16.9858333	-1.4358333	CSCOM de BAHONDO
130220	13.29939	-9.85113	CSCOM de BALANDOUGOU
130220	15.20151	-8.37396	CSCOM de BALLE
130220	13.26694	-10.50806	CSCOM de BAMAFELE
130220	10.42932	-7.12945	CSCOM de BAMBA
130220	17.41839	-1.17878	CSCOM de BAMBA
130220	15.71267	-2.55951	CSCOM de BAMBARA MAOUDE
130220	13.81386	-6.22426	CSCOM de BANANKORO
130220	10.8841667	-6.0311111	CSCOM de BANANSO
130220	12.01635	-6.4549	CSCOM de BANCO
130220	14.32521	-3.71993	CSCOM de BANDIAGARA CENTRAL
130220	11.40516	-5.30867	CSCOM de BANDIERESSO
130220	15.3118	-10.53021	CSCOM de BANDIOUGOULA
130220	12.00799	-5.16744	CSCOM de BANESSO
130220	15.26271	-9.00495	CSCOM de BANIERE KORE
130220	16.82547	-1.67306	CSCOM de BANIKANE
130220	14.02956	-3.47054	CSCOM de BANKASS CENTRAL
130220	10.5401096	-7.2419	CSCOM de BANZANA
130220	15.8723	0.37876	CSCOM de BARA
130220	13.55851	-4.6206	CSCOM de BARAMANDOUGOU
130220	14.29905	-3.08411	CSCOM de BARAPIRELI
130220	13.93973	-2.96756	CSCOM de BARGOU
130220	16.8786111	-0.2958333	CSCOM de BARIA
130220	13.13281	-6.7534	CSCOM de BAROUELI CENTRAL
130220	14.68835	-10.91159	CSCOM de BATAMA
130220	13.64055	-3.38938	CSCOM de BAYE
130220	15.53685	0.20094	CSCOM de BAZI GOURMA
130220	15.69436	0.46426	CSCOM de BAZI HAOUSSA
130220	15.27129	-8.48377	CSCOM de BEDIATT
130220	12.62813	-6.58811	CSCOM de BELEKO SOBA
130220	17.49199	-2.43288	CSCOM de BELLAFARANDI
130220	15.02199	-9.28481	CSCOM de BEMA
130220	14.4293	-3.59523	CSCOM de BENDIELY
130220	14.50916	-10.23203	CSCOM de BENDOUGOU
130220	13.13258	-4.39676	CSCOM de BENENA
130220	16.71	-2.01	CSCOM de BENGUEL
130220	12.83513	-5.89256	CSCOM de BENGUENE
130220	15.36846	0.57102	CSCOM de BENTIA
130220	18.32987	-1.5642	CSCOM de BER
130220	16.59966	0.24219	CSCOM de BERRAH
130220	15.35966	-10.67044	CSCOM de BILADJIMI
130220	15.40136	-8.52213	CSCOM de BINEOU NIAKATE
130220	17.50356	-4.16336	CSCOM de BINTAGOUNGOU
130220	12.95178	-5.71822	CSCOM de BLA CENTRAL
130220	11.59709	-6.30071	CSCOM de BLENDIO
130220	12.54	-4.99278	CSCOM de BOBOLA ZANGASSO
130220	12.78117	-5.50772	CSCOM de BOGONI
130220	14.24241	-6.21305	CSCOM de BOH
130220	14.58284	-5.73896	CSCOM de BOLIBANA B6
130220	12.44592	-5.21946	CSCOM de BONGOSSO
130220	14.0868397	-4.13551	CSCOM de BONGUEL
130220	14.93013	-1.72766	CSCOM de BONI
130220	15.12101	-3.37587	CSCOM de BORE
130220	17.28767	-2.10739	CSCOM de BORI
130220	14.94277	-3.30288	CSCOM de BORKO
130220	14.03091	-7.38364	CSCOM de BORON
130220	14.82914	-6.56509	CSCOM de BOUDJIGIRE
130220	13.2471	-9.54984	CSCOM de BOUDOFO
130220	12.38222	-6.36417	CSCOM de BOUGOUCOURALA
130220	10.72006	-6.87347	CSCOM de BOUGOULA
130220	12.97694	-5.28778	CSCOM de BOUGOURA
130220	16.25908	0.3292	CSCOM de BOULGOUNDIE
130220	13.05167	-5.04667	CSCOM de BOUNOUMBA
130220	15.29553	-11.50862	CSCOM de BOUNTINGUISSE
130220	12.40197	-4.56208	CSCOM de BOURA
130220	16.91852	-0.31152	CSCOM de BOUREM CENTRAL
130220	16.44927	-3.29466	CSCOM de BOUREM-SIDI-AMAR
130220	17.15814	-2.28753	CSCOM de BOUREMINALY
130220	13.48694	-5.69612	CSCOM de BOUSSIN
130220	15.89652	0.28483	CSCOM de BOYA
130220	15.81149	-3.38352	CSCOM de BOYO
130220	14.48094	-4.14201	CSCOM de CELLAL-NATI
130220	16.99156	-0.50184	CSCOM de CHABARIA
130220	16.36623	0.30226	CSCOM de CHATEAU
130220	13.28648	-5.93465	CSCOM de CINZANA
130220	14.46989	-6.16097	CSCOM de COCODY
130220	14.8002214	-5.95015	CSCOM de CSCOM K2
130220	14.22332	-11.95798	CSCOM de DAGASSENOU
130220	13.14953	-4.90293	CSCOM de DAH
130220	14.81915	-2.08898	CSCOM de DALLAH
130220	11.04694	-5.53944	CSCOM de DALLE
130220	14.13415	-7.48123	CSCOM de DAMPHA DIARISSO
130220	11.46763	-5.46698	CSCOM de DANDERESSO
130220	12.69319	-6.50774	CSCOM de DANDOUGOU
130220	14.1553	-2.93846	CSCOM de DANGATENE
130220	16.51592	-3.15909	CSCOM de DANGHA
130220	14.80785	-3.20956	CSCOM de DE
130220	11.61224	-7.05226	CSCOM de DEBELIN
130220	14.59703	-9.39486	CSCOM de DEBOMASSASSI
130220	11.0102797	-7.1580901	CSCOM de DEFINA
130220	12.28636	-6.64082	CSCOM de DEGNEKORO
130220	11.48667	-5.48278	CSCOM de DEMBELLA
130220	14.33279	-4.92403	CSCOM de DIA
130220	14.81659	-5.73375	CSCOM de DIABALY
130220	15.08968	-9.14922	CSCOM de DIABIGUE
130220	14.09108	-5.00218	CSCOM de DIAFARABE
130220	11.1743	-7.1104	CSCOM de DIAKA
130220	13.44208	-10.4511	CSCOM de DIAKABA
130220	13.92102	-10.89717	CSCOM de DIAKITELA
130220	14.55665	-6.14725	CSCOM de DIAKIWERE
130220	14.35547	-10.30439	CSCOM de DIAKON
130220	12.91567	-5.12961	CSCOM de DIAKOUROUNA
130220	14.57225	-11.40511	CSCOM de DIALA KHASSO
130220	13.40736	-11.42024	CSCOM de DIALAFARA-KENIEBA
130220	14.17337	-10.18191	CSCOM de DIALLAN
130220	14.51826	-11.91684	CSCOM de DIALLANE
130220	13.71534	-3.59705	CSCOM de DIALLASSAGOU (ASACODA)
130220	13.6544199	-3.52297	CSCOM de DIALLAYE
130220	15.04898	-4.15914	CSCOM de DIALLOUBE
130220	13.61641	-4.10676	CSCOM de DIAMAKAN
130220	14.86147	-3.96767	CSCOM de DIAMBACOUROU
130220	13.99455	-11.16786	CSCOM de DIAMOU
130220	14.68123	-2.17061	CSCOM de DIAMWELY-MAOUNDE
130220	13.98034	-3.99284	CSCOM de DIANGASSAGOU
130220	14.67572	-9.53606	CSCOM de DIANGOUNTE CAMARA
130220	14.3201	-8.9993	CSCOM de DIANGUIRDE
130220	14.56078	-2.98592	CSCOM de DIANKABOU
130220	15.78445	-4.61018	CSCOM de DIANKE
130220	15.12581	-9.70062	CSCOM de DIANWELY COUNDA
130220	12.8433	-5.33917	CSCOM de DIARAMANA
130220	15.34293	-9.19686	CSCOM de DIARRAH
130220	15.15302	-10.0888	CSCOM de DIAYE KOURA
130220	11.96616	-7.29328	CSCOM de DIBAN
130220	14.38827	-12.06613	CSCOM de DIBOLI
130220	13.88482	-8.27569	CSCOM de DIDIENI
130220	12.58722	-6.59074	CSCOM de DIEBE
130220	13.00575	-5.5967	CSCOM de DIEDALA
130220	12.37222	-6.05494	CSCOM de DIEDOUGOU
130220	12.44905	-6.34598	CSCOM de DIEDOUGOU
130220	13.00952	-5.118	CSCOM de DIELI
130220	13.10027	-5.96292	CSCOM de DIENA
130220	14.39008	-9.80264	CSCOM de DIEOURA
130220	14.54816	-8.0306	CSCOM de DIGAN
130220	14.59952	-5.12987	CSCOM de DIGUICIRE
130220	14.79008	-7.20706	CSCOM de DILLY
130220	13.99618	-3.60754	CSCOM de DIMBAL
130220	14.51303	-2.17311	CSCOM de DINAGOUROU
130220	13.64108	-10.40769	CSCOM de DIOKELI
130220	11.72833	-6.44944	CSCOM de DIOMATENE
130220	15.17255	-10.5791	CSCOM de DIONCOULANE
130220	14.69388	-4.78934	CSCOM de DIONDIORI
130220	15.14019	-10.97199	CSCOM de DIONGAGA
130220	12.91541	-4.67626	CSCOM de DIORA
130220	10.5869444	-5.9786111	CSCOM de DIOU
130220	16.0245	-4.05154	CSCOM de DIOULABOUGOU - NIAFUNKE
130220	14.635	-8.66304	CSCOM de DIOUMARA
130220	10.5316496	-5.9074702	CSCOM de DIOUMATENE
130220	13.57415	-6.18651	CSCOM de DIOUNA
130220	14.27723	-2.71851	CSCOM de DIOUNGANI
130220	13.92639	-10.0443	CSCOM de DIOUNGOUNTE
130220	14.90729	-5.17079	CSCOM de DIOURA
130220	16.27626	-3.48333	CSCOM de DIRE CENTRAL
130220	13.47569	-5.11194	CSCOM de DJEBALA
130220	16.46728	0.77922	CSCOM de DJEBOCK
130220	13.20126	-5.15745	CSCOM de DJEGUENA
130220	13.84442	-4.55807	CSCOM de DJENNE CENTRAL
130220	13.61244	-6.00571	CSCOM de DJIBOUGOU
130220	13.40824	-9.6114	CSCOM de DJIDIAN
130220	14.60462	-7.616	CSCOM de DJIGUE
130220	14.23767	-11.03964	CSCOM de DJINGUILOU
130220	12.2583333	-5.6305556	CSCOM de DJITAMANA
130220	14.16149	-9.85474	CSCOM de DJOUGOUN
130220	15.87879	-4.52848	CSCOM de DOFANA
130220	14.86347	-3.35111	CSCOM de DOGANI - BERE
130220	15.1678333	-4.4243333	CSCOM de DOGO
130220	11.90495	-7.32364	CSCOM de DOGO-BOUGOUNI
130220	12.53254	-8.02262	CSCOM de DOGODOUMA
130220	14.97995	-10.90707	CSCOM de DOGOFRI
130220	14.89594	-5.84653	CSCOM de DOGOFRY
130220	12.14784	-5.91302	CSCOM de DOGONI
130220	12.58631	-6.47427	CSCOM de DOLENDOUGOU
130220	11.74572	-6.87991	CSCOM de DOMBA
130220	14.34185	-10.53209	CSCOM de DOUALE
130220	14.14233	-7.91647	CSCOM de DOUBABOUGOU
130220	15.10392	-2.59361	CSCOM de DOUENTZA CENTRAL
130220	13.77027	-5.89823	CSCOM de DOUGABOUGOU
130220	14.84463	-5.94442	CSCOM de DOUGOUBA
130220	11.43417	-5.64222	CSCOM de DOUGOUKOLOBOUGOU
130220	12.91339	-5.57697	CSCOM de DOUGOUOLO
130220	11.44611	-6.49306	CSCOM de DOUMANABA
130220	11.66917	-5.93278	CSCOM de DOUMANANI
130220	12.04942	-4.78676	CSCOM de DOUNA
130220	13.99889	-3.71423	CSCOM de DOUNDE
130220	13.68871	-6.01482	CSCOM de DOURA
130220	13.9288889	-6.2075	CSCOM de DOURA
130220	14.26424	-3.55543	CSCOM de DOUROU
130220	14.16353	-3.50151	CSCOM de ENDE
130220	18.69814	-2.14187	CSCOM de ERINTEDJEFT
130220	18.506	-0.42667	CSCOM de ERSANE
130220	17.6658	-3.82695	CSCOM de ESSAKANE
130220	19.02795	1.41429	CSCOM de ESSOUK
130220	10.49719	-6.92895	CSCOM de FAKOLA
130220	14.37983	-7.6032	CSCOM de FALLOU
130220	11.43972	-5.74611	CSCOM de FAMA
130220	13.41672	-5.48891	CSCOM de FAMORILA
130220	12.45861	-5.31472	CSCOM de FAMOUSSASSO
130220	15.11045	-10.39595	CSCOM de FANGA
130220	13.53861	-4.37742	CSCOM de FANGASSO
130220	13.19777	-5.33865	CSCOM de FANI
130220	11.53472	-5.69167	CSCOM de FANTARASSO
130220	15.5061667	-3.939	CSCOM de FAOU
130220	14.51892	-9.56701	CSCOM de FARABOUGOU
130220	11.28131	-5.79854	CSCOM de FARAKALA
130220	11.37059	-6.57455	CSCOM de FARAKO-KOLONDIEBA
130220	14.99901	-9.48934	CSCOM de FASSOUDEBE
130220	14.58284	-5.87116	CSCOM de FASSOUM IBT
130220	14.28449	-9.47586	CSCOM de FATAO
130220	13.43046	-5.28142	CSCOM de FATINE
130220	14.61071	-4.07682	CSCOM de FATOMA
130220	14.53951	-12.10457	CSCOM de FEGUI
130220	12.55054	-5.65703	CSCOM de FERME
130220	11.42288	-6.02965	CSCOM de FINKOLO AC
130220	11.31889	-5.72861	CSCOM de FINKOLO Ganadougou
130220	13.44578	-4.7429	CSCOM de FION
130220	11.97936	-6.67393	CSCOM de FISSABA
130220	13.25467	-9.10709	CSCOM de FLADOUGOU BANKASSI
130220	13.60872	-8.87421	CSCOM de FLADOUGOU MADINA
130220	13.37319	-9.14928	CSCOM de FLADOUGOU MARENA
130220	11.48722	-6.26861	CSCOM de FOH
130220	13.66132	-5.0607	CSCOM de FOLOMANA
130220	12.618	-5.65601	CSCOM de FONFONA
130220	16.72338	0.12343	CSCOM de FORGHO
130220	15.1989	-9.7857	CSCOM de FOSSE KAARTA
130220	10.7444444	-6.1469444	CSCOM de FOUROU
130220	15.11139	-9.98111	CSCOM de FRANDALAH
130220	14.56094	-11.17776	CSCOM de GABOU
130220	16.53481	0.27248	CSCOM de GADEYE
130220	15.08279	-9.75628	CSCOM de GADIABA-KADIEL
130220	13.99696	-4.56757	CSCOM de GAGNA
130220	14.69032	-11.96865	CSCOM de GAKOURA
130220	14.48886	-2.38115	CSCOM de GANGAFANI
130220	13.36702	-3.60021	CSCOM de GANIDAH
130220	12.30464	-5.11786	CSCOM de GARASSO
130220	16.54891	-3.16772	CSCOM de GARBAKOIRA
130220	17.27744	-1.12865	CSCOM de GARBAME
130220	16.1087	0.54036	CSCOM de GARGOUNA
130220	15.88916	-3.55649	CSCOM de GARNATY
130220	15.4705	-4.6061667	CSCOM de GATHI
130220	15.12669	-10.01649	CSCOM de GAVINANE
130220	15.90657	-3.78007	CSCOM de GAYE MAOUDE
130220	11.80083	-5.74722	CSCOM de GLADIE
130220	12.05672	-4.92761	CSCOM de GNELE
130220	15.56648	-9.377	CSCOM de GOGUI
130220	13.88391	-4.64581	CSCOM de GOMITOGO
130220	11.11278	-6.30056	CSCOM de GONGASSO
130220	14.77828	-11.34864	CSCOM de GORI - GOPELA
130220	15.83423	-1.01554	CSCOM de GOSSI
130220	11.96077	-5.33846	CSCOM de GOUDIE SOUGOUNA
130220	12.79082	-6.42386	CSCOM de GOUENDO
130220	14.7815	-6.88594	CSCOM de GOUMBOU
130220	14.6669	-11.15787	CSCOM de GOUMERA
130220	16.00049	-3.15196	CSCOM de GOUNAMBOUGOU
130220	14.5942	-3.82387	CSCOM de GOUNDAKA
130220	16.71341	-3.76658	CSCOM de GOUNDAM CENTRAL
130220	13.92192	-10.35721	CSCOM de GOUNDARA
130220	13.57574	-11.24264	CSCOM de GOUNFAN
130220	10.7249	-7.0097	CSCOM de GOUROKO
130220	14.86755	-9.15363	CSCOM de GROUMERA
130220	15.14668	-9.39576	CSCOM de GUEDEBINE
130220	14.09916	-9.20134	CSCOM de GUEMOUKOURABA
130220	11.81361	-5.9375	CSCOM de GUENEBA
130220	13.30563	-8.72619	CSCOM de GUENIKORO
130220	13.2588	-11.34475	CSCOM de GUENOUBANTAN
130220	13.99971	-7.66484	CSCOM de GUESSENE
130220	15.0247	-9.59009	CSCOM de GUETEMA
130220	14.6097222	-4.8811111	CSCOM de GUILE
130220	13.98169	-3.32787	CSCOM de GUINAWALO
130220	12.9986	-10.99517	CSCOM de GUINDINSOU
130220	14.55961	-6.54611	CSCOM de GUIRE
130220	14.50323	-8.30079	CSCOM de GUOMITRADOUGOU
130220	16.63139	-0.2725	CSCOM de HA
130220	16.26471	-3.25947	CSCOM de HAIBONGO
130220	16.98092	0.18427	CSCOM de HAMAKOULADJI
130220	12.37778	-5.47222	CSCOM de HAMDALAYE
130220	10.95662	-5.90781	CSCOM de HAMDALLAYE SIKASSO
130220	15.12674	-10.22185	CSCOM de HAMDALLAYE YELIMANE
130220	16.44823	-2.24907	CSCOM de HAMZAKOMA
130220	16.11957	0.42878	CSCOM de HAOUSSA FOULANE
130220	16.26273	-2.67224	CSCOM de HARIBOMO
130220	15.31413	0.32259	CSCOM de HERBA - KOUSOUM
130220	15.02952	-1.11122	CSCOM de HOMBORI
130220	16.94769	-2.43411	CSCOM de HONDOUBOMO KOINA
130220	15.10595	0.39591	CSCOM de HOURARA
130220	14.47199	-3.26574	CSCOM de IBY-AMATO
130220	18.24138	-0.8728	CSCOM de IMILACHE
130220	15.75162	-1.99166	CSCOM de INADIATAFANE
130220	16.24868	3.05607	CSCOM de INCHINANANE
130220	16.13068	1.04388	CSCOM de INDELIMANE
130220	16.75815	3.06669	CSCOM de INEKAR
130220	16.28387	2.50747	CSCOM de INTADEYNI
130220	14.33749	-3.40491	CSCOM de IRELI
130220	18.21717	-4.53423	CSCOM de ISSABERRY
130220	17.09882	-3.19416	CSCOM de ISSAFAYE
130220	11.28914	-6.63435	CSCOM de KAARA
130220	16.88419	-2.64806	CSCOM de KABARA
130220	12.01056	-5.93667	CSCOM de KABARASSO
130220	12.03606	-5.90209	CSCOM de KABARASSO
130220	11.48833	-5.73417	CSCOM de KABOILA
130220	14.63435	-4.368	CSCOM de KADIAL
130220	10.73626	-6.54918	CSCOM de KADIANA
130220	10.5501333	-5.7501789	CSCOM de KADIOLO CENTRAL
130220	11.21361	-5.63306	CSCOM de KAFANA
130220	11.54779	-6.12209	CSCOM de KAFOUZIELA
130220	14.14613	-9.51558	CSCOM de KAGORO-MOUNTAN
130220	10.9688889	-5.6911111	CSCOM de KAI
130220	15.32828	-0.33063	CSCOM de KAIDJOUROUTANE
130220	14.01008	-11.84872	CSCOM de KAKADIAN
130220	14.89768	-4.30247	CSCOM de KAKAGNA
130220	12.95583	-6.80012	CSCOM de KALAKE
130220	14.4079499	-3.4225553	CSCOM de KAMBA
130220	14.8904	-10.68087	CSCOM de KANGUESSANOU
130220	14.14805	-3.61057	CSCOM de KANI - BONZON
130220	14.51092	-3.44356	CSCOM de KANI-GOGOUNA
130220	12.94677	-5.02057	CSCOM de KANIEGUE
130220	15.77921	-3.04497	CSCOM de KANIOUME
130220	14.016725	-4.2167261	CSCOM de KAOURAL - Ben KADI
130220	13.87439	-5.55822	CSCOM de KARA
130220	12.92406	-4.88386	CSCOM de KARABA
130220	16.8655556	-0.3622222	CSCOM de KARABASSANE
130220	12.60173	-5.82024	CSCOM de KARAGOUANA
130220	14.36593	-2.92389	CSCOM de KARAKINDE
130220	12.29076	-5.01037	CSCOM de KARANGANA
130220	11.82722	-5.45833	CSCOM de KARANGASSO
130220	12.28167	-5.25778	CSCOM de KARANGASSO
130220	14.43165	-7.95386	CSCOM de KARFABOUGOU
130220	14.85637	-3.74286	CSCOM de KARGUE
130220	13.17438	-11.0609	CSCOM de KASSAMA
130220	12.70283	-4.89878	CSCOM de KASSOROLA
130220	10.2633333	-6.0233333	CSCOM de KATIELE
130220	13.33118	-5.60395	CSCOM de KATIENA
130220	14.45325	-11.29972	CSCOM de KAYES - KHASSO
130220	14.37659	-11.46872	CSCOM de KAYES LAFIABOUGOU
130220	14.61233	-11.30502	CSCOM de KAYES NDI
130220	13.12959	-5.54392	CSCOM de KAZANGASSO
130220	10.685	-5.5502778	CSCOM de KEBENI
130220	11.23838	-6.95274	CSCOM de KEBILA
130220	13.67533	-4.63521	CSCOM de KEKE
130220	14.51206	-10.68261	CSCOM de KEMBE
130220	12.95393	-5.48372	CSCOM de KEMENI
130220	14.74718	-3.51811	CSCOM de KENDIE
130220	13.44578	-11.73529	CSCOM de KENIEGOULOU
130220	13.55399	-9.68577	CSCOM de KENIENIFE
130220	15.11022	-2.39595	CSCOM de KERENA
130220	17.48582	-1.45012	CSCOM de KERMACHOE
130220	13.94725	-4.94544	CSCOM de KERMETOGO
130220	14.9919444	-10.9852778	CSCOM de KERSIGNANE D
130220	15.29529	-10.11572	CSCOM de KERSIGNANE KANIAGA
130220	18.32291	1.57197	CSCOM de KIDAL CENTRAL
130220	12.50703	-4.87076	CSCOM de KIFFOSSO
130220	11.92798	-6.05441	CSCOM de KIGNAN
130220	15.22256	-2.1551	CSCOM de KIKARA
130220	12.84296	-4.88862	CSCOM de KIMPARANA
130220	15.28933	-10.28698	CSCOM de KIRANE
130220	16.34765	-3.26929	CSCOM de KIRCHAMBA
130220	15.06019	-4.8913	CSCOM de KITA
130220	14.16061	-4.6811	CSCOM de KOA
130220	12.91277	-10.03411	CSCOM de KOBRY
130220	15.26255	-10.51901	CSCOM de KODJE
130220	13.72955	-4.92614	CSCOM de KOE
130220	13.57189	-5.68952	CSCOM de KOILA Bamana
130220	13.95778	-5.573	CSCOM de KOKRY
130220	12.07222	-6.84027	CSCOM de KOLA
130220	11.176	-6.00589	CSCOM de KOLOKOBA
130220	11.05051	-6.88055	CSCOM de KOLONDIEBA CENTRAL
130220	14.27541	-10.71331	CSCOM de KOLONDINKOYE
130220	13.90632	-5.72389	CSCOM de KOLONGO
130220	12.71704	-5.56713	CSCOM de KOLONI
130220	11.18576	-6.55585	CSCOM de KOLOSSO
130220	14.46144	-4.19694	CSCOM de KOMOGUEL 1
130220	13.89749	-6.02312	CSCOM de KOMOLA
130220	16.37075	-3.4497	CSCOM de KONDI
130220	14.55792	-4.88964	CSCOM de KONDO
130220	14.52113	-10.90459	CSCOM de KONIAKARY
130220	12.50368	-6.10517	CSCOM de KONINA - KOUTIALA
130220	13.73859	-4.48217	CSCOM de KONIO
130220	15.54866	-3.72235	CSCOM de KONKOBOUGOU
130220	12.18056	-6.37639	CSCOM de KONKON
130220	14.95358	-4.00247	CSCOM de KONNA
130220	12.945	-5.20778	CSCOM de KONOSSO
130220	12.38107	-5.86898	CSCOM de KONSEGUELA
130220	14.95787	-3.82669	CSCOM de KONTZA PEULH
130220	14.23379	-3.2927	CSCOM de KOPORO PEN
130220	14.1542	-3.33987	CSCOM de KOPORONA
130220	14.46599	-5.0137	CSCOM de KORA
130220	15.01816	-8.8473	CSCOM de KORERA KORE
130220	14.56676	-3.80829	CSCOM de KORI-MAOUNDE
130220	15.35578	-3.7254	CSCOM de KORIENTZE
130220	15.65027	-2.66619	CSCOM de KORO BELLAH
130220	13.95383	-3.02137	CSCOM de KORO CENTRAL
130220	12.04444	-5.79278	CSCOM de KORO-BARRAGE
130220	13.35356	-4.76972	CSCOM de KORO-SAN
130220	15.29559	-7.04305	CSCOM de KORONGA
130220	13.92998	-8.89694	CSCOM de KOTOUBA
130220	14.1352	-4.51763	CSCOM de KOUAKOUROU
130220	11.61194	-6.5175	CSCOM de KOUGNAN
130220	13.73431	-4.75911	CSCOM de KOUIMA
130220	13.27044	-4.24601	CSCOM de KOULA
130220	13.16605	-5.28219	CSCOM de KOULANDOUGOU
130220	13.76599	-3.47898	CSCOM de KOULOGON
130220	13.84118	-3.94586	CSCOM de KOULOU
130220	15.74624	-3.8434	CSCOM de KOUMAIRA
130220	12.04012	-6.18354	CSCOM de KOUMANKOU
130220	11.75012	-6.18354	CSCOM de KOUMANKOUN
130220	11.46422	-6.82561	CSCOM de KOUMANTOU
130220	12.59377	-4.70249	CSCOM de KOUMBIA
130220	13.1804	-10.5667	CSCOM de KOUNDIAN
130220	14.79937	-9.35299	CSCOM de KOUNGO
130220	12.58612	-5.13928	CSCOM de KOUNIANA
130220	11.7575	-6.43806	CSCOM de KOUNKOBA
130220	15.38254	-9.48118	CSCOM de KOUROUKERE
130220	14.70146	-5.75962	CSCOM de KOUROUMA
130220	13.76176	-9.52713	CSCOM de KOUROUNINKOTO
130220	12.16335	-4.8528	CSCOM de KOURY
130220	12.47779	-5.50471	CSCOM de KOUTIALA CENTRAL
130220	12.43835	-5.408	CSCOM de KOUTIALA HAMDALLAYE
130220	12.96808	-5.35773	CSCOM de KOUTIENSO
130220	12.38948	-5.34737	CSCOM de KOUWO
130220	15.36248	-10.49281	CSCOM de KREMIS
130220	13.36829	-4.90767	CSCOM de LAFIABOUGOU
130220	14.64199	-9.99135	CSCOM de LAKAMANE
130220	15.32934	-10.34664	CSCOM de LAKANGUEMOU
130220	14.80739	-10.45048	CSCOM de LAMBATRA
130220	14.3325	-9.53762	CSCOM de LAMBIDOU
130220	10.8127778	-5.71	CSCOM de LANFIALA
130220	13.44042	-4.10599	CSCOM de LANFIALA
130220	14.64176	-12.01254	CSCOM de LANY TOUNKA
130220	14.61946	-9.77736	CSCOM de LATAKAFF
130220	15.40805	0.29105	CSCOM de LELLEHOYE
130220	15.74798	-5.00467	CSCOM de LERE
130220	13.82143	-3.61223	CSCOM de LESSAGOU - HABE
130220	15.06389	-11.7625	CSCOM de LEYA
130220	16.37581	0.0337	CSCOM de LOBOU
130220	11.0375	-5.98083	CSCOM de LOBOUGOULA
130220	10.6333872	-5.7001269	CSCOM de LOFIGUE
130220	14.24467	-11.31541	CSCOM de LOGOSABOUCIRE
130220	14.35272	-11.26437	CSCOM de LONTOU
130220	10.8944444	-5.6052778	CSCOM de LOULOUNI
130220	13.9230556	-6.0413889	CSCOM de M'BEWANI
130220	12.38129	-6.59009	CSCOM de MABAN
130220	13.98562	-5.36668	CSCOM de MACINA CENTRAL
130220	14.02128	-10.60819	CSCOM de MADALAYA
130220	16.77855	-2.26045	CSCOM de MADIAKOYE
130220	13.8149	-4.40344	CSCOM de MADIAMA
130220	14.4149	-9.32799	CSCOM de MADIGA SACKO
130220	14.15167	-10.35874	CSCOM de MADIHAWAYA
130220	14.58574	-7.2897	CSCOM de MADINA KAGORO
130220	13.82053	-7.51195	CSCOM de MADINA SACKO
130220	14.38963	-3.14811	CSCOM de MADOUGOU
130220	12.79091	-4.32884	CSCOM de MAFOUNE
130220	16.61448	0.12052	CSCOM de MAGNADOE
130220	13.56778	-10.82982	CSCOM de MAHINA
130220	12.12366	-4.64897	CSCOM de MAHOU
130220	13.16744	-9.50735	CSCOM de MAKANDIAMBOUGOU
130220	13.73862	-11.24074	CSCOM de MALI - SADIO
130220	14.64395	-5.47079	CSCOM de MALIMANA
130220	13.36214	-9.79745	CSCOM de MAMBRI
130220	11.52324	-7.24068	CSCOM de MAMISSA
130220	11.40472	-5.84583	CSCOM de MANCOURANIE
130220	11.15917	-5.52778	CSCOM de MANDELA
130220	13.01754	-4.46043	CSCOM de MANDIAKUY
130220	12.81868	-4.47045	CSCOM de MANKOINA
130220	13.67695	-7.80126	CSCOM de MANTA
130220	12.93763	-5.9487	CSCOM de MARELA
130220	14.62933	-11.03575	CSCOM de MARENA DIOMBOUGOU
130220	14.31403	-11.73585	CSCOM de MARENA GADIAGA
130220	14.75491	-10.686	CSCOM de MARENA TRINGA
130220	12.70993	-4.61057	CSCOM de MARENA
130220	13.31926	-10.15327	CSCOM de MARENA
130220	13.60717	-5.97262	CSCOM de MARKANIBOUGOU
130220	15.89823	-0.03556	CSCOM de MARSY
130220	11.90312	-6.84182	CSCOM de MASSIGUI
130220	13.8335275	-4.9666961	CSCOM de MATOMO
130220	19.6893	-4.74365	CSCOM de MBOUNA
130220	14.43544	-4.07131	CSCOM de MEDINA COURA
130220	12.3858333	-5.4619444	CSCOM de MEDINA-COURA
130220	11.52444	-5.77222	CSCOM de MEDINE SIKASSO
130220	11.18174	-6.74602	CSCOM de MENA
130220	12.61385	-5.98125	CSCOM de MENA
130220	12.3955556	-4.6733333	CSCOM de MENAMBA
130220	13.77519	-8.23193	CSCOM de MERCOYA
130220	16.52394	-3.48456	CSCOM de MIKORE
130220	11.29083	-6.55722	CSCOM de MINIKO
130220	10.3258333	-6.0791667	CSCOM de MISSENI
130220	13.13926	-6.2166	CSCOM de MOABOUGOU
130220	14.24326	-9.94878	CSCOM de MODINCANOU
130220	12.17444	-5.32778	CSCOM de MOLOBALA
130220	14.30897	-5.99626	CSCOM de MOLODO
130220	14.6952	-1.60251	CSCOM de MONDORO
130220	14.26856	-5.51234	CSCOM de MONIMPEBOUGOU
130220	13.36829	-4.38881	CSCOM de MONISSO
130220	14.49784	-4.84501	CSCOM de MOPTI-KEBA
130220	12.63553	-5.05235	CSCOM de MORIBILA
130220	14.73346	-3.09969	CSCOM de MORY
130220	16.8266667	-0.2602778	CSCOM de MOUDAKANE
130220	13.91513	-4.76327	CSCOM de MOUGNA
130220	12.44493	-7.72962	CSCOM de MOUNTOUGOULA
130220	14.43553	-6.97128	CSCOM de MOURDIAH
130220	14.33905	-4.65591	CSCOM de MOURRAH
130220	12.84881	-4.79983	CSCOM de MPESSO HAMEAU
130220	12.69406	-5.73742	CSCOM de MPESSOBA
130220	14.37235	-5.78341	CSCOM de N8 WEREKELA
130220	15.2432	-5.74543	CSCOM de NAMPALA
130220	13.11484	-5.51493	CSCOM de NAMPASSO
130220	14.22896	-3.9284	CSCOM de NANDO
130220	10.98636	-6.40863	CSCOM de NANGALASSO
130220	14.32206	-6.87519	CSCOM de NAOULENA
130220	14.91158	-6.78133	CSCOM de NARA CENTRAL
130220	15.25	-0.75	CSCOM de NDAKI
130220	14.48078	-5.86829	CSCOM de NDEBOUGOU
130220	13.11239	-6.13857	CSCOM de NGASSOLA
130220	13.27873	-5.1529	CSCOM de NGOA
130220	12.16019	-6.57639	CSCOM de NGOLOBOUGOU
130220	13.72824	-5.38895	CSCOM de NGOLOKOUNA
130220	12.42222	-5.68611	CSCOM de NGOLONIANASSO
130220	15.66356	-3.67834	CSCOM de NGORKOU
130220	15.59669	-3.06475	CSCOM de NGOUMA
130220	12.29694	-5.47861	CSCOM de NGOUNTJINA
130220	13.96826	-9.81196	CSCOM de NIAGANE
130220	14.6541667	-1.7822222	CSCOM de NIAGASSADIOU
130220	14.60836	-3.98458	CSCOM de NIAKONGO
130220	11.2546396	-6.6573	CSCOM de NIAKOURAZANA
130220	12.92538	-5.89112	CSCOM de NIALA
130220	11.4897	-6.64826	CSCOM de NIAMALA
130220	12.74497	-6.15129	CSCOM de NIAMANA - BLA
130220	13.04431	-5.19366	CSCOM de NIAMANA BANKOUMA
130220	13.783425	-3.3166717	CSCOM de NIAMIA
130220	11.82251	-6.59315	CSCOM de NIANTJILA
130220	13.28435	-5.00894	CSCOM de NIASSO
130220	14.58957	-4.65596	CSCOM de NIASSO
130220	11.4275	-6.35083	CSCOM de NIENA
130220	10.8597222	-5.5036111	CSCOM de NIMBOUGOU
130220	14.61102	-3.31343	CSCOM de NINGARI
130220	14.37983	-5.85801	CSCOM de NIONO C3
130220	14.27652	-5.89988	CSCOM de NIONO CENTRAL
130220	14.16228	-5.88562	CSCOM de NIONO EXTENTION
130220	11.54056	-6.37333	CSCOM de NKOURALA
130220	15.01153	-10.58653	CSCOM de NOGOMERA
130220	15.23254	-1.70308	CSCOM de NOKARA
130220	11.83806	-5.76111	CSCOM de NONGO-SOUALA
130220	13.66159	-5.44641	CSCOM de NONONGO
130220	16.03919	-4.17226	CSCOM de NOUNOU
130220	16.47295	-0.38224	CSCOM de NTAHAKA
130220	15.69699	-0.42331	CSCOM de NTILLIT - GAO
130220	11.34722	-6.30361	CSCOM de NTJIKOUNA
130220	11.62139	-6.53694	CSCOM de NTJILLA
130220	12.32322	-6.4391	CSCOM de NTOBOUGOU
130220	14.11157	-6.30404	CSCOM de NTOBOUGOU
130220	12.46414	-5.31359	CSCOM de NTOGONASSO
130220	13.13516	-5.06109	CSCOM de NTOROSSO
130220	12.50968	-5.77415	CSCOM de NTOSSO
130220	12.53111	-5.77139	CSCOM de NTOSSONI
130220	14.58613	-3.21455	CSCOM de ONDOUGOU
130220	11.06667	-5.675	CSCOM de OUAHIBERA
130220	13.89527	-10.26456	CSCOM de OUALIA
130220	13.72462	-4.32659	CSCOM de OUAN
130220	14.15446	-7.71017	CSCOM de OUARO
130220	13.77719	-10.40626	CSCOM de OUASSALA
130220	10.7586111	-5.9491667	CSCOM de OUATIALY
130220	15.26149	0.82322	CSCOM de OUATTAGOUNA
130220	12.59637	-5.31916	CSCOM de OULA
130220	14.00836	-5.71004	CSCOM de OULA
130220	13.68776	-7.34047	CSCOM de OULENY
130220	14.09527	-3.88289	CSCOM de OUO
130220	14.89374	-10.80712	CSCOM de OUOLOGUELA
130220	13.5131	-4.79453	CSCOM de OUOLON
130220	15.83532	-3.92452	CSCOM de OUONKO
130220	13.46219	-3.7953	CSCOM de OUONKORO
130220	12.07564	-5.01921	CSCOM de OURIKELA
130220	14.28497	-4.52492	CSCOM de OURO MODI
130220	15.08078	-4.66858	CSCOM de OURONGUIA
130220	10.95501	-7.21449	CSCOM de OUROUMPANA
130220	12.60443	-5.57441	CSCOM de PEGUENA
130220	14.06032	-3.30034	CSCOM de PEL
130220	12.97004	-5.23236	CSCOM de PENESSO
130220	11.43056	-5.75472	CSCOM de PIMPERNA
130220	13.72401	-3.37865	CSCOM de PISSA
130220	14.36753	-11.32684	CSCOM de PLATEAU
130220	13.95846	-5.87192	CSCOM de POGO
130220	14.16241	-3.08611	CSCOM de POMORODODIOU
130220	15.29239	-4.10482	CSCOM de QUIDIO
130220	21.41159	-5.74896	CSCOM de RAZELMA
130220	13.94235	-11.58343	CSCOM de SADIOLA
130220	14.03398	-8.1508	CSCOM de SAGABALA
130220	13.80057	-6.09784	CSCOM de SAGALA
130220	15.6240301	-4.0489802	CSCOM de SAH
130220	11.66558	-7.4552	CSCOM de SAKORO
130220	12.8757	-5.46837	CSCOM de SAMABOGO
130220	14.12245	-8.62732	CSCOM de SAMANTARA
130220	15.11727	-10.6669	CSCOM de SAMBAGA
130220	15.17077	-9.91265	CSCOM de SAMBAGORE
130220	13.08532	-5.69618	CSCOM de SAMBALA
130220	14.43484	-11.59162	CSCOM de SAME - KAYES
130220	13.27447	-6.12875	CSCOM de SAMINE
130220	14.71777	-3.99426	CSCOM de SAMPARA
130220	13.30052	-4.89998	CSCOM de SAN CENTRAL
130220	12.00332	-6.84463	CSCOM de SANANKORO
130220	14.76312	-10.28912	CSCOM de SANDARE
130220	13.50424	-9.33721	CSCOM de SANDIAMBOUGOU
130220	13.08252	-4.69136	CSCOM de SANEKUY
130220	13.58698	-11.49348	CSCOM de SANFAGADALA
130220	14.4259322	-3.4142929	CSCOM de SANGHA
130220	12.0063889	-5.2780556	CSCOM de SANGUELA
130220	17.39461	-2.76723	CSCOM de SANKORE
130220	11.4025	-5.85444	CSCOM de SANOUBOUGOU I
130220	11.37222	-5.78111	CSCOM de SANOUBOUGOU II
130220	13.74821	-5.829	CSCOM de SANSANDING
130220	14.40812	-10.00677	CSCOM de SANSANKIDE
130220	11.77064	-6.94568	CSCOM de SANSO
130220	15.82302	-3.69877	CSCOM de SARAFERE
130220	16.10571	-3.17212	CSCOM de SAREYAMOU
130220	13.70694	-5.15591	CSCOM de SARRO
130220	14.12706	-10.02637	CSCOM de SAVANE
130220	13.82983	-5.03887	CSCOM de SAYE
130220	13.55556	-8.41925	CSCOM de SEBECORO 1
130220	14.10759	-7.15008	CSCOM de SEBETE
130220	13.80992	-9.79597	CSCOM de SEFETO
130220	14.41173	-10.98446	CSCOM de SEGALA
130220	13.84941	-3.80141	CSCOM de SEGUE
130220	14.23091	-8.20887	CSCOM de SEGUE-KOLOKANI
130220	15.41749	-11.6806	CSCOM de SELIFELY
130220	13.90863	-10.64266	CSCOM de SELINKEGNI
130220	15.24748	-3.86891	CSCOM de SENDEGUE
130220	14.13451	-5.1025	CSCOM de SENE BAMANA
130220	13.91097	-4.56112	CSCOM de SENOSSA
130220	15.06414	-11.72213	CSCOM de SERENATY
130220	12.08118	-6.52257	CSCOM de SERIBILA
130220	14.84405	-10.91438	CSCOM de SERO
130220	14.51105	-4.29138	CSCOM de SEVARE II
130220	14.41165	-4.29563	CSCOM de SEVARE III
130220	14.80699	-4.13996	CSCOM de SEVERY PEULH
130220	13.76418	-5.7731	CSCOM de SIBILA
130220	14.5442	-10.45303	CSCOM de SIBINDY
130220	11.64806	-6.055	CSCOM de SIBIRIFINA
130220	11.71604	-7.32841	CSCOM de SIDO
130220	14.91992	-9.70593	CSCOM de SIMBI
130220	12.35167	-5.43417	CSCOM de SINCINA
130220	12.07104	-5.51314	CSCOM de SINKOLO
130220	13.99864	-6.02897	CSCOM de SIRIBALA
130220	13.33397	-5.35754	CSCOM de SIRIMANZO
130220	13.11211	-11.29161	CSCOM de SITAKILY
130220	14.51411	-4.24456	CSCOM de SOCOURA
130220	14.03836	-4.21283	CSCOM de SOFARA
130220	12.39061	-5.44784	CSCOM de SOGOMOUGOU
130220	14.9072	-6.22639	CSCOM de SOKOLO
130220	13.69129	-3.80506	CSCOM de SOKOURA (ASACOSO)
130220	14.22705	-4.13416	CSCOM de SOMADOUGOU
130220	14.67667	-11.5958	CSCOM de SOMANKIDI
130220	12.85207	-5.66538	CSCOM de SOMASSO
130220	13.21944	-4.81476	CSCOM de SOMO-SAN
130220	14.53664	-3.73742	CSCOM de SONGHO
130220	13.80754	-7.88951	CSCOM de SONKENIE
130220	12.54309	-5.25559	CSCOM de SOROBASSO
130220	14.54238	-4.48686	CSCOM de SOSSOBE
130220	16.47919	0.4232	CSCOM de SOSSOKOIRA
130220	13.7991667	-4.5297222	CSCOM de SOUALA
130220	13.87084	-3.51817	CSCOM de SOUBALA
130220	14.33037	-4.08897	CSCOM de SOUFOUROULAYE
130220	12.1725	-5.1875	CSCOM de SOUGOUMBA
130220	13.86074	-5.29735	CSCOM de SOULEY
130220	14.1361111	-5.2344444	CSCOM de SOUMOUNI
130220	13.01029	-4.89404	CSCOM de SOUROUNTOUNA
130220	14.19254	-4.26072	CSCOM de SOYE
130220	13.50766	-4.96171	CSCOM de SY
130220	12.99076	-11.25877	CSCOM de TABAKOTO
130220	15.5997	1.6297	CSCOM de TABANKORT MENAKA
130220	18.4709	0.01609	CSCOM de TABANKORT
130220	16.76614	-0.18636	CSCOM de TABOYE
130220	16.25902	0.43783	CSCOM de TACHARANE
130220	15.53336	-3.39533	CSCOM de TACOUTI
130220	14.6854	-12.14514	CSCOM de TAFACIRGA
130220	13.97263	-4.42354	CSCOM de TAGA
130220	15.60001	3.14427	CSCOM de TAGALALT
130220	20.52551	0.21051	CSCOM de TAGHRIST
130220	14.98682	-10.45198	CSCOM de TAKABA
130220	16.3459	0.98089	CSCOM de TALATAYE
130220	13.2352778	-5.3247222	CSCOM de TALO BAMBANAN
130220	16.28411	3.62138	CSCOM de TAMALET
130220	15.07207	-10.74436	CSCOM de TAMBACARA
130220	17.45476	1.46614	CSCOM de TAMKOUTAT
130220	14.99291	-2.72525	CSCOM de TARABE
130220	17.86308	0.4454	CSCOM de TARKINT
130220	15.57126	0.61642	CSCOM de TASSIGA
130220	17.70194	-1.67419	CSCOM de TEHERDJE
130220	11.84769	-6.26152	CSCOM de TELLA
130220	17.68353	-0.53043	CSCOM de TEMERA
130220	13.67227	-5.88908	CSCOM de TEMOU
130220	13.40869	-4.59569	CSCOM de TENE
130220	14.40876	-4.92289	CSCOM de TENENKOU CENTRAL
130220	13.18012	-6.14257	CSCOM de TESSERELA
130220	15.32412	-0.07188	CSCOM de TESSIT
130220	12.95202	-4.34382	CSCOM de TETOU
130220	14.33388	-5.19281	CSCOM de THIAL
130220	15.21452	-9.63513	CSCOM de TICHITT
130220	15.22026	-11.73176	CSCOM de TICHY LEYA
130220	16.92085	1.83279	CSCOM de TIDERMENE
130220	12.67419	-6.28116	CSCOM de TIENABOUGOU
130220	16.21767	-3.39008	CSCOM de TIENKOUR
130220	12.16796	-5.18943	CSCOM de TIERE
130220	14.10727	-10.80037	CSCOM de TIGANA
130220	14.86194	-1.90333	CSCOM de TIGUILA
130220	16.50603	-5.06386	CSCOM de TILEMSI
130220	13.80302	-4.13086	CSCOM de TIMISSA
130220	19.72454	-0.57778	CSCOM de TIMTAGHÈNE (INABAG)
130220	19.20589	-3.86397	CSCOM de TIN - TELOUT
130220	18.35138	-5.11303	CSCOM de TIN AICHA
130220	16.96534	0.50593	CSCOM de TIN-AOUKER
130220	18.64915	2.38198	CSCOM de TIN-ESSAKO CENTRAL
130220	15.61809	1.00878	CSCOM de TIN-HAMMA
130220	15.88439	2.5603	CSCOM de TINAGAROFF
130220	14.36426	-9.15451	CSCOM de TINKARE
130220	13.86254	-3.36768	CSCOM de TINSAGOU
130220	15.47037	-1.08807	CSCOM de TINTADENI
130220	16.2184	-3.82778	CSCOM de TINTARA
130220	15.32057	-9.73823	CSCOM de TINTIBA
130220	10.80594	-6.35409	CSCOM de TIONGUI
130220	12.0218	-7.42264	CSCOM de TOBA
130220	13.59216	-4.47972	CSCOM de TOGO
130220	14.34411	-4.19991	CSCOM de TOGUEL
130220	14.91149	-4.65029	CSCOM de TOGUERE COUMBE
130220	13.30508	-4.49994	CSCOM de TOMINIAN CENTRAL
130220	14.7844	-2.61877	CSCOM de TONGO-TONGO
130220	14.38318	-4.12023	CSCOM de TONGORONGO
130220	14.0951	-5.25617	CSCOM de TONGUE
130220	12.71086	-5.4083	CSCOM de TONTO
130220	13.69092	-3.73374	CSCOM de TORI (ASACOTO)
130220	14.61159	-8.92534	CSCOM de TORODO
130220	13.86145	-3.24038	CSCOM de TOROLI
130220	13.71562	-7.61637	CSCOM de TOTA
130220	12.88125	-4.57762	CSCOM de TOUBA
130220	13.91581	-10.46353	CSCOM de TOUBA
130220	13.99542	-6.97852	CSCOM de TOUBACORO
130220	13.57378	-9.92796	CSCOM de TOUKOTO
130220	15.89149	-3.43486	CSCOM de TOUMOUMOU
130220	13.14025	-5.7578	CSCOM de TOUNA
130220	12.76012	-5.11552	CSCOM de TOURAKOLOMBA
130220	15.41912	-9.23962	CSCOM de TOUROUROU
130220	13.69262	-8.41488	CSCOM de TOUSSANA
130220	10.98601	-6.64798	CSCOM de TOUSSEGUELA
130220	10.9346	-7.02088	CSCOM de TOUTIALA
130220	16.90694	-2.77742	CSCOM de TOYA
130220	14.42127	-10.08872	CSCOM de TRANTIMOU
130220	15.26582	-9.1582	CSCOM de TROUNGOUMBE
130220	13.13585	-4.54259	CSCOM de TURULA
130220	16.25348	0.08783	CSCOM de WABARIA
130220	12.78003	-4.77175	CSCOM de WAKI
130220	10.92846	-6.71716	CSCOM de WAKORO
130220	14.73283	-4.5661	CSCOM de WALLO
130220	17.0033	-3.67986	CSCOM de WANA
130220	14.83149	-8.21388	CSCOM de WAOUROU
130220	11.52778	-5.90611	CSCOM de WAYERMA 1
130220	11.41	-5.95694	CSCOM de WAYERMA
130220	11.67696	-6.64044	CSCOM de WOLA
130220	10.7905556	-5.5966667	CSCOM de WORONI
130220	12.405	-5.1191667	CSCOM de YAFOLA
130220	15.24592	-10.68552	CSCOM de YAGUINE
130220	13.05749	-5.32875	CSCOM de YANGASSO
130220	13.2083336	-4.6953516	CSCOM de YASSO
130220	15.17135	-10.50603	CSCOM de YELIMANE CENTRAL
130220	14.5549402	-3.2405801	CSCOM de YENDOUMA-SOGOL
130220	15.28675	-9.48057	CSCOM de YERERE
130220	13.39262	-3.35569	CSCOM de YIRA
130220	11.70306	-6.08667	CSCOM de YIRIGANSO
130220	13.61467	-5.50539	CSCOM de YOLO
130220	14.32286	-2.18627	CSCOM de YORO
130220	12.35897	-4.8039	CSCOM de YOROSSO CENTRAL
130220	14.24103	-3.17609	CSCOM de YOUDIOU
130220	14.35651	-4.39854	CSCOM de YOUGONSIRE
130220	15.07384	-9.92407	CSCOM de YOURI
130220	15.46585	-4.28901	CSCOM de YOUWAROU CENTRAL
130220	13.32593	-6.10167	CSCOM de ZAMBOUGOU
130220	13.56791	-5.95208	CSCOM de ZANABOUGOU
130220	11.28861	-6.06417	CSCOM de ZANFEREBOUGOU
130220	11.4075	-5.59861	CSCOM de ZANGARADOUGOU
130220	12.15572	-5.61554	CSCOM de ZANGASSO
130220	11.26889	-6.42222	CSCOM de ZANIENA
130220	12.6088889	-5.5694444	CSCOM de ZANSONI
130220	11.33993	-7.1544	CSCOM de ZANTIEBOUGOU
130220	11.84917	-5.5875	CSCOM de ZANTIGUILA - SIKASSO
130220	12.38668	-5.08501	CSCOM de ZEBALA
130220	10.495	-5.6533333	CSCOM de ZEGOUA
130220	10.47749	-6.71975	CSCOM de ZEGUERE
130220	10.98417	-6.10889	CSCOM de ZIASSO
130220	16.03815	0.1816	CSCOM de ZINDA
130220	13.74965	-3.04167	CSCOM de ZON
130220	19.44011	-2.11097	CSCOM de ZORKO
130220	12.60415	-8.00204	CSSAM
130220	13.00006	-5.40019	Centre Confessionnel ( Dispensaire ka)
130220	12.39056	-5.46389	Centre Confessionnel de  BANAMBA
130220	11.99056	-5.995	Centre Confessionnel de  SANZANA
130220	11.44	-5.72583	Centre Jean Marie Cisse (Catholique)
130220	12.6002	-8.03136	Centre Médical EL RAZI
130220	12.65003	-7.93651	Centre Médical ENTREPRISE CMIE
130220	16.28944	-0.04527	Centre Médical Inter entreprise
130220	12.44472	-5.49889	Centre Médical SOGOMOUGOU
130220	12.03336	-7.90002	Centre Socio Sanitaire Protestant de Mana
130220	11.345	-5.68889	Centre d'imagerie et de diagnostic medical
130220	12.68048	-7.95001	Centre de Santé CATHOLOLIQUE DE NAFAYI
130220	12.68339	-7.95018	Centre de Santé CHERIFOULA
130220	13.26343	-4.90012	Centre de Santé Sacré Cœur
130220	14.64667	-3.76944	Centre de WERE
130220	12.41008	-5.69111	Clinique  LAFIA
130220	11.525	-5.90972	Clinique <<Beuso>>
130220	12.61667	-7.99601	Clinique ALLIANCE MEDICALE (ALMED)
130220	12.66469	-7.94404	Clinique AYA
130220	14.26915	-5.96677	Clinique Alliance Medicale
130220	11.40333	-5.75694	Clinique Amitié
130220	12.91338	-9.48357	Clinique BATA - SEKOU
130220	12.5885	-8.01689	Clinique Bakoro - Momo - Traoré
130220	12.6552	-7.96073	Clinique Blum et Maier
130220	12.66589	-7.93445	Clinique CHOALA
130220	12.66472	-7.94712	Clinique D'accouchement Privée Danaya
130220	11.52806	-5.90472	Clinique Dady Diop
130220	12.58041	-7.96576	Clinique Dr Mallet KEITA
130220	12.56982	-7.97014	Clinique Espoir Faladiè Solola
130220	12.8667153	-7.5500222	Clinique Espoir
130220	10.5775	-6.92139	Clinique Fasso Kanou
130220	12.57475	-7.98034	Clinique Gabriel Sultan
130220	12.56993	-7.99026	Clinique Hombori
130220	12.8635	-11.23336	Clinique KENIASSO
130220	12.75361	-5.81806	Clinique KOROTOUMOU
130220	12.56369	-7.9894	Clinique Kanti - Fofana
130220	14.21682	-5.96689	Clinique Kenya
130220	12.63535	-8.03337	Clinique LAHIDOU
130220	12.61468	-8.03348	Clinique Lac télé
130220	10.85667	-7.94139	Clinique Lafia
130220	12.60002	-7.92652	Clinique Lafia
130220	12.78336	-6.92006	Clinique Liberté
130220	12.6687	-7.93444	Clinique MANA HOULEYE
130220	12.53351	-8.00013	Clinique MARSHAL
130220	14.45904	-11.31686	Clinique Medicale Fraternité
130220	12.64649	-7.96983	Clinique Medico churigicale BAOBAB
130220	12.60124	-7.98457	Clinique Mohamed 5
130220	12.63048	-8.03245	Clinique Médicale  EUREKA
130220	12.60006	-7.94504	Clinique Médicale 2M Plus
130220	12.63644	-8.0178	Clinique Médicale DEFI
130220	12.60022	-7.95468	Clinique Médicale ESTHER
130220	12.61794	-8.03639	Clinique Médicale Effica Santé
130220	10.87167	-5.77556	Clinique Médicale FOFANA
130220	11.52972	-7.63417	Clinique Médicale Fraternité
130220	12.66467	-7.96671	Clinique Médicale Kaidara
130220	12.65882	-7.95414	Clinique Médicale LA COLOMBE
130220	12.59608	-7.95001	Clinique Médicale Notre Santé
130220	12.56389	-7.99898	Clinique Médicale Sadio
130220	11.32028	-7.90333	Clinique Médicale Santé +
130220	14.25023	-5.92672	Clinique Médicale Soma
130220	11.22078	-8.34694	Clinique Médicale Wassoulou
130220	12.58147	-7.99977	Clinique Médicale Yuma
130220	12.64341	-7.86671	Clinique Médicale de MORIBABOUGOU
130220	12.61784	-8.01974	Clinique Médico chirugicale source de vie
130220	12.61273	-7.98048	Clinique Ophtalmo - Badalabougou
130220	12.65021	-7.96877	Clinique Pitié
130220	12.60874	-7.98244	Clinique Päle
130220	11.5	-5.94083	Clinique SINKA
130220	12.65777	-7.94709	Clinique SOGNOGO BAMUNAN
130220	12.65125	-7.96679	Clinique Salia Daou
130220	13.28346	-4.9002	Clinique Santoro
130220	12.65027	-7.97787	Clinique WASSA
130220	11.44639	-5.75222	Clinique Wassoulou
130220	12.61016	-7.95014	Clinique de la Cote
130220	12.00007	-7.90017	Clinique la paix
130220	12.63637	-8.03253	Clinique le Serment
130220	12.60421	-7.94513	CliniqueAMBAOBOU
130220	12.58361	-7.97889	D E M
130220	12.4833383	-6.7835464	DIOILA clinic
130220	13.9000947	-4.5501969	DJENNE clinic
130220	15.0000097	-2.9501025	DOUENTZA clinic
130220	12.7835919	-6.9335125	FANA clinic
130220	14.02028	-4.3575	FARALA
130220	12.63444	-8.03553	Fraternité
130220	16.28917	-0.25555	GAO clinic
130220	12.60005	-7.97652	GENIE CLINIQUE
130220	16.41778	-3.66222	GOUNDAM clinic
130220	16.88222	-1.92278	GOURMA-RHAROUS clinic
130220	12.61883	-8.01573	Horizon Vert
130220	12.60921	-7.94305	IBEN TEYMIA
130220	16.75026	-3.00015	INPS - CMIE (TOMBOUCTOU)
130220	14.92722	-3.21806	IREBANE
130220	12.58342	-8.03334	Issaka Séméga
130220	10.72306	-5.95556	KADIOLO clinic
130220	12.7334453	-8.0666847	KATI clinic
130220	14.4500261	-11.4334353	KAYES clinic
130220	12.8335317	-11.2333628	KENIEBA clinic
130220	18.4369444	1.4080556	KIDAL clinic
130220	12.09528	-6.07	KIGNAN clinic
130220	13.0167431	-9.4833806	KITA clinic
130220	11.09139	-6.89444	KOLONDIEBA clinic
130220	14.0502058	-3.0668706	KORO clinic
130220	12.866815	-7.5336083	KOULIKORO clinic
130220	12.8834053	-7.5334733	KOULIKOROLA Lafiaso
130220	12.56611	-5.65778	KOUTIALA
130220	12.66072	-7.9471	LAMED
130220	12.64557	-7.97492	Laboratoire Algi +Clinique ALDI
130220	12.60024	-7.97358	Laboratoire d'analyse Rive droite
130220	12.63841	-8.00403	Laboratoire d'analyse médical
130220	12.60212	-7.97683	Le Sahel
130220	13.95018	-5.3501	MACINA clinic
130220	12.55581	-7.98344	MANDINGUE
130220	13.68343	-6.06673	MARKALA clinic
130220	12.57486	-7.99884	MEDIC PLUS
130220	14.48806	-3.13722	MISSION CATHOLIQUE KORO
130220	12.70357	-8.10688	MISSION CATHOLIQUE
130220	13.28345	-4.90017	Missionnaire de la Charité
130220	12.46694	-8.0668	Mutuelle Socio Sanitaire
130220	15.1501939	-7.2835472	NARA clinic
130220	15.93333	-3.98806	NIAFUNKE clinic
130220	15.2168008	-9.5833342	NIORO clinic
130220	14.18	-3.34139	PAROISE DE PEL
130220	12.5669	-7.96306	Policlinique Hyppocrate
130220	12.60011	-7.9501	Policlinique Médicale Solidarité Santé
130220	12.60021	-8.03346	Polyclinique Croissant Rouge
130220	12.6334	-8.03335	Polyclinique Faran Samaké
130220	12.61676	-7.98337	Polyclinique International (Bamako)
130220	11.13667	-6.90472	Polyclinique Keneya
130220	15.21692	-9.5501	SAHEL
130220	13.30013	-4.88349	SAN clinic
130220	13.43349	-6.23356	SEGOU clinic
130220	11.57556	-5.70694	SIKASSO clinic
130220	12.1725	-5.1875	SOUGOUMBA
130220	16.475	-0.04222	Sahel-Santé (Clinique)
130220	12.70013	-8.15005	TENAN
130220	14.49972	-4.98361	TENENKOU clinic
130220	20.1938889	1.0077778	TESSALIT clinic
130220	16.81095	-2.88004	TOMBOUCTOU clinic
130220	13.28341	-4.58346	TOMINIAN clinic
130220	12.59616	-7.91017	WAATI
130220	12.46861	-4.92	YOROSSO clinic
130220	15.4	-4.44833	YOUWAROU clinic
130220	12.61689	-8.05003	centre Médico Psycho-educatif ( AMALDEM)
130220	12.6567	-7.94806	clinic COMMUNE1
130220	12.63943	-7.9896	doctors ELY
130220	35.789195	139.45663	西所沢クリニック
130220	55.6745469	13.0703927	Lomma vårdcentral
130221	55.7190201	37.6151829	Альфа медицина
130223	36.397018	139.73317	
130223	36.396353	139.732762	
130223	35.642021	140.060037	高根産婦人科
130223	35.64755	140.072171	検見川整形外科内科
130223	49.1132297	7.5619435	Vita Natura Klinik
130224	35.639659	140.058116	海浜外科内科
130224	35.639778	140.057736	海浜整形外科
130224	35.660944	140.072291	あすか眼科医院
130224	51.888419	-2.080125	Cheltenham Clinic of Acupuncture & Chiropractic
130225	45.919985	14.3655462	
130227	14.5167413	-4.195699	CMIE - Mopti
130227	14.4049823	-4.7678224	CSCOM de KOUBI
130227	14.5166551	-4.1956551	MOPTI clinic
130227	47.955819	37.7996994	Детская поликлиника №7
130227	42.3933836	-7.1113431	Centro de Saúde Irmáns Losada
130301	43.5691013	-79.5673697	Lakeshore Cawthra Medical Centre
130301	34.9740776	-101.9187193	CareXpress Urgent Care
130301	-37.8667229	145.0838853	iehealth
130301	53.8407771	27.3906834	Озерцовская врачебная амбулатория
130301	14.6818415	-17.4580724	Centre de Sante Elisabeth DIOUF Gueule Tapee
130302	14.0165842	121.4019763	Parish Health Center
130302	13.9015685	100.4971878	ศูนย์สุขภาพโรงพยาบาลชลประทาน
130302	34.126311	133.654535	加藤耳鼻咽喉科医院
130302	22.5515582	120.3499191	
130302	51.4753753	-0.1050821	Akerman Health Centre
130302	13.9018135	100.4979762	ศูนย์สุขภาพสงเคราะห์ กรมพัฒนาสังคมและสวัสดิการ
130303	34.12718	133.656399	かもだ内科クリニック
130303	34.127198	133.655032	福家医院
130303	33.954453	133.287476	星島整形外科
130303	33.954896	133.287171	佐藤医院
130303	33.978522	133.29969	三木内科クリニック
130303	33.978851	133.302616	おおのぎ眼科
130303	33.968458	133.276889	近藤医院
130303	46.57008	0.338555	Fief de Grimoire
130304	35.790293	139.252372	ごとう眼科
130305	43.5383444	-79.6639396	Sheridan Medical
130305	19.1301491	72.821012	Dr CV Hemlata
130305	19.1301643	72.8191961	Dr M S Jayaprakash
130305	19.1301491	72.8191318	Dr Nischint Jayaprakash
130306	-12.2541125	-38.9548605	Doenças do Coração
130306	-12.2526615	-38.9579228	FisioSaúde
130306	-12.2535693	-38.9569689	Hospital Ortopédico
130306	51.901955	-2.117065	Rejuvenate
130306	51.902052	-2.117457	Andrew Bird Hearing Centre
130306	45.6856929	5.3217141	
130307	22.3406348	114.1582418	長沙灣賽馬會診所 Cheung Sha Wan Jockey Club Clinic
130308	38.431766	141.308132	沼崎医院
130308	38.428545	141.306929	熊井皮膚科医院
130308	38.428307	141.307269	及川歯科クリニック
130308	38.429209	141.308467	石巻中央きし内科
130308	38.433696	141.310499	山内皮膚科医院
130308	49.0952935	7.9874894	BioMed
130309	38.7477054	-88.0749633	Weber Medical Clinic
130310	35.545454	139.517463	岩谷産婦人科医院
130310	35.545144	139.517343	武沼小児科医院
130310	47.2174041	-1.5773625	clinique Jeanne d'arc
130311	14.1742708	-10.5226309	CSCOM de DEMEKE
130311	14.5333328	-9.183388	CSCOM de Diéma CENTRAL
130311	14.61694	-11.90278	CSCOM de Dramané
130311	14.1058222	-10.5121487	CSCOM de OUSSOUBIDIAGNA
130311	14.5334381	-9.1834075	DIEMA clinic
130311	-33.7636193	150.775048	St Marys Medical Centre
130311	55.7607863	37.643797	
130312	51.887996	-2.110185	Hatherley Chiropody & Therapy Centre
130312	36.092355	136.242017	山本こあらクリニック
130312	-8.4512473	115.6044321	Klinik Tulus Ayu
130312	-29.7631636	30.7492005	
130312	51.4983383	-0.0257738	The Barkantine
130313	22.6772545	120.300144	田源診所
130313	43.537614	-79.8741053	Maple Medical Clinic
130314	24.331952	124.171271	ひとし眼科
130314	44.8495642	-92.9510568	Heath East Clinic
130316	35.517218	139.481528	すずかけ台眼科クリニック
130316	44.6931977	-93.2817983	Slimgenics
130316	44.236563	42.8973364	
130316	44.6941145	-93.2857045	Quello Clinic
130317	-37.8635382	145.0820589	Ashburton Medical Clinic
130319	39.1928195	-96.5898712	Pawnee Mental Health Services
130319	27.944668	-82.4563166	USF Center for Advanced Medical Learning
130320	35.394285	139.611706	東山耳鼻咽喉科医院
130320	35.394632	139.611096	いそべ眼科
130320	35.394626	139.611194	ファミールこどもクリニック
130320	19.6720774	-72.1195401	Clinique Medicale RJP-CRAPS
130321	35.393396	139.612461	前田内科
130321	44.2251879	42.774536	
130322	57.7145646	11.9973789	Vårdcentralen Olskroken
130323	41.4466964	-8.2986307	Cruz Verde
130323	36.088165	136.221234	いとう内科クリニック
130324	45.4246525	28.0224136	Centrul de nefrologie și dializă
130324	35.435935	139.618084	吉野町眼科
130324	35.437857	139.616184	三上耳鼻咽喉科
130324	35.43781	139.615636	みうらクリニック
130324	36.077835	136.229247	松田外科胃腸科
130324	36.087621	136.221651	ふじい眼科クリニック
130325	35.386278	139.619007	河原整形外科
130325	35.385727	139.618781	渋谷医院
130326	35.5923407	-78.7711087	FastMed Urgent Care
130327	32.0947299	34.8938868	
130327	40.0639681	-2.1321771	Centro de Atención Primaria San Fernando
130328	56.3468478	30.5214958	Многопрофильный медицинский центр "Медтайм"
130328	60.0139547	30.3238147	SkinLazerMed, центр эпиляции и косметологии
130328	34.75557	134.393776	大嶋皮膚科医院
130328	44.1993091	43.1313696	
130328	33.7138761	-117.9332822	Fountain Valley Regional Cancer Center
130330	41.6373377	-93.7705503	Concentra Medical Center
130330	48.791277	2.5204784	Le Beach - Clinique-polyclinique
130330	35.795507	139.430271	小手指整形外科
130330	35.736362	139.7501719	あざれあ通り整骨院 マッサージ院
130330	35.735203	139.747388	奥井整形外科
130331	55.4392794	37.7647527	Детская городская поликлиника
130401	50.5040274	13.6976931	
130402	47.6131814	-122.3223236	Polyclinic
130402	55.8722118	37.7098895	Поликлиника №34
130402	55.8727446	37.7106942	Детская поликлиника №9
130402	55.8648057	37.6666077	Поликлиника №29
130402	55.8643904	37.666481	Детская поликлиника №126
130402	14.401087	-3.4959399	CSCOM de BENDIELY
130402	14.3944842	-3.4821816	CSCOM de BENDIELY
130402	14.3874499	-3.4800289	CSCOM de BENDIELY
130402	14.3875129	-3.4800643	CSCOM de BENDIELY
130402	14.3992205	-3.495238	CSCOM de BENDIELY
130402	43.1873327	-95.8461328	Sheldon Family Practice Association
130403	59.9196508	30.3194304	Поликлинический комплекс
130404	39.4832623	-0.4485022	Centre de Salut Quart de Poblet
130404	49.7578246	23.6512575	
130405	50.0799927	18.208904	NZOZ Neuro-Med
130406	35.342876	139.622974	川畑内科クリニック
130406	35.342856	139.622974	いそがい眼科
130406	35.342839	139.622888	おのせメンタルクリニック
130406	35.343353	139.622993	すがの内科クリニック
130406	35.343643	139.622105	花クリニック
130407	35.435542	139.617744	吉野町レディースクリニック
130407	61.7726703	34.3192056	ГБУЗ Городская Поликлиника №5
130407	3.9415781	73.4901653	Kaafu Maafushi Health Centre
130408	35.384367	139.616059	林内科
130409	55.7710379	37.6458456	
130409	55.8418867	37.2587796	Ново-Никольская амбулатория
130410	55.7887974	37.2979405	Амбулатория
130410	52.9603868	63.1291329	Центр Здоровья
130410	48.1700384	12.8269097	Ambulante Beatmungs- und Intensivpflege
130410	52.9652882	63.1132435	
130410	16.723457	-92.6381683	Centro de Salud Los Pinos
130410	27.786906	-82.6471223	Coastal Pulmonary & Critical Care
130410	27.7858928	-82.6545683	Foot & Ankle Care
130410	44.2360374	43.0167063	
130411	48.1494985	17.0978396	iscare
130411	41.2454509	-8.2578053	Extensão de Saúde Meinedo (CS Lousada)
130411	-37.8878987	144.7552847	
130411	-37.8879907	144.755044	Point Cook Healthcare
130412	55.5390641	13.0954056	Oxie vårdcentral
130413	3.2096546	101.7038166	Klinik Ibu dan Anak Gombak
130413	55.108374	33.241735	Сафоновская городская стоматологическая поликлиника
130413	32.0532536	34.7603892	כללית
130413	32.0521699	34.7599309	מכבי
130413	55.7920512	37.5746027	Medic City
130414	37.8678803	-122.2972268	Berkeley Public Health Clinic
130414	38.4338385	141.3032125	さくらはり灸整骨院
130414	54.77556	32.056787	Смоленский областной медицинский информационно-аналитический центр
130414	34.9510919	135.7032125	きくおかクリニック
130414	54.780045	32.0145632	Поликлиника №4
130414	54.8060002	32.002731	Поликлиника №8
130414	54.7812548	32.0505173	Поликлиника №6
130415	45.1503982	38.9968693	Медицинский центр ВитаMед
130415	6.226558	116.449176	Klinik Taginambur
130415	55.8772625	37.7259363	Поликлиника №215
130415	41.6146231	-93.6960944	Northwest Family Physicians
130416	34.689828	135.546018	整形外科きょうたにクリニック
130417	51.891535	-2.079945	Holistic Health Centre
130417	44.2055043	43.1414082	
130418	19.6911855	-72.0178965	Centre de Santé Sainte Elizabethe
130418	19.7466152	-72.2147953	Dispenssaire ASMIC
130418	14.6989071	-17.4535446	Clinique Internationale Madame Diouf Marie-Louise
130418	50.0012142	36.2379448	Міський шкірно-венерологічний диспансер №5
130418	19.7464818	-72.2027485	Clinique Saint Martin de porresse
130418	19.7415385	-72.2110138	Clinic Buco dentaire
130418	19.7401154	-72.2122023	Clinic Medical de cité du peuple
130418	35.7859423	-78.8103358	Doctors Express
130418	45.4261685	4.4183599	Centre Médical des 7 Collines
130418	51.5879747	-0.0029553	Wood Street Health Centre
130418	-8.8437491	116.4816233	POLINDES PEMONGKONG
130418	44.2864569	43.0281577	Кумагорская больница
