last_edit_date	latitude	longitude	name
061102	51.6192216	-0.8361756	
070308	51.627103	0.4173041	The Western Road Surgery
070308	53.340651	-1.9411289	Chinley Surgery
070331	51.9100957	-1.1567595	North Bicester Surgery
070610	52.0983385	0.2804226	Linton Health Centre
070622	52.6429417	-1.0622622	
070719	49.9732022	14.3942688	Zubní Laboratoř
070801	54.070969	-1.9998133	Grassington Medical Centre
070818	52.0824575	0.0187794	Orchard Road Community Health Centre
070818	52.0802503	0.0188752	Orchard Surgery
070827	52.1154235	0.1698268	Sawston Medical Centre
070830	51.5081095	0.2827167	South Ockendon Health Centre / Bluebells
070919	51.7594703	-0.0109663	The Limes Surgery
071004	53.3458673	-2.8217113	Margaret Thompson Medical Centre
071004	53.3582757	-2.8942468	Long Lane Medical Centre
071012	51.4981965	0.2582613	
071020	52.0297807	0.0379159	Barley Surgery
071025	52.0768673	-0.0524909	Bassingbourn Surgery
071106	51.735542	0.00385	Nazeing Valley Health Centre
071124	52.0701267	-3.1257106	Hay-on-Wye Medical Centre
071126	52.147236	0.1341212	Shelford Health Centre
080101	53.7481179	-0.4324326	The Anlaby Surgery
080116	53.7647098	-0.3560014	Alexandra Health Care Centre
080118	52.0628366	0.1972031	School Street Surgery
080118	52.0635696	0.2008676	High Street Surgery
080202	53.3956617	-2.9116949	Lance Lane Medical Centre
080213	53.4631731	-1.9922077	
080223	52.2440021	0.4127473	Oakfield Surgery
080228	51.4793535	0.3236518	Grays Health Centre
080228	51.5203477	0.4289751	Hassengate Surgery
080228	51.4803427	0.3304826	Primecare Medical Practice
080229	51.476162	0.2900946	St Clements Health Centre
080302	53.3817044	-2.9554588	The Sandringham Medical Centre
080311	54.5183617	-1.3184289	
080317	53.3915023	-2.9165637	Wavertree Health Centre
080318	53.7319667	-0.395001	The Oaks Medical Centre
080403	53.7115563	-1.5100544	Outwood Surgery
080404	51.5163397	-0.1910568	
080408	52.458467	0.3021098	St George's Medical Centre
080415	53.7366765	-0.3618559	Marmaduke Street Health Centre
080418	52.0253244	0.2394556	The Old Rectory Surgery
080418	51.3546094	1.1436053	Herne and Broomfield Surgery
080421	52.7002185	-2.752183	South Hermitage Surgery
080501	53.7463713	-0.3561776	Wolsley Medical Centre
080501	53.7475516	-0.3535528	Clarendon Health Centre
080503	52.0181548	0.2368865	Borough Surgery
080503	52.022057	0.2412987	Gold Street Surgery
080510	47.501807	19.052692	Szakorvosi rendelő
080513	51.5105229	0.3670621	Rowley Road Surgery
080518	53.644662	-1.5070892	Chapelthorpe Medical Centre
080530	53.4277896	-1.4931079	Foxhill Medical Centre
080602	52.3437006	0.5106256	White House
080602	52.3436587	0.510303	Market Cross
080604	51.5306929	0.0578313	Market Street Medical Group
080605	51.5272753	0.0584113	45 White Horse Road Clinic
080605	51.5314281	0.0456775	Boleyn Medical Centre
080623	47.4954418	19.0568069	Háziorvosi rendelő
080626	52.0471226	-0.0223674	
080628	51.5234298	0.4059533	The Surgery
080708	53.3892226	-1.4160549	Darnall Community Health
080714	51.631317	0.4223252	Billericay Health Centre
080715	53.4317416	-1.4584726	Park Dental Care
080719	51.5559408	-0.1111882	
080722	53.4821398	-2.8905049	Kirkby Health Suite
080726	53.8451146	-0.4174735	The Surgery
080727	51.882896	12.9037966	
080729	53.4319298	-1.4777079	Margetson Surgery
080731	53.4192285	-1.4478876	Firth Park Clinic
080731	53.4173313	-1.4458292	Firth Park Surgery
080802	53.8301183	-0.4350804	Minstergate Surgery
080803	52.345335	-0.1767808	
080805	53.4174244	-1.4355965	Bluebell Medical Centre
080806	52.3226539	1.1414175	GP Surgery
080812	54.7355973	-1.5261387	Bowburn Medical Centre
080818	52.2458225	0.7145323	The Guildhall Surgery
080819	53.7786109	-0.2595811	
080819	53.4188782	-1.478424	Southey Green Medical Centre
080901	51.4433962	-0.1203326	Palace Road Surgery
080901	53.7573231	-0.2543828	Greatfield Clinic
080902	47.5568842	8.5093409	Arzt
080902	55.956253	-2.9747194	Dr Reeks and Partners Health Centre
080904	51.1997243	3.8225418	
080912	50.3764346	7.4210428	
080915	52.2179916	21.0433236	NZOZ "Drag-Med"
080919	51.557355	0.480917	Primecare Medical Centre
080928	53.386347	-2.9729023	Riverside Centre for Health
081003	52.3340715	-0.1873236	Charles Hicks Centre (Ermine Street Surgery)
081007	53.7751404	-1.7591352	
081007	49.5337032	11.8032814	
081010	53.3944975	-2.892206	Dr. P. E. Walker
081011	51.2232237	10.3077948	Dr. med. Gerhard Petersheim
081013	53.4366515	-1.4960027	Grenoside Surgery
081019	52.3818308	-0.0022824	
081019	53.4217676	-1.45973	Elm Lane Surgery
081019	53.4355322	-1.4485987	
081029	51.6257044	-0.3902475	Oxhey Drive Medical Centre
081029	53.495125	-2.2227921	Whitley Road Medical Centre
081029	53.4926319	-2.2254696	Surgery
081102	54.7556212	-1.6241661	
081103	53.7705603	-0.2906315	
081106	53.7637034	-0.2940053	Park Health Care Centre
081107	52.2426774	21.0912594	
081116	52.190359	-1.7131066	Arden Medical Centre
081117	51.728956	10.2482227	
081118	47.7827913	16.1019981	Dr. Grill
081122	52.3179031	-0.0807343	St Ives Community Health
081205	53.4053529	-2.9472201	Edge Hill Health Centre
081205	52.058819	-0.0199125	Roysia Surgery
081206	51.5704194	0.0028199	Allum Medical Centre
081207	51.5549045	0.0033688	
081207	51.5548677	0.0037496	
081207	51.5548677	0.0039803	
081207	51.554761	0.0043236	
081221	51.3484129	-1.1402387	Morland Surgery
081222	-41.2494891	147.2173396	
081223	49.390159	12.1328266	Dr. med. Joachim Stammwitz
081226	52.2520405	-1.385261	Southam Clinic
081226	52.2514018	-1.3853775	Southam Surgery
081226	51.4826004	-0.9709184	Emmer Green Surgery
081226	52.6204116	8.7994958	Dr. Dammmann
081226	52.0290185	21.029747	
081227	49.2875439	10.2641258	
081228	52.2484505	-1.3985537	Saint Wulfstan Surgery
081229	49.4140155	11.0762297	Dr. Mohr,...
081230	48.1613066	17.1642368	
081230	59.6108689	10.4076682	
081230	-29.7962133	30.8394615	
081230	47.3790507	9.8940563	Dr. Schwarzmann
081230	52.3148362	13.0254388	
081231	53.2557658	-2.158807	Weston Clinic
090101	-41.2911966	174.006473	Picton Medical Centre
090102	49.8545917	14.6957855	
090103	48.8885508	2.2218704	Centre de santé des Fontenelles
090105	52.5187296	13.4218596	
090108	50.1066961	14.376361	Markéta Šranková - dětská ordinace
090108	53.082599	-1.1621119	
090109	52.1311934	21.0728803	
090109	49.8558321	13.6056849	
090109	60.1412425	-1.2782444	
090110	52.0826954	8.0021999	Schriewersmann
090111	51.9116567	-0.1770506	Chells Surgery
090111	49.7438827	13.3331153	
090111	52.3226446	9.7468038	Kunz
090112	53.7858224	-1.7777458	Murghal Medical Centre
090117	45.5506625	9.1758379	Dr. E. Cavenago
090118	51.4742407	-0.0932482	Camberwell Green Surgery
090119	51.3177836	6.5621792	Praxis Hermann & Schaube
090120	50.3964322	7.462771	
090120	53.3189496	7.4947112	Dr. Hinrichs
090121	51.5320232	0.0195643	The Project Surgery
090121	51.5331658	0.0227744	
090121	51.0256435	13.6280418	Dr. Trausel
090121	52.6479778	10.0969472	Praxis Dr. Fenger
090122	48.8455559	8.5890978	Dr. Norbert Tervooren
090122	48.8456124	8.5890458	Dr. Harald Brozio
090122	48.1390381	11.5394328	
090124	51.8467335	-1.3544077	Woodstock Surgery
090124	57.001021	15.2852913	Lenhovda vårdcentral
090124	53.2388945	-1.4266931	Holywell House Medical Centre
090124	48.0989909	8.424315	
090124	50.0959944	8.2753761	Dr. M. A. Scholl
090124	50.0779906	8.2491753	Kinderärztin Dr. Seyeddi
090125	52.4294224	9.427398	Medicum Wunstorf
090126	51.1202295	13.6037019	
090126	53.3859447	-2.6562638	Penketh Health Centre
090126	51.4204023	7.0246802	Hans Ulrich Glaß
090126	51.4205423	7.0248987	Dipl.-Psych. Monica Muckel
090126	51.4205423	7.0248909	Dipl.-Psych. Niels Arens
090126	51.4210764	7.025763	Dr. med. Christian Perret
090126	51.4210849	7.0257513	Dr. med. Juliane Niesert
090126	51.421091	7.0257357	Gerhard Behl
090126	51.4210971	7.0257182	Rudolf Kimmel
090126	48.4742709	7.9421771	Ulrich Geiger
090126	48.474267	7.943293	Dr. Michael Glatt
090127	-35.683033	174.3220881	Paramount Medical Center
090128	52.6068339	6.8493926	Arztpraxis Dr. Mittelstädt
090128	52.2173529	20.9842676	SZPZOZ dla Szkół Wyższych
090128	51.0489528	13.7900085	Dr. Claudia Krenkel und Dipl.-Med. Regina Krug Gemeinschaftspraxis
090128	2.1626309	102.5860478	Klinik Desa Serom 3
090129	1.9610205	102.6421907	Klinik Desa Parit Jawa
090130	52.9909968	-6.9859203	Dr. Anthony J. Reeves
090131	48.8473251	8.5504235	Praxisgemeinschaft Lochner / Zimmer / Kreppel-Zimmer / Mohl
090131	49.5736983	11.1969534	
090131	49.321196	7.0956584	Dr. Wahl
090201	52.317315	-0.174817	Roman Gate Surgery
090201	41.8363554	-88.1039408	
090202	51.553928	-0.1224582	Partnership Primary Care Centre
090202	52.2181378	20.971791	
090203	47.681543	9.2004235	Dr. Neidhard
090204	52.2423625	21.079963	
090204	52.2419132	21.0752198	
090205	1.9099433	102.8673381	Klinik Desa Separap
090207	48.8149674	15.2879607	Fitz Thomas Dr
090208	51.1158726	13.6303108	
090208	51.8673798	9.0937413	
090208	51.8679957	9.0912351	
090208	51.5618582	-0.116602	Andover Medial Centre
090209	50.7056951	13.0954718	Dipl.-Med. Sabine Blätterlein
090209	47.6531284	8.5707791	
090210	52.2227297	21.0840766	
090210	51.2621974	-1.1083434	Sandles Health Clinic
090211	50.3421459	9.2124219	Dr. med. Müller / Dr. med Rajkovic
090211	60.4136852	5.2204437	Helsetunet
090211	55.0024338	-1.4980032	Garden Park Surgery
090212	51.5082292	0.2840847	Sancta Maria Medical Centre
090213	53.3248168	-2.6964963	
090213	53.2024689	10.4386765	Gemeinschaftpraxis
090213	53.2037064	10.4411498	Gemeinschaftpraxis
090213	51.544499	-0.1056154	Islington Central Medical Centre
090214	53.3637646	-1.510486	Greystones Medical Centre
090214	51.8812942	-2.1070948	
090214	42.3807501	-71.098099	Union Square Family Health
090215	45.9061096	10.843517	Ambulatorio
090215	51.4373772	-2.8459038	
090215	43.5291146	5.4147146	
090216	52.2426845	-0.868895	Christchurch Medical Centre
090216	52.242517	-0.8689795	King Edward Road Surgery
090216	53.3541703	-1.5131278	Ecclesall Medical Centre
090217	51.6721247	-2.016256	
090217	46.367682	11.354174	
090217	48.1015885	-4.0007395	
090217	47.6765353	12.0123521	Gemeinschaftspraxis Volker und Florian Müller
090218	51.4398276	6.9855279	Fischer, Stanka - prakt. Ärztin
090218	40.3266104	-0.0788224	Consultorio médico del Servicio Valenciano de Salud
090219	53.2237867	-2.9588803	Saughall Medical Centre
090220	55.0055541	-1.6532942	
090220	51.4761742	7.4591511	
090220	51.7623495	-1.2064122	Bury Knowle Health Centre
090220	51.5483924	-0.1071248	The Family Practice
090220	52.8497823	11.1529108	Dr. med. Petra Hauptmann
090221	40.4562865	0.2732584	Ambulatorio
090221	49.9738263	9.2998544	Dr. Wahlig
090222	52.0068673	-2.6097764	Fownhope Medical Centre
090222	54.9700444	-2.4643432	Haltwhistle Health Centre
090222	15.7792934	-87.451455	Juventud Clinica Dental
090222	51.8999276	-0.2010142	Southgate Health Centre
090223	53.7421233	-0.1998532	Hedon Group Practice
090224	50.8453288	-0.1960535	Hangleton Medical Centre
090224	51.5617178	-0.3727287	Simpson House Medical Centre
090224	51.817972	-0.7895511	Oakfield Surgery
090224	52.0826105	0.4353764	Christmas Maltings Surgery
090224	51.3569878	-0.1287623	Wallington Medical Centre
090224	-37.7413679	144.9016499	Keilor Road Medical Surgery
090224	53.6721721	-1.5236095	Lupset Health Center
090224	53.6976533	-1.6402997	West Park Surgery
090224	-37.8014263	145.3078413	Kilsyth Medical Group
090224	52.6286523	-0.2791244	Hodgson Centre Surgery
090224	53.8073918	-1.5410485	Carlton Surgery
090224	53.7186897	-6.3467197	Saint Fintans Medical Practice
090224	53.6865367	-1.6030251	Chickenley Medical Centre
090224	53.7287194	-1.5595983	Leigh View Medical Centre
090224	53.7777166	-1.5450561	Crossland Surgery
090224	53.7727826	-1.7308873	Rooley Lane Medical Centre
090224	51.5503707	-0.3045395	Wembley G.P Surgery
090224	53.7450353	-1.6066182	Morley Health Centre
090224	51.2295526	-1.1414886	Beggarwood Surgery
090224	47.6291041	-122.1391276	Interlake Medical Center
090224	54.87229	-1.3692967	
090225	40.842856	-3.3710904	Consultorio Local de Casa de Uceda
090225	45.4355107	28.0547665	Vitalmed
090225	45.4374706	28.0551212	Centrul Medical Irina
090226	40.8900276	-3.2201118	Consultorio Local Puebla de Beleña
090226	40.9249757	-3.1472626	Consultorio Local Aleas
090226	40.9255177	-3.1889766	Consultorio Local Beleña del Sorbe
090226	46.361001	17.6618597	
090226	45.5463988	9.1817068	Ambulatorio Polispecialistico Daymedical
090226	54.1473602	10.3412836	Molck
090226	50.7132119	-3.073935	Seaton and Colyton Medical Practice
090227	46.8689485	12.8768929	Dr. Eder
090227	50.2433583	8.2552983	Dr. Reuter / Dr. Schultheis
090227	53.7776371	-2.7108693	Lytham Road Surgery
090228	51.7177945	-1.2448238	Kennington Health Centre
090228	48.0356336	14.2047096	Dr. Oskar Tauber
090228	51.0864304	6.5689055	Dr. Burbach
090301	49.1180196	20.4462639	Zdravotné stredisko
090301	51.0703595	6.5916471	Dr. Nobis
090302	44.6429335	-75.0633055	North Country Medical
090302	44.6347465	-75.0791297	Hospice of St. Lawrence County
090303	47.6279674	8.5745883	Dr. Mannig
090303	45.5508818	9.1863172	Studio medico dott. Lorenzo Pecora
090303	52.626863	-1.2010149	Forest House Medical Centre
090304	45.5481541	9.1830111	dott. Laura Posani
090304	53.4083179	-2.6322117	Westbrook Medical Centre
090304	53.40058	-2.6597379	Sankey Medical Centre
090306	-28.8169744	153.3228274	Goonellabah Medical Centre
090307	48.828576	9.2336921	Gemeinschaftspraxis Reinhardt&Kühner
090307	48.7475761	-0.0241676	kinésithérapie
090307	48.7449317	-0.0224922	
090307	-38.0791835	145.485154	Station Street Clinic
090307	57.3665642	-2.0701748	Ellon Medical Practise
090307	46.4228774	17.6948183	
090307	43.750824	28.5713756	Dispensar
090307	46.4580854	17.771252	
090307	51.5252925	0.0280401	
090308	51.5222058	0.0249158	
090310	16.7516225	-62.2195777	
090310	51.5577886	10.056484	Gemeinschaftspraxis für Allgemeinmedizin
090311	52.820333	-1.6482727	
090311	52.4356044	9.755409	
090311	52.4354143	9.7553051	
090311	53.7871046	-1.760989	Trinity Centre
090313	-32.9397324	151.6589641	
090313	-32.9405901	151.6602355	Cardiff General Practice
090313	51.6739084	11.7771614	Ärztehaus
090313	50.8484708	9.9581527	
090313	50.3919379	8.1903906	Gemeinschaftspraxis Dr. Steinsdörfer, Schneider
090314	52.4931752	-2.0335294	Whiteheath Medical Centre
090315	51.5347178	-0.1078253	
090315	55.7939343	-4.2876934	
090316	53.7123478	-1.8316201	
090318	51.5498192	-0.1082797	
090318	47.2163098	-1.6819995	
090318	56.2628868	10.302216	Skødstrup lægehus
090319	51.41842	21.97421	Przychodnia
090319	51.41386	21.9783	Przychodnia
090319	51.41984	21.97305	Przychodnia
090320	52.2403848	0.1611563	Milton Surgery
090321	51.7470902	-2.2822379	Stonehouse Health Clinic
090321	50.3726065	-4.1281659	Friary House
090322	47.8438659	-0.1988824	
090322	28.5483308	-81.2045014	Centra Care Clinic
090322	41.3901332	2.1614044	Sin Pelo
090322	41.3920296	2.1589251	Sanitas Millenium
090322	50.8227752	0.2441026	Downlands Med Centre
090323	51.8446046	-2.1567136	Abbotswood Surgery
090323	43.7028474	-79.5252633	
090325	49.3211241	7.0956871	Dr. Müller-Kähmann
090325	49.5972448	5.875225	
090325	46.4044894	17.8709477	
090325	49.7782362	18.2209484	
090326	49.0410737	11.9179203	Dr. Schuldes
090326	47.6206547	-122.1904009	Bellevue Medical Dental Clinic
090326	47.6262107	-122.1331779	Crossroads Medical and Dental Center
090327	38.9846397	-119.1670977	Lyon Health Center
090327	33.569801	-112.073617	John C Lincoln Community Health Center
090328	40.8138897	-96.6439034	Consultative Nephrology Peritoneal Dialysis Center
090328	40.7847229	-96.6258478	Lincoln Orthopedic and Sports Medicine Clinic
090328	40.7813898	-96.6483485	Housecalls Phlebotomy Center
090328	40.8122229	-96.6377922	Womens Clinic of Lincoln
090328	40.7952785	-96.6236253	Beverly Health and Rehabilitation Center
090328	40.8213898	-96.6530703	Lincoln Vision Clinic
090328	40.7927789	-96.6636265	Prairie View Hematology Clinic
090328	40.8583345	-96.6844597	Dermatology Across Nebraska Center
090328	40.8136116	-96.613347	Dialysis Center of Lincoln
090328	40.7980563	-96.6261253	Sports Medicine Institute of Nebraska
090328	41.2727763	-96.0233499	Gartner Foot Clinic
090328	41.2344434	-96.0919633	Graves Vision Clinic
090328	41.259721	-96.0519622	Urology Center
090328	41.2333322	-96.0477952	Larson Foot Clinic
090328	41.2841649	-96.0152938	Maple-Crest Care Center
090328	41.2313876	-95.9472365	Clarkson Primary Care
090328	41.2274989	-96.0186274	Breast Diagnostic Clinic
090328	41.2202766	-95.9755705	Tobin Eye Institute
090328	41.2361101	-96.098908	Arbor Family Care Center
090328	41.2638876	-96.0425173	Midwest Allergy and Asthma Clinic
090328	41.23361	-96.0394616	Heartland Chelation Clinic
090328	41.2847205	-96.0689067	Maple Hill Foot Clinic
090328	41.2861097	-96.2330788	Elkhorn Eye Clinic
090328	40.593069	-98.3750592	Stone Health Center
090328	41.2594432	-96.0519622	Midwest Eye Care PC Building
090328	41.2327767	-96.0477952	Eighty-Seventh Avenue Pediatric Clinic
090328	41.260832	-96.0527955	Physicians Clinic
090328	41.1986101	-96.1369637	Physicians Clinic
090328	41.2897204	-96.0794626	Healthspring Medical Group Building - Northwest
090328	41.204721	-95.9591809	Family Health Care Center
090328	41.204721	-95.9591809	University Medical Associates - South Omaha Neighborhood Association
090328	41.3322193	-95.9589027	Creighton Family Healthcare Building - Florence
090328	41.2288878	-96.0233499	Creighton Family Healthcare - Central
090328	40.8202792	-96.698905	University Health Center
090328	40.8130561	-96.6183471	Lincoln Family Medical Group Center
090328	41.2327765	-95.9472365	Indian-Chicano Health Center
090328	40.8063897	-96.6447369	Elliott Chiropractic Center
090328	40.7883343	-96.6580709	Mosier-Timperley Chiropractic Clinic
090328	40.8180563	-96.639181	Lincoln Chiropractic Center
090328	41.285276	-95.9980711	Benson Chiropractic Clinic
090328	41.2627766	-96.1105752	Creighton Family Healthcare Building - West Dodge
090328	41.2924983	-96.1269641	University Medical Associates Building - Eagle Run
090328	41.2347212	-96.1050193	Nelson Chiropractic Clinic
090328	41.2797203	-95.9552922	Charles Drew Health Center
090328	41.2305545	-96.0416838	Southwest Family Physicians Center
090328	41.2855539	-96.050295	University Medical Associates Building - Keystone
090328	41.2594431	-96.0397395	Physicians Clinic - First Eye Associates
090328	41.2594431	-96.0397395	West Omaha Sports Medicine and Orthopedic Surgery PC Center
090328	41.2574986	-95.9555703	University Medical Associates Building - Medicine East
090328	41.232499	-96.0816852	Blum Chiropractic Office
090328	41.3069423	-96.0808512	Physicians Clinic
090328	41.2999978	-95.9905706	Baker Place Medical Associates Center
090328	41.291665	-96.1189082	Creighton Family Healthcare Building - Eagle Run
090328	41.2383322	-95.9983493	Physicians Clinic
090328	41.2644432	-96.1433541	Physicians Clinic
090328	41.3066661	-96.3436354	Physicians Clinic
090328	45.5556189	9.2024321	Dott. Stefano e Marco Cassano
090328	43.6481261	-72.3431471	Veterans Adminstration Medical and Regional Office Center
090328	41.8222	-71.4862	Tri-Town Health Services Center
090328	41.803	-71.4013	Providence Community Health Center
090328	41.888102	-71.595269	Northwest Health Center
090328	41.7546	-71.4552	Rhode Island Health Center Association
090328	40.0512413	0.0582012	Centro de Salud de Benicasim
090329	50.9707882	11.0562767	
090329	41.7472351	-97.7836647	Newman Grove Medical Clinic
090329	42.3454362	-71.1008389	Harvard Vanguard Clinic
090329	41.8880225	-103.6663327	Scottsbluff Internal Medicine Clinic
090329	52.1480134	7.3340037	Bretschneider
090329	39.1168422	-94.6215233	Wyandotte Clinic
090329	39.416451	-95.335989	Riverbend Rural Health Clinic
090329	38.857746	-94.675815	Midwest Family Care Emergicenter
090329	37.2675002	-97.3971017	City of Wellington Fire / Emergency Medical Service
090329	38.8665	-94.8176	Station 1103 Emergency Medical Services
090329	38.9602	-94.7408	Station 51 and 1105 Emergency Medical Services
090329	38.8985	-94.9278	Station 35 Emergency Medical Services
090329	38.9397	-95.2365	Haskell Indian Nations University - Health Center
090329	39.114734	-94.629107	Wyandotte Center for Community Behavioral Healthcare of Kansas City
090329	39.131362	-94.730218	Medicalodge Post - Acute Care Center
090329	39.302445	-94.939208	Medicalodge of Leavenworth Nursing Home
090329	39.195775	-95.208574	McLouth Medical Clinic
090329	37.661175	-97.58307	Medicalodge of Goddard Nursing Home
090329	37.700354	-97.4111	Sandpiper Bay Healthcare and Retirement Center
090329	38.002809	-97.5064065	Halstead Fire and Emergency Medical Service
090329	39.282595	-94.903318	Saint John Hospital Ambulatory Surgery Center
090329	38.898549	-94.803443	Olathe Medical Clinic
090329	37.652591	-97.314453	Medicalodge of Wichita Nursing Home
090329	39.024404	-95.780153	Rolling Hills Health Center Nursing Home
090329	39.142782	-94.72418	Medicalodge East of Kansas City Nursing Home
090329	39.011705	-94.730319	Shawnee Gardens Healthcare and Rehabilitation Center
090329	38.772499	-95.196654	Baldwin Healthcare and Rehabilitation Center
090329	37.780647	-97.541852	Colwich Health Center Nursing Home
090329	37.566352	-97.356637	Haysville Healthcare Center Nursing Home
090329	51.5873514	-0.3376524	
090329	36.5758748	-6.2250332	
090329	41.6625163	-91.5462797	Medical Education Building
090329	41.6608496	-91.5473908	Medical Research Facility
090329	41.6608496	-91.5473908	Medical Research Center
090329	38.4300518	-90.9709742	Saint John Mercy Medical Building
090329	38.5531073	-91.002643	Saint John Mercy Medical Building
090329	50.8203386	12.8260201	Ärztehaus I
090329	50.8197929	12.8254361	Ärztehaus III
090330	34.75952	-92.3797514	Metropolitan Emergency Medical Service - Little Rock Station 4
090330	34.6875797	-92.3422261	Metropolitan Emergency Medical Service - Little Rock Station 3
090330	34.7426381	-92.2838069	Metropolitan Emergency Medical Service - Little Rock Station 1
090330	34.7724419	-90.7564367	Pafford Emergency Medical Services
090330	34.8011813	-92.2544529	Metropolitan Emergency Medical Service - Little Rock Station 9
090330	34.756614	-92.2704765	Metropolitan Emergency Medical Service - Little Rock Station 8
090330	34.8073827	-92.291743	Metropolitan Emergency Medical Service - Little Rock Station 7
090330	34.7580212	-92.2076297	Metropolitan Emergency Medical Service - Little Rock Station 6
090330	34.7912589	-91.9005625	Metropolitan Emergency Medical Service - Lonoke
090330	34.8512588	-92.3958724	Metropolitan Emergency Medical Service - Maumelle
090330	34.9411768	-92.1635921	Metropolitan Emergency Medical Service - North Pulaski
090330	35.0936708	-92.4390691	Metropolitan Emergency Medical Service - Conway
090330	35.2207182	-93.1589106	Yell County Emergency Medical Services
090330	34.8946044	-94.1059835	Southwest Emergency Medical Service - Waldron
090330	33.1076264	-91.2628221	Elite Medical Services
090330	33.6289968	-91.7963248	Southeast Emergency Medical Service, Incorporated
090330	33.6287577	-91.4051243	McGehee Fire And Emergency Medical Services
090330	34.04511	-94.3418963	Southwest Emergency Medical Service - DeQueen
090330	33.6681298	-93.586411	Pafford Emergency Medical Services - Hope
090330	33.887725	-91.4903126	Dumas Emergency Medical Services
090330	34.5178598	-90.6338687	Pafford Emergency Medical Services - West Helena
090330	34.3272103	-93.5503302	Emergency Medical Transport
090330	34.0704121	-93.6846233	Emergency Medical Transport
090330	34.5532843	-93.6384827	Southwest Emergency Medical Service - Mount Ida
090330	34.5485359	-92.3016824	Metropolitan Emergency Medical Service - East Bend
090330	34.545239	-94.2089439	James Flying Service (Air Medical Services)
090330	35.282626	-93.1482842	Pope County Emergency Medical Service Station 3
090330	35.2425369	-92.9347165	Pope County Emergency Medical Service Station 2
090330	35.4902581	-93.8253209	Franklin County Emergency Medical Services
090330	35.4440502	-94.3239334	Angel Care Emergency Medical Services - Van Buren
090330	35.6231841	-91.2651395	White River Emergency Medical Services, Incorporated
090330	35.4954238	-92.6145241	Scotland Area Fire / Emergency Medical Service
090330	36.1238789	-94.1415207	Metro Ambulance Service, American Medical Response
090330	35.8919291	-90.3427965	Buffalo Island Emergency Medical Services
090330	36.0834753	-93.7464757	Madison County Emergency Medical Service
090330	36.2592958	-90.2934907	Rector Emergency Medical Service
090330	36.3145628	-92.4099201	Action Emergency Medical Services
090330	36.343942	-94.2180879	Ballard Aviation / EagleMed (Air Medical Services)
090330	36.3341426	-93.4303153	Saint John's Emergency Medical Service - Carroll County
090330	36.2476791	-94.1875239	Northwest Medical Transfer Service
090330	35.1919368	-92.3947393	Metropolitan Emergency Medical Service - Greenbrier
090330	35.0788746	-92.3147895	Metropolitan Emergency Medical Service - Liberty
090330	35.2925806	-93.7271367	Logan County Emergency Medical Service
090330	35.1482262	-93.8654477	Logan County Emergency Medical Service - State Highway 10
090330	35.2126579	-90.1924643	Marion Emergency Medical Services
090330	35.1443653	-90.182842	Crittenden Emergency Medical Service
090330	35.2094765	-94.2599709	Sebastian County Emergency Medical Services (Greenwood)
090330	35.3665816	-94.4035348	Fort Smith Emergency Medical Service
090330	35.1690552	-92.7187781	Med - Tech Emergency Medical Services of Conway County
090330	35.2395003	-91.7145659	Northstar Emergency Medical Service - Searcy Station 1
090330	35.2449182	-91.766225	Northstar Emergency Medical Service - Searcy Station 2
090330	35.0716099	-91.8853485	Northstar Emergency Medical Service - Beebe Station
090330	35.530285	-90.4208355	Riverside Emergency Medical Service, Incorporated
090330	35.4926564	-92.0489916	Northstar Emergency Medical Service - Heber Springs
090330	35.2796773	-93.1096077	Pope County Emergency Medical Service Station 1
090330	35.4022439	-93.1138029	Pope County Emergency Medical Service Station 4
090330	36.3553558	-94.1871839	Medical Transport Service Advanced Life Support
090330	29.9812	-90.241	Kenner Adult Day Health Center
090330	29.9772	-90.075	New Directions Adult Day Health Center
090330	41.4687079	-73.0370515	Glendale Health Care Center
090330	41.3056527	-72.9367692	Connecticut Mental Health Center
090330	41.3203749	-72.9206577	Connecticut State Medical Society
090330	41.4695412	-73.0301069	Beacon Brook Health Care Center
090330	41.3012082	-72.9364913	Yale Physicians Building
090330	41.8792598	-73.4806787	Medical Arts Building
090330	38.9105556	-77.0752778	Pasquerilla  Healthcare Center
090330	38.843224	-77.0007597	District of Columbia Fire and Emergency Medical Services Engine Company 25
090330	38.9032842	-77.0299699	District of Columbia Fire and Emergency Medical Services Engine Company 16
090330	38.8836433	-77.0193517	District of Columbia Fire and Emergency Medical Services Engine Company 13
090330	38.8716083	-76.9669539	District of Columbia Fire and Emergency Medical Services Engine Company 19
090330	38.9436111	-77.0194444	Numa P G Adams Medical School Building
090330	38.9249	-77.04	Christ House Health Center
090330	38.8917	-77.0004	East of The River Health Center
090330	38.8945562	-77.0516438	Navy Medical Command Building
090330	38.9074	-77.0068	First Street Health Center
090330	38.8907303	-76.9334501	District of Columbia Fire and Emergency Medical Services Engine Company 30
090330	38.9323478	-76.9898755	District of Columbia Fire and Emergency Medical Services Engine Company 17
090330	38.9199	-77.0274	Childrens Shaw Health Center
090330	38.9226	-77.0374	Childrens Adams Morgan Health Center
090330	51.3271907	-0.2735273	The Clockhouse Medical Practice
090330	51.5310429	-3.6778114	Kenfig Hill Clinic
090330	51.6684023	6.7445739	Dr. med. W. Heumann, Dr. med. A. Heusser
090330	40.5241667	-74.4427778	Busch-Livingston Health Center
090330	29.3247089	-100.934834	Clínica Navarro
090331	42.3389864	-71.1069965	Brookline Avenue Medical Building
090331	42.2589801	-72.5728664	Grove Health Center
090331	42.4725	-70.9669	Lynn City Fire Emergency Medical Service Office
090331	44.3889682	-68.2086242	High Street Health Center
090331	38.9088889	-76.9755556	Calvert County Fire/Rescue/Emergency Medical Services Division
090331	39.360385	-76.5199643	Fourteenth District Health Center
090331	39.703697	-75.981216	Calvert Manor Health Care Center Nursing Home
090331	39.613541	-75.839288	Laurelwood Health Care Center at Elkton
090331	38.574375	-76.090447	Mallard Bay Health Care Center at Cambridge
090331	34.2173773	-80.2481278	Lee County Health Center
090331	34.3020984	-79.8683962	Darlington County Health Center
090331	32.8676127	-81.1123647	Hampton County Emergency Medical Services
090331	33.0263598	-80.1714038	Summerville Emergency Medical Services
090331	34.5020504	-82.6529112	Anderson County Health Center
090331	39.281186	-81.541235	Parkersburg Medical Park
090331	37.3056735	-81.14426	Mercer County Health Center
090331	42.4856	-82.9268	Bon Secours Diagnostic Center
090331	42.4947	-82.9103	Bon Secours Diagnostic Center and Family Practice
090331	42.4782	-83.4403	Botsford Center for Health Improvement
090331	42.4379	-83.3137	Botsford Family Services
090331	42.4836	-82.9082	Bon Secours Internists
090331	42.4693	-82.9072	Bon Secours Rehabilitation Services
090331	42.4402	-83.3185	Botsford Kidney Center
090331	42.5549	-82.9896	Complete Family Care
090331	42.3075	-84.0167	Chelsea Family Practice
090331	42.238	-83.6166	Neighborhood Health Clinic - Ypsilanti
090331	42.1738	-83.1925	Oakwood Family Health - Riverview Center
090331	42.3034	-83.2422	Oakwood Cardiac Rehabilitation Center - Dearborn
090331	42.651	-84.0776	McAuley-McPherson Family Care Center
090331	42.942	-82.4605	People's Clinic for Better Health
090331	42.6142	-83.9398	ReadyCare of Howell
090331	42.3637	-82.9815	Mercy Family Care
090331	42.3912	-82.9681	Mercy Family Care - Chandler
090331	42.6318	-83.2868	Mercy Place-Neighborhood Clinic
090331	42.2873	-83.8188	West Ann Arbor Health Center
090331	42.4241	-83.1795	Grace Dialysis Center
090331	42.5145	-83.0254	Beaumont Medical Facility
090331	42.5462	-83.3754	Sinai Maisel Women's Health Center
090331	42.3036	-83.6722	East Ann Arbor Health Center
090331	42.4613	-83.1216	Ferndale Health Center
090331	42.5105	-83.0045	Saint John Macomb Obstetrics and Gynecology Select Health Center - Warren
090331	42.6148	-83.2768	Saint Joseph Mercy Medical Office Building
090331	42.1847	-83.7662	Saline Health Center
090331	42.5352	-83.3696	West Bloomfield Medical Building
090331	42.3951	-82.9929	Saint John Detroit Health Center
090331	42.4413	-83.262	DMC Health Care Center - Detroit
090331	42.2919	-83.7802	Community Family Health Center
090331	42.3149	-84.0192	Chelsea Internal Medicine
090331	42.5355	-83.7829	Brighton Health Center
090331	42.3926	-83.3777	Botsford Family Health Center
090331	42.5158	-82.9132	Bon Secours Shores Family Physicians
090331	42.4149	-82.9092	Bon Secours Shorepointe Family Physicians Building
090331	42.3797	-82.9423	Bon Secours Internal Medicine
090331	42.4634	-82.9291	Bon Secours Eastpointe Physicians Center
090331	42.4924	-83.0035	Bon Secours Associated Family Care Physicians Building
090331	42.3313	-83.393	Oakwood Healthcare Center - North Westland
090331	42.4093	-83.4153	Oakwood Healthcare Center - Livonia
090331	42.3547	-83.2837	Oakwood Healthcare Center - Dearborn Heights
090331	42.3257	-83.3424	Oakwood Healthcare Center - Garden City
090331	42.3259	-83.1581	Oakwood Healthcare Center - Dearborn
090331	42.3237	-83.1749	Oakwood Healthcare Center - Dearborn
090331	42.1581	-83.222	Oakwood Healthcare Center - Brownstown
090331	42.2596	-83.2103	Oakwood Healthcare Center - Allen Park
090331	42.4423	-83.0211	Northeast Physician Associates Health Center
090331	42.543	-83.381	DMC-Sinai Health Center
090331	41.9273	-83.3897	Monroe Health Center
090331	42.3542	-83.456	Plymouth Health Center
090331	42.2923	-83.344	Oakwood Healthcare Center - Westland
090331	42.2533	-83.2111	Oakwood Obstetric and Gynecology Healthcare Center
090331	42.3243	-83.4538	Plymouth-Canton Health Center
090331	42.2625	-83.654	Michigan Orthopedic Center
090331	42.4443	-83.3351	Middlebelt Pediatrics
090331	42.2572	-83.6818	McAuley Outpatient Mental Health and Chemical Dependence Services
090331	28.6687	-81.3861	Seminole Mental Health Center
090331	25.4687224	-80.4875572	Homestead-Florida City Health Center
090331	25.8486111	-80.1902778	80th Terrace Health Center
090331	29.6511111	-82.3325	Ayers Medical Plaza
090331	29.4641667	-82.6433333	Levy County Emergency Medical Station
090331	26.16	-80.2233333	Heartland Health Care Center of Lauderhill
090331	25.6788889	-80.4183333	Heartland Health Care Center-Kendall
090331	25.7869444	-80.2175	Downtown Family Health Center
090331	25.565	-80.3577778	Community Health Center of South Dade
090331	26.2747222	-80.1811111	Health Center of Coconut Creek
090331	25.8466667	-80.2425	Juanita Mann Health Center
090331	25.9419444	-80.2947222	Heartland Health Care Center -Hialeah
090331	26.2233333	-80.135	John Knox Village Health Center of Pompano Beach
090331	25.4686111	-80.4880556	Martin Luther King Health Center
090331	26.1775	-80.2638889	Springtree Rehabilitation and Health Care Center
090331	25.9036111	-80.2130556	North Miami Health Center
090331	25.8836111	-80.3288889	Palmetto Health Center
090331	27.7630832	-82.6409319	Bayfront Family Health Center
090331	25.7472222	-80.3180556	West Gables Health Care Center
090331	25.6033333	-80.3541667	West Perrine Health Center
090331	36.202424	-76.492549	Brian Center Health and Rehabilitation of Hertford
090331	35.990343	-76.930249	Brian Center Health and Rehabilitation of Windsor
090331	34.727086	-77.992069	Brian Center Health and Rehabilitation Center of Wallace
090331	35.392876	-77.973707	Brian Center Health and Rehabilitation of Goldsboro
090331	35.986711	-76.929013	Three Rivers Health and Rehabilitation Center
090331	34.3461	-78.700795	Liberty Commons Nursing and Rehabilitation of Columbus
090331	34.847178	-78.980529	Evergreen Rehabilitation Center
090331	35.112406	-77.065319	Two Rivers Healthcare Center Trent Campus
090331	34.728454	-76.758013	Carteret Surgery Center
090331	34.294744	-77.771348	Davis Health Care Center
090331	35.917695	-76.252339	Tideland Mental Health Center of Columbia
090331	35.550073	-77.035182	Tideland Mental Health Center of Washington
090331	35.382534	-77.98196	Wayne County Mental Health Center
090331	34.348917	-78.70512	Shoreland Health Care and Retirement Center
090331	35.492078	-81.247025	Lincoln County Health Center
090331	36.3195907	-78.3941636	Vance County Health Center
090331	34.765421	-77.386446	Onslow County Behavioral Health Care Services
090331	36.1567987	-81.1248052	New River Mental Health Center
090331	34.7468352	-77.991929	Duplin County Mental Health Center
090331	36.0059765	-78.9366752	Bell Medical Research Building
090331	35.852325	-77.048743	Williamston Rehabilitation and Health Care Center
090331	35.292846	-77.565525	Kinston Rehabilitation and Healthcare Center
090331	34.210069	-77.92659	Cypress Pointe Rehabilitation and Health Care Center
090331	34.54958	-77.921174	Huntington Health Care and Retirement Center
090331	34.719925	-76.712954	Harborview Health Care Center
090331	34.485244	-79.113396	South Robeson Medical Clinic
090331	35.578981	-77.594294	Farmville Healthcare Center
090331	33.8051	-84.6334	Austell Health Center
090331	34.0695	-84.6801	Acworth Health Center
090331	32.8379168	-83.6310133	Macon Health Center
090331	31.2296267	-84.2046275	Mitchell County Health Center
090331	33.7406	-84.1227	East DeKalb Health Center
090331	45.5577201	9.2121087	Poliambulatorio Consorzio "Il Sole"
090331	40.308559	-76.098288	Medical Unit/Admissions Building
090331	40.298033	-75.958884	Mifflin Healthcare Center
090331	40.303218	-75.852483	Commonwealth Orthopedics Building
090331	40.341626	-75.974855	Reading Pediatric Office
090331	40.326767	-75.874703	Saint Lawrence Medical Associates Building
090331	40.9561111	-76.8797222	Ziegler Health Center
090331	39.7848	-77.3708	Fairfield Fire and Emergency Medical Services Company 2
090331	37.8925	-77.2111111	Quinton Volunteer Fire and Emergency Medical Services Company Number 2
090331	38.0238889	-78.5286111	Aurbach Medical Research Building
090331	38.4386111	-78.8777778	Medical Arts South
090331	37.5544444	-79.08	Mary Harley Student Health Center
090331	38.4394444	-78.8786111	Medical Arts West
090401	53.6820446	-1.5182437	Homestead Clinic
090401	40.7659348	-73.9545825	Stich Medical Offices
090401	40.7641667	-73.5277778	Hicksville Medical Arts Building
090401	40.7919444	-73.9525	New York Academy of Medicine
090401	50.6786696	10.7899795	
090401	42.3130747	-89.0292725	Alpine Health Center
090401	41.8883649	-87.7936696	Medical Arts Building
090401	38.8325804	-82.2107028	Gallia County Infirmary
090401	39.6183962	-82.8712874	Pickaway County Infirmary
090401	38.8761801	-83.9221505	Brown County Infirmary
090401	36.1734855	-86.6019102	Summit Medical Park
090401	35.1421	-90.0295	Coleman College of Medicine Building
090401	35.067206	-89.942282	Oakville Mental Health Center
090401	29.3094033	-94.7879735	University of Texas Medical Branch Strand Building
090401	29.5506915	-95.1136208	Clear Lake Emergency Medical Corps
090401	34.0766667	-118.3791667	Cedars-Sinai Outpatient Services Building
090401	34.0758333	-118.3827778	Steven Spielberg Pediatrics Research Center
090401	51.0372207	16.9770354	
090401	50.0926195	14.4952285	Plastická chirurgie
090402	53.100935	-1.2453962	
090402	53.1001517	-1.2447095	
090402	52.2350582	21.034473	Centrum Rehabilitacji NFZ
090403	53.5319901	-1.0929988	East Dene Cent
090403	52.2070888	21.0168966	
090404	-29.9089126	31.0199385	Medical Centre
090404	51.5421778	-0.1174653	Caledonian Road Medical Practic
090405	53.3020422	-1.4754711	Dronfield Medical Centre
090405	53.3056471	-1.457518	Oakhill Medical Practice
090406	47.7320516	18.729084	Dr Hegedűs Gyula
090407	49.7443665	10.1417217	KfH Nierenzentrum
090407	49.7443457	10.1416684	Dr. med. Kurt Bausewein Innere Medizin
090408	50.4339012	12.7101415	Grießner Gabriele
090408	47.8591881	11.4807852	Thomas Freiseisen
090410	49.9014875	10.3465358	Eva Schleif Heilpraktikerin
090410	49.9014623	10.3465569	Dr. med. orth. Dittmar Schulz
090410	49.9014377	10.3465619	Physiotherapie
090410	52.6210342	-1.2242319	Hunters Lodge Medical Centre
090410	47.986957	13.8156103	Koller
090410	54.9883209	-1.4260921	
090411	43.6878329	-79.3019555	Danforth-Main Medical Offices
090411	49.7812351	18.2743109	Doktor pro dospělé
090411	49.7813029	18.2747545	Dětský lékař
090411	58.9646896	5.7030899	Stokka legesenter
090412	49.4759348	8.6630946	
090412	52.1866883	10.3324332	Irannejad
090412	49.7801252	18.1712863	
090413	47.7453888	20.5206136	Körzeti Orvosi Rendelő
090413	48.0073233	16.2706956	Dr. Herdis Krajcsy-Sorger
090413	48.0028253	16.2651803	Dr. Elisabeth Kovar
090413	48.0102372	16.2735989	Dr. Christa Laschober
090413	47.9289546	15.4910625	Dr. Demetz
090413	51.085772	12.4239052	
090414	50.8589956	-2.165289	White Cliff Surgery
090414	48.0432994	15.6729599	Dr. Stalzer
090414	50.1273287	10.8548976	Dr. med. Roland Giessel
090415	-22.9972631	-43.3598141	Centro Médico BarraShopping
090417	13.0399682	80.2503287	
090417	13.0406236	80.250546	
090417	51.4684198	13.2945132	MR Dr. med. Dietel
090421	36.2653757	29.410215	
090421	-27.4013381	153.059343	Nundah Village Family Practise
090421	-27.4019127	153.0596557	
090421	-27.4016611	153.0596541	
090421	-27.4001173	153.0608357	
090422	45.7788908	15.997277	
090422	10.2942293	123.9056663	Friendly Care Clinic
090422	51.6699993	-4.0458468	Princess Street Surgery
090423	30.8504843	34.7820696	
090423	53.8037254	-1.776694	Whetley Medical Centre
090423	53.8041059	-1.7770767	Ashwell Medical Centre
090423	46.331054	-0.9485159	
090423	53.8080461	-1.7762988	Westbourne Green Community Health Centre
090423	55.954104	-4.0223172	Medical Centre
090423	54.9873202	-1.4269096	Wawn Street Surgury
090424	52.0946168	7.2353913	Dr. med. Lambert Rosenbaum
090425	48.7396432	21.2825829	
090425	48.1219754	10.1227724	Dr. Uwe Pajakowsk
090425	50.067296	10.2529013	Dres. Zimmermann
090425	46.9902704	28.0547399	
090425	53.5229714	49.3322433	Открытая медицина
090426	46.80381	-71.227163	Dr. Claude Gallighan
090426	51.6547632	10.1250944	Praxis K. Seeger
090426	48.4522908	15.6017125	Gemeindearzt
090426	53.7524649	-1.4496273	Oulton Medical Centre
090427	48.6597972	11.4672927	Hausärztliche Gemeinschaftspraxis
090427	51.7616104	-1.2146059	
090427	-43.1542191	172.7332892	Medical Centre
090427	53.7574934	-0.3059864	Southcoates Medical Centre
090427	51.630492	12.2587387	Allgemeinarzt A. Broda
090427	48.2417095	16.3103021	Dr. Schillinger
090427	50.9082588	6.4051285	Betriebsarzt
090428	53.7988295	-1.8261055	Allerton Health Centre
090428	55.7552427	9.8561306	Lægerne Egevej
090428	53.3575628	-1.3724876	Woodhouse Clinic
090429	40.0538799	-0.3502664	Consultorio de Argelita
090429	43.6641199	-79.4162194	Dr. Whun Yong Shin, Family Physician
090430	51.069701	-4.0418681	Litchdon Medical Centre
090430	51.104268	-0.2231932	
090430	51.5361067	0.1867058	Fountains Care Centre
090501	53.3179816	13.8695848	Arztpraxis Schiewe/FÄ für Allgemeinmedizin
090501	39.9867221	-0.0408803	Centro de Especialidades de Castellón de la Plana Jaume I
090502	40.7593144	-111.8294474	University Hospital Child Development Center
090502	47.2745687	-1.773427	
090502	47.7024665	11.8831166	Tobor Oswald, Physiotherapeut
090502	40.769363	-111.8378336	John A Moran Eye Center
090503	-27.6531329	152.917277	
090503	52.6304983	-1.1865594	Braunstone Health & Social Care Centre
090503	51.5540138	-0.1135215	Sobell Medical Centre
090503	48.9642896	8.611188	Dieter Weidner und U. Drgala
090504	53.3073718	-1.3550472	Eckington Medical Practice
090504	41.7136468	44.7989438	Clinic Meoihelp
090505	46.9038407	6.3508885	Centre de santé infirmier
090505	44.7136869	-74.9869358	Orlando Chiropractic Center
090506	35.5861285	140.1335838	岩瀬整骨院
090506	43.779409	-79.3641006	Nymark Medical Centre
090506	46.9020672	6.3510843	Pédicure
090506	35.6403834	140.0912205	稲毛バースクリニック
090506	35.6358664	140.1440745	藤村犬猫病院
090506	42.391578	-71.155386	Sancta Maria Nursing Facility
090507	60.7253566	33.5571872	Линейная железнодорожная поликлиника
090507	40.0020861	-0.0468372	Centro de Salud San Agustín
090507	49.6844033	8.780216	Dr. Carl-Reinhardt Albilt
090508	50.3345463	9.7127458	Dr. Wendt
090508	28.4930558	-17.8455724	
090508	39.2560997	-84.3438714	Northeast Pediatrics
090509	52.4195715	8.7214814	
090509	28.6516112	-17.9452524	
090509	58.6472153	25.9784281	
090509	50.7648481	4.4729596	
090509	-27.3942756	152.9937519	North West Medical Centre
090510	35.5804052	140.1342786	
090510	35.5637776	140.1570164	ほたか整形外科
090510	35.5407266	140.195601	ちはら台動物病院
090510	35.5489493	140.1760221	東雲本山医院
090510	35.5512831	140.176431	小池皮膚科
090510	35.5513295	140.1780424	整形外科
090510	35.5518405	140.1760268	おゆみのクリニック
090510	35.5475934	140.2092395	おゆみの診療所
090510	35.5486181	140.2043541	しのばずの池眼科
090510	50.8301347	-0.0704089	
090513	39.2254772	-84.3539602	
090514	53.5726963	9.9576653	Dr. Andrea Sörens
090514	53.608353	9.8448087	
090514	44.518908	9.1571974	
090514	52.0864955	21.120352	Lecznica Świętego Łukasza
090514	53.7545617	-0.045239	Hodgson Lane Surgery
090514	51.2765964	-1.0575053	Church Grange Lychpit Surgery
090515	51.6992406	6.374359	Dr. med. Wilhelm Maaßen
090516	47.7000204	11.7246799	Dr. med. G. Miecke
090517	49.1795882	7.0370455	Ergotherapie
090517	52.2378858	21.0002557	
090517	51.7966398	-0.0836199	Hanscombe House
090517	47.6971482	11.7721517	
090517	52.0619864	-0.7310868	Willen Village Surgery
090517	52.2357669	20.994292	
090519	44.5328503	14.4634114	
090519	44.5745444	-0.2947972	
090520	60.3494297	25.0786002	Korson terveysasema
090520	53.6832342	-0.0131355	St Patricks Surgery
090520	48.1656998	8.8593183	
090520	51.9466807	-0.0245553	
090520	48.7502264	8.8705366	
090520	48.750017	8.8754204	
090520	49.36973	3.8919651	Maison médicale
090521	51.1076906	-0.153421	
090521	51.5326236	11.5404247	
090521	50.630024	-3.3274772	
090521	55.1403158	-3.7774766	Dunscore Surgery
090521	48.7511771	8.8730858	
090521	51.6200665	-3.8068033	Baglan Clinic
090521	52.0763285	21.124848	
090521	52.0810216	21.114678	
090521	52.0822988	21.1131323	
090521	52.0724832	21.1123491	
090521	51.2289492	6.0380298	Sterk & De Jong
090522	48.840743	-0.8878182	médecins associés
090522	50.5789386	11.817409	Ärztehaus Breitscheidstraße
090522	47.1083034	11.3006565	Dr. Ranalter
090522	52.033323	4.285849	
090522	49.0732265	12.7141656	Aubele Allgemeinarzt
090523	52.0374131	4.2997503	Gezondheidscentrum Nieuw Rijswijk
090523	36.96933	-122.0372077	Santa Cruz Medical Foundation
090523	52.3124342	4.6417776	Gezondheidscentrum en Apotheek Floriande
090523	51.270198	0.1897141	South Park Medical Practice
090523	53.7494368	-1.5359239	Lingwell Croft Surgery
090523	52.2367789	20.9484068	
090524	50.1410016	9.163334	
090524	52.0361273	-0.747453	Fishermead Medical Centre
090524	52.208166	20.9160206	
090524	52.2100956	20.9185032	
090524	51.2820609	0.1938327	St John's Centre
090524	52.244962	21.0178407	
090524	52.2453884	21.0186806	
090524	50.6256863	-3.4476291	Starcross Surgery
090525	51.2851612	0.4980785	Allington Park Surgery
090525	51.2772731	0.1867285	Amherst Medical Practice
090525	52.2292261	21.0353044	Centrum Leczenia Jaskry i Chrób Oka
090525	52.251402	21.0803872	
090525	51.5514985	-0.2093326	Windmill Medical Practice
090526	51.7460876	-1.2012322	Woodfarm Health Centre
090526	52.2344844	20.9671787	
090526	52.2331195	20.9687262	
090526	52.2332879	20.9718686	
090526	32.0315409	-81.087433	Georgia Eye Institute
090526	50.4179873	11.0505132	Allgemeinarzt Hartmann
090526	48.9725871	14.4888263	Železniční poliklinika
090527	51.4672291	-2.1394343	Hathaway Medical Centre
090527	44.0596393	-75.8120979	Guthrie Medical Clinic
090527	-17.895423	146.0910758	Mission Beach Medical Centre
090527	53.7433854	-0.8706128	Howden Medical Centre
090529	38.07919	13.4387865	Guardia Medica
090529	43.6592314	-79.3655977	Regent Park Community Health Centre
090530	54.7737856	-1.5651433	University Health Centre (NHS Clinic)
090530	46.7970192	7.6855686	
090530	54.0711147	12.1108801	DRK Sozialstation
090530	50.8676949	5.8298735	Huisartsenpraktijk van der Ploeg
090530	51.4329105	11.0432644	König
090530	41.2629596	15.905174	Guardia Medica
090530	53.7564628	-1.662682	Drighlington Medical Centre
090531	51.5251301	-3.1024181	
090531	52.1711404	20.8884164	
090531	55.8780985	-3.1553307	Loanhead Clinic
090601	51.3804963	-0.08626	Dr Shah and Partners
090601	52.5895417	10.5328867	Drescher
090602	53.8277025	-1.7244903	Rockwell Medical Centre
090602	43.5772697	-79.6192849	
090602	49.7333462	10.1559845	Krankengymnastik Barbara Bellwon
090603	56.4661476	-4.3163986	
090603	47.909504	11.2739962	Dr. Hertel
090604	46.8571714	6.1576335	
090604	48.4233195	12.9429855	
090604	51.4261559	0.5612487	St Werbough Medical Practice
090604	51.4202686	0.5576953	Elm Medical Practice
090605	-22.9519867	-43.1676834	Talita Franco Diogo Franco Cirurgia Plástica
090605	52.149172	20.8144485	
090605	52.149276	20.8128743	
090605	54.2092624	-5.8937726	Causeway Surgery
090605	50.3684783	11.5083523	Vorisek
090606	50.6469528	13.8509793	
090606	49.4548551	8.5371548	
090607	47.5035261	19.0705657	Orvosi ügyelet
090607	51.9734718	8.1463967	
090607	53.4672079	-2.9528109	Poulter Road Medical Center
090607	47.5028773	19.0697144	
090607	39.7847421	-5.4825575	Centro médico
090608	53.4154017	-2.5268231	Birchwood Health Centre
090609	52.0764727	0.4270846	Clements Surgery
090609	50.835123	4.4138797	Medicis
090610	52.2737522	8.0375244	B. Ziegler-Grundlach (Allgemeinarzt)
090610	51.4010895	6.7669817	Praxis Kontny
090610	39.2532646	-84.3428215	
090611	45.4375618	12.4390522	
090611	40.8357416	-0.5838848	
090611	52.6181423	1.2966181	Lakenham Surgery
090612	50.4112281	7.5647309	
090612	49.0622257	10.0904664	Dr. Simsch
090612	49.618908	9.5985493	Dr. Karl-Heinz Schmied
090612	50.8766204	6.9587551	
090612	47.4155645	9.6341348	Dr. Vetsch FMH
090614	51.4057445	0.0118025	
090615	-1.0784568	-46.6338519	Posto de Saude de Patal
090615	-1.0218927	-46.6352845	Unidade Especial de Saude
090615	-26.0730149	27.9202499	Kaka
090615	46.9026661	6.3509809	Laboratoire Millon
090617	51.3630232	12.9973903	Dr. Kreyß
090618	49.4925777	9.8170651	Lanig & Lanig
090619	51.1143856	1.1667598	Hawkinge Health Centre
090619	53.7022568	-1.4088776	Bridge Street Surgery
090620	-33.7444392	150.6100243	Blue Mountains Family Practice
090620	49.5997146	8.7364086	Ärztehaus
090621	50.7971663	12.1008286	
090621	49.9129431	14.2392552	
090621	49.6236041	9.665522	Florian Gnadt
090621	49.6238085	9.6611451	Dr. med. Hatmut Kraus
090621	54.6726996	-1.2384813	Masefield Centre
090622	53.6494903	10.1221631	
090622	48.0959229	14.1113827	Dr. Hubner (Gemeindearzt
090622	49.6292213	9.6753948	Naturheilpraxis W. Herbert
090623	49.5614374	9.6982583	Dr.med. Sigrid Petersheim
090623	53.2489155	8.197786	Naturheilpraktiker
090623	49.9146939	14.2314101	
090623	52.9997859	-7.4741405	Health Centre
090625	53.7856179	-1.7740915	Horton Park Centre
090625	48.1333652	13.9404953	Oberndorfer
090626	51.5093498	0.2813214	Belhus Surgery
090626	51.333483	11.9814749	
090626	-29.4305876	147.9811406	Lightning Ridge Community Health Centre
090626	47.1634024	27.5677323	Professional Dent
090626	47.3797376	8.5167226	Arztpraxis Bullingerplatz
090626	52.9899962	-2.5096203	
090626	51.5198249	0.0107065	Star Lane Medical Centre
090626	43.8081662	-79.2195469	Malvern Medical Arts
090627	48.4467557	-123.4869829	Saint Anthony's Medical Centre
090627	43.2990777	3.4782493	Les Opticiens Mutualiste
090627	53.7764376	-1.6241737	New Farnley Medical Centre
090627	35.4433416	139.6486407	中華街医院
090627	46.5987459	15.1644567	Zdravstveni dom Radlje ob Dravi, Zdravstvena postaja Vuzenica
090628	51.7359934	-1.2075191	Hollow Way Medical Centre
090628	53.6983012	-1.42125	Queen Street Surgery
090628	53.6989877	-1.4170658	Princess Street Surgery
090628	51.0644011	0.8588162	
090628	56.7448253	12.7234352	Harplinge vårdcentral
090628	51.0348603	10.7131601	Arztpraxis Vogt
090628	52.2772108	8.0045445	Ärztehaus
090629	-22.9355591	-43.1892262	
090629	38.3754255	-0.4949514	Centro de Salud Ciudad Jardín
090629	36.9801299	-122.0188924	550 Water, Bldg. A
090629	36.9797346	-122.018042	550 Water, Bldg. L
090629	36.9794203	-122.0178112	550 Water, Bldg. J
090629	36.9792655	-122.0175949	550 Water, Bldg. K
090630	51.6981886	-2.6814132	Wyedean Practice Tintern Surgery
090630	-22.9327665	-43.1830304	Sérgio Franco Medicina Diagnóstica
090630	53.6951582	-1.4239902	Newland Surgery
090701	47.7940459	-4.2860412	Groupe Médical
090701	32.3182928	35.3720355	Al Sha'ar Clinic
090701	32.3252706	35.3668455	Al Basma Health Center
090701	32.4085019	35.2867304	Al-Aksa Medical Society
090701	31.4499233	35.0289195	Medical Clinic
090701	32.1350375	35.2146062	Jamain Medical Center
090701	32.1759458	35.3381261	Muneer Sharif
090701	32.1274666	35.3472204	Emergency Clinic
090701	32.2525629	35.2694396	Dr Hasim
090701	32.2180387	35.2647514	Ahlam Lab
090701	32.1924902	35.3715307	Dr Atef Clinic
090701	32.1313608	35.2084982	Spicialist Medical Lab
090701	32.2259878	35.2439045	Al Razi
090701	32.3019699	35.1882711	Burqa Clinic
090701	32.2108963	35.1891731	Dr Abd Al Nasir
090701	32.1923149	35.3707551	Bait Dajan Clinic
090701	32.1999764	35.2124598	Dr.Haitham Isa
090701	31.6077247	35.0360715	Medical Clinic
090701	32.2931086	35.2176196	Bait Omren Clinic
090701	32.2233277	35.2978401	Marzoq Mohammad Al Sahili
090701	32.1065187	35.2867327	Qabalan Clinic
090701	32.2518239	35.2711321	Clinic
090701	32.2934704	35.2108842	Dr Hasounah
090701	32.0900034	35.3251059	Al Shifa' Clinic
090702	48.7057865	9.5808509	Handke Horst
090702	32.2237087	35.2593954	Al Adham X-ray
090702	32.1245949	35.3439493	Aqraba Medical Clinic Under Construction
090702	32.2769387	35.1958586	Sabastia Clinic
090702	32.0838001	35.3640473	Majdal Bani Fadil Clinic
090702	32.1094578	35.2687446	Dr. Helal Ayed Clinic
090702	32.2213687	35.2293912	Future Clinic
090702	32.1249254	35.3098602	Medical Clinic
090702	32.1779186	35.3352351	Red Crescent
090702	32.1763075	35.3354324	Bait Fourik Clinic
090702	32.0711539	35.2411011	Health Clinic
090702	32.2222288	35.2630443	Dr Abd Al Hafiz
090702	32.2771508	35.1937802	Clinic
090702	32.2232661	35.2445238	Dr Jmal Abu Hajleh
090702	32.2779809	35.2056054	Ibn Sina Center
090702	32.1541823	35.2768805	Health Clinic
090702	32.223225	35.2430766	Medecins Sans Frontieres
090702	31.3979299	35.0685756	Ibn Sina Clinic
090702	31.449172	35.0887084	The Charity Association Emergency_Access_Point
090702	31.5220966	34.9786133	Dentist Clinic
090702	32.2493818	35.2681402	Medical Center
090702	32.0855036	35.3345639	Qusrah Medical Center
090702	31.5142722	35.1199933	Al Ajlooni Surgery Clinic
090702	32.2757406	35.1984574	Sabastia Helth Center
090702	32.2513557	35.2691771	Medical Lab
090702	31.5072431	34.9495304	Maternity Clinic
090702	31.7368867	35.2569009	Al Shaikh Sa'd Health Center
090702	31.7682901	35.253606	Arab Health Center
090702	31.8531673	35.1114575	Health Center
090702	31.738673	35.260438	Alshaikh Sa'd Health Clinic
090702	31.9527445	35.1479759	Health Center
090702	31.769634	35.2572728	UNRWA Clinic
090702	31.8895196	35.1679181	Bitunia Health center
090702	31.8505126	35.2298379	Nazzal Health Center
090702	32.0180619	35.3423517	Health Center
090702	31.8997895	35.1966902	Ramallah Healthy Center
090702	31.8697365	35.2261719	Health Center
090702	31.8517802	35.183545	Al Zahra Medical Center
090702	32.0174707	35.3002886	Abu Falah Health Center
090702	31.8507929	35.230956	Al Maqased Charitable Center
090702	31.8583261	35.1346096	Relief Health Center
090702	31.8127218	35.2620024	Al Eman Center
090702	31.8103068	35.2479298	Al Fadel Health Center
090702	31.8669956	35.2258893	Al Rageh Health Center
090702	31.9858004	35.2595189	Selwad Clinic
090702	31.9646501	35.2955416	Health Center
090702	31.8371231	35.1418923	Al Quds Health Center
090702	31.8382798	35.1251633	Al Amal Clinic
090702	31.8213689	35.1518693	Bait Sureek Health Center
090702	31.9516774	35.3023815	Al Teba Clinic
090702	31.8489003	35.2275769	Al Quds Health Center
090702	31.7630325	35.2651298	Al Maqasid Charitable Clinic
090702	31.849759	35.2284237	Al Salam Health Center
090702	31.8586721	35.258804	Jaba' Health Center
090702	31.874141	35.2179976	Al Bean Health Center
090702	31.8091376	35.2489724	Al Jaber Health Center
090702	31.9900925	35.3089219	Kufor Malak Health Center
090702	31.8762187	35.2750436	Mekhmas Health Center
090702	31.9135785	35.2648092	Dair Debwan Health Center
090702	31.8396567	35.1372859	Alqbaibeh Health Center
090702	31.828741	35.2100948	Health Center
090702	31.8515364	35.1128605	Bisan Health Center
090702	31.8527476	35.1848549	Dr.Mohamad Zuher Clinic
090702	31.8755781	35.2173678	Kofor Aqab Health Center
090702	31.7469478	35.2646772	Al Sawahreh Health Center
090702	31.8350081	35.1438078	Al Shifa Health Center
090702	31.8469331	35.2357789	Masqat Health Center
090702	31.9315698	35.2400317	Biteen health center
090702	31.9048281	35.2030705	Medical Relief Optometric Centre
090702	31.8505086	35.2304111	Al Ram Health Center
090702	31.7608604	35.2638643	Medical Center
090702	31.9645953	35.1724065	Abu Shkhadem clinic
090702	31.9187053	35.2217288	Military Midical Services
090702	31.9115937	35.2695148	Al Shefa' Health Center
090702	31.9696195	35.201045	Health center
090702	31.8350872	35.1221491	Qatnnah Health Center
090702	31.8576814	35.1334481	UNRWA Health Center
090702	31.9289637	35.3003625	Ramon Health Center
090702	31.9884287	35.3081217	Health Center
090702	31.8486175	35.1984809	Health Center (Aliyadeh Al Sehheyah)
090702	31.8676698	35.2259862	UNURWA Health Center
090702	32.1402291	34.9984704	Mother Care Center
090702	32.1915377	35.1347429	Lab
090702	32.1637458	34.981096	Medical Clinic
090702	32.1577771	34.9912516	Medical Clinic
090702	32.1918914	35.1564202	Shaher Mansour
090702	32.2157255	35.1705679	Jit Clinic
090702	32.2020277	35.1307277	Hajjah
090702	32.1884369	34.965157	Al-Bashir Lab
090702	31.857349	35.4593917	Al Eslah Health Center
090702	31.8554108	35.4624266	Health Center
090702	31.9462699	35.462963	Alowja Health Center
090702	31.8741072	35.4461445	Ain Alsoltan Health Center
090702	31.8566801	35.4604849	Health Center
090702	31.8401152	35.4388607	Health Care Union
090702	32.1135314	35.1937063	Health Clinic
090702	32.1339101	35.1381422	Deir Istiya Health Center
090702	32.0975201	35.0436152	Al Aqsa Lab
090702	32.0700303	35.0799475	Health Clinic
090702	32.1072444	35.0506651	Health Center
090702	32.1143443	35.0826941	Beddia Health Center
090702	32.1138766	35.1400809	Haris Medical Center
090702	32.1298238	35.1429937	Health Clinic
090702	32.0650232	35.0262285	Dair Al Balout Clinic
090702	32.06577	35.022938	Dair Al Balout Clinic
090702	32.1052347	35.232776	Dr Mohamed Amen Clinic
090702	32.2595311	35.133504	Health Clinic
090702	32.3257217	35.0550458	Health Clinic
090702	32.3382081	35.0359348	Medical Clinic
090702	32.430844	35.0851636	Qufeen Medical Center
090702	32.287991	35.1495435	Health Center
090702	32.224942	35.0466508	Kufr Jammal Clinic
090702	32.2617374	35.110203	Medical Clinic
090702	32.2443619	35.0638267	Medical Clinic
090702	32.3069094	35.1183165	Masqat Healt Center
090702	32.4163458	35.0578947	Medical Clinic
090702	32.3067599	35.1142942	Nasir Shadid
090702	32.2871302	35.0253646	Clinic
090702	32.3334442	35.0357683	Medical Clinic
090702	32.4098947	35.074164	Baqa Medical Clinic
090702	32.3848496	35.0492983	Zita Clinic
090702	32.3524007	35.0769575	Medical Clinic
090703	49.5417856	17.4265956	
090703	48.7199667	9.1159496	Dr. Gesine Kondruss
090703	48.2258923	16.9919474	Zdravotné stredisko VW
090703	38.9939079	-9.3952169	Centro de Saúde de Santo Isidoro
090703	46.9080793	6.3513984	Laboratoire d'analyses médicales
090704	51.9430255	7.1717561	Glados
090704	51.5299247	-0.038768	Grove Road Surgery
090704	51.9453544	7.1694086	Philipp
090704	51.9439651	7.1702611	Göb, Kemper, Riedasch, Schöder
090704	48.7324633	9.6423995	Rogg Frauenarzt
090704	48.1547649	15.4104342	Kern
090704	52.9725943	-2.1569687	Blurton Health Centre
090704	49.1880639	15.2846432	
090704	51.9424323	7.1685917	Wagner
090704	50.964141	6.463806	Praxis Dr. Holz
090704	48.4721184	9.9393183	Arzt
090704	52.6342357	-1.1136234	Highfields Health Centre
090705	46.047986	11.1309554	Ambulatorio
090706	54.6520034	-5.6322169	
090706	51.9038824	0.1944623	Stansted Community Clinic
090706	48.7360365	9.6502886	Dr. Berg Kinderarzt
090707	39.3059637	-84.2782164	Group Health Associates
090707	13.1817477	-59.6382085	Sandy Crest Medical Centre
090707	52.710807	-2.0021108	Hednesford Valley Health Centre
090708	49.5671069	9.7008179	Dr. Hemmrich, Allgemeinmedizinh
090708	37.6891951	26.9415057	
090708	7.073977	125.546783	Doctor Stephen Children's Clinic
090708	48.9330091	8.9585536	
090708	36.7820949	27.1421651	
090708	36.7829439	27.1425065	
090708	36.7832893	27.1431892	
090708	36.7835914	27.143836	
090709	48.5609437	8.8482998	
090709	51.3992096	-0.0411656	Eden Park Surgery
090709	51.0885896	12.3066588	
090709	54.9148577	26.4463852	
090710	49.7341415	10.1936095	Massagepraxis Jochen Raacke
090711	-27.5091467	153.0520067	Dr. Len E. Yared Obstetrician and Gynecologist
090711	-27.5072981	153.0508858	Podiatry
090711	-27.5117013	153.0528348	Greenslopes Medical Centre
090711	-4.3229499	15.277684	Clinique Vésale
090711	54.7206202	-1.4803911	Kelloe Doctor's Surgery
090712	49.3014748	10.5311052	Dr. Steinberg
090713	44.713497	11.3080898	
090713	59.9072298	10.6211606	Fornebu legesenter
090713	51.82922	12.23518	Dr. Rolf Zimmermann
090713	45.4571669	-73.4789825	Centre Médical Mira
090714	54.046366	9.4862864	Arztpraxis
090715	51.4277293	0.0422116	Doctor's Surgery
090715	51.7272468	10.2563534	FIX ME Arzt
090715	50.7841599	8.8269279	
090715	-25.4762348	30.9780533	Nelmed Medicross Medical Centre
090715	60.4525936	22.2661394	Apex Fysioterapia
090716	47.6536973	8.571762	Dr.Dietermann
090716	45.8386878	8.7473683	USSL n°1
090716	50.0733626	14.8527091	
090717	48.2719081	12.252966	Karl Dürner
090717	51.9866536	10.889133	Pahl, Kinderärztin
090717	48.1784053	11.2529059	Dr. med. Fleischer
090717	34.100835	-117.5688917	Kaiser Permanente Racho Cucamonga Medical Offices
090718	56.6915063	16.3404507	Berga Vårdcentral
090718	49.2098941	9.2501977	Dr. Wacker
090719	13.0266603	77.6394966	Susruta Nursing Home
090720	26.3110504	50.1357628	Outpatient Clinic
090720	26.3097425	50.1355311	Specialty Clinics
090720	46.618274	13.8331052	Dr. Heindl
090720	49.8819931	12.9748045	Vyšetřovací ústav
090720	51.2354734	-0.7562297	Southlea Surgery
090720	53.7951018	-1.6613817	Robin Lane Medical Centre
090721	42.7727248	-0.3298508	Consultorio Médico
090721	44.2419062	-76.5157196	Maple Family Health Team
090722	46.53781	15.3845927	Zdravstveni dom Lovrenc na Pohorju
090722	48.1843178	11.254454	Dr. Rahn
090722	-35.1186669	147.3687011	Medical Centre
090722	51.5995027	-3.8138917	Sandfields Clinic
090722	48.0880279	11.5202962	Thielemann
090723	59.4027109	17.9461914	
090723	51.6030321	-3.8222672	Sandfields Medical Centre
090723	53.5480941	-1.5640817	Silkstone Health Centre
090723	39.8867403	-0.0904418	Centro de Salud de Burriana
090724	55.7756261	9.3297012	Doktor
090724	52.4739092	10.6793424	Arztpraxis Frosch
090724	-32.8864347	151.7194855	
090724	51.5569373	11.4891464	
090724	51.5570443	11.489462	
090724	51.242632	-1.1733021	Oakley Surgery
090725	51.7313257	8.5584039	Allgemeiner Hausarzt
090725	39.5452888	-0.3857424	Centro de Salud
090726	50.547199	8.1972167	Arzt
090726	-32.8973761	151.7363137	
090726	52.2626576	21.0229262	Dentysta
090726	53.8004064	-1.6880828	Hillfoot Surgery
090726	41.2123216	16.5531364	Infermeria
090727	51.5743587	0.2030603	
090727	52.5905813	-0.2704762	Westwood Clinic
090727	47.8718283	18.1901363	
090727	39.9026559	32.8615332	Dr. Şahap Atik
090727	51.5199046	-0.0571952	
090727	48.2104108	19.3520465	Ambulancie
090727	50.8132053	8.6895301	
090727	51.3533719	-0.1336673	Manor Practice
090727	53.6858079	-1.5184653	
090727	49.0479134	19.6789743	zubná ambulancia
090727	49.510917	11.2759136	
090727	51.1739508	-0.6462191	
090727	51.5652088	-0.3559498	
090727	51.9932752	-2.1510349	
090727	48.822198	11.4145524	Praxis Dr. Boehm
090727	56.4838096	9.144941	
090727	48.4613339	-123.2973754	Amanda Weinerman Optometry Clinic
090727	53.3527601	-3.1178777	
090727	53.0644647	8.195282	Eumotal-Institut
090727	51.1889648	-114.4673002	
090727	51.1879158	-114.4631889	
090727	51.307088	-0.1191587	
090727	49.7325928	10.5988894	Praxisgemeinschaft Burghaslach
090727	18.714455	-68.4527962	
090727	50.7526975	12.1639024	
090727	36.8413314	-121.5352065	Hazel Hawkins Clinic
090727	54.4829498	-3.5284828	
090727	-34.9290177	138.5697027	
090727	48.1029709	8.4236499	
090727	52.4501437	10.848395	
090727	52.3889458	0.1236057	
090727	40.7846715	-3.6954569	
090727	55.8571135	-3.1764394	Roslin Medical Practice
090727	49.8694029	8.6416142	
090727	52.1272819	-0.2120069	
090727	43.8341552	5.2036837	
090727	59.346684	18.0716319	SLM Kliniken
090727	60.2030579	24.6572961	Espoon City Hammaskeskus
090727	53.5745748	9.9583214	Dr. Hella v. Campenhausen
090727	51.4773626	-0.072704	
090727	59.7641521	10.8515303	Bøleråsen Legesenter
090727	52.1456525	-0.482482	Priory medical centre
090727	52.1403265	-0.4752866	Lansdowne Surgery
090727	48.167592	11.4702192	Dr. med. Claudia Brand u. Dr. med. Giselher Brand
090727	48.1850039	8.9676897	
090727	50.5986805	-3.4447088	Warren Road Surgery
090727	51.4612667	-0.2160713	
090727	53.327859	-2.2325861	Hawthorn Lane Surgery
090727	52.1434544	-0.4795442	Linden Road Surgery
090728	53.7722033	-1.5318192	Arthington Medical Centre
090728	33.0998411	-96.1184655	
090729	48.5762678	10.4927203	Praxis für Physiologische Therapie Dr. Wolfgang Gärtner
090729	48.5760499	10.4796573	Krankengymnastik Annette Strobel
090729	48.578857	10.491632	Facharzt für innere Krankheiten Dr. med. Manfred Ortolf, Prof. Dr. Heinrich Kuen
090729	55.7581088	10.2787517	
090730	45.9764877	-66.5925325	Gibson Health Clinic
090730	51.6366986	-0.4814798	Gade Surgery
090730	32.2604408	35.1973847	Dr Jamil
090730	32.222535	35.2627939	Abu Khalaf Lab
090730	32.2195923	35.2657767	Dr. Salah
090730	31.8927109	35.1691226	Hamarsheh Health Center
090730	32.2626956	35.1288097	Bait Lid Lab
090730	52.5936919	-2.1025559	Tudor Road Surgery
090730	52.1483382	7.3383771	Dr. Cummert
090730	52.1482501	7.3383563	Dr. Noack
090730	51.0128391	4.8693887	Dr. Kolacny huisartsenpraktijk
090730	54.4485888	9.836406	Dr. Angelika Böger
090801	35.5404785	140.1948336	かたい歯科医院
090801	34.5857379	-94.217035	Southwest Emergency Medical Service
090802	48.7449811	-0.022139	
090802	57.3958722	-5.5035639	Ferguson Medical Centre
090802	43.3684345	-79.731931	Lakeside Clinic
090802	-27.3059971	153.0506851	
090802	51.3580632	-2.9235553	
090802	48.614461	13.4792757	Dr. Lenhart
090802	43.8050096	4.9495991	
090802	43.806273	4.9456766	
090802	44.7717663	14.732721	
090803	50.2018881	6.1020701	Dr. Palm
090803	28.8627344	-13.8271018	
090803	53.9322436	-0.7828177	Pocklington Surgery
090803	52.2725534	-7.9922431	Clogheen Health Centre
090803	28.8572962	-13.8394599	
090803	28.8571922	-13.8392661	
090803	28.8570958	-13.8388387	
090803	50.7324559	-3.515719	Mount Pleasant Health Centre
090804	46.0646087	11.13159	Ambulatori
090804	28.863792	-13.8275384	
090804	28.8579317	-13.8055553	
090804	47.879306	1.8701823	Cabinet médical
090805	46.0449076	11.1296272	Centro Polifunzionale ASL
090805	32.3273708	34.8534293	Clalit Healthcare center
090805	-33.824199	151.2003668	
090805	-27.5142671	153.0311357	Ipswich Road Medical Centre
090805	51.5730558	13.247724	Dr.med. Evelyn Große
090805	23.1378294	-82.34964	Consultorio
090806	52.2400258	21.0878918	Zakład Rehabilitacji
090806	51.2335275	22.5681682	
090806	51.6001065	6.7566732	Dr. med. Gudrun Kuliga, Dr. med Andrea Keferstein
090807	47.6730626	12.0155262	Dr. univ. med. Jürgen Rottmann
090807	48.5213818	15.0841157	Dr. Öhner Allgemeinmedizin
090807	47.7869595	13.0666028	Haus der Schönheit
090807	-1.0747742	-46.9037199	Posto de Saúde
090808	47.654383	-122.4012192	Discovery Wellness
090808	47.6398099	-122.4003536	Unravel Theraputics
090808	40.095857	0.1376084	Centro de Salud de Oropesa del Mar
090808	52.3306053	-2.0552595	New Road Surgery
090809	50.2771738	14.5016864	MUDr. Henrieta Mavrogeni
090809	51.53662	-0.0964775	Prebend Street Surgery
090809	51.9340125	7.1773108	Dr. Drerup Dr. Höing
090809	51.4690126	13.8686804	
090809	48.8678877	15.6204274	Dr. Ulrike Kirchweger
090809	49.1517762	16.4935079	
090809	32.0333687	35.0509264	Leumi
090809	58.152389	8.0576012	Søm Legesenter
090809	51.6003967	-0.1102458	Stuart Crescent Health Centre
090810	51.3973624	-1.2477081	Burdwood Surgery
090810	56.509394	27.3424661	Rēzeknes poliklīnika
090810	52.8860004	-4.4213663	Meddygfa Treflan
090810	53.0702442	8.8878869	
090810	52.7903768	7.244206	
090811	41.6383232	-2.6156868	Centro de Atención Primaria
090811	52.5592086	-3.1480734	Mongomery Surgery
090811	52.1524992	-0.5270083	
090811	57.1677426	-7.3677331	South Uist Medical Centre
090812	53.7905047	-1.8474603	Thornton Medical Centre
090812	57.7735783	13.8271218	
090812	43.6426336	1.5235803	Centre médical
090813	49.653202	9.9473127	
090813	53.5460649	11.500759	
090813	49.7028392	10.2596879	Dr. med. Hopfner
090813	50.784281	7.9963834	Naturheilpraxis Denker
090813	38.1716366	12.7333952	Guardia Medica
090813	41.9254529	-87.6580841	SAGE Medical Group
090814	47.7454871	10.2306653	
090814	44.3081021	4.1239507	
090814	51.5202502	14.7141921	Arztpraxis Dipl. med. Schartel
090815	35.3778333	136.2724931	橋場レディスクリニック
090815	51.8546587	13.708115	Allgemeinarzt Dipl.-Med. Reinhard Lorenz
090815	51.8544373	13.7046817	Allgemeinärzte: Marita Riehm/Peter Röttig/ Dr. med. Bernd Zimmermann
090815	-0.637909	-48.4831692	Posto de Saúde
090815	-26.622353	152.9410109	Medical Centre Nambour
090815	53.3656836	58.5132958	Бабка-знахарка
090815	52.2806624	0.3940131	Derby Cottage Clinic
090816	43.6295072	13.3947914	AUSL n.7
090816	52.7181935	-2.5303141	Shawbirch Medical Centre
090816	51.3615464	-0.2613715	Ewell Court Clinic
090816	47.3779472	13.1223901	
090816	51.548128	-0.1254105	The Goodinge Group Practice
090816	55.1265693	-1.505676	Plessey Centre
090817	49.0586309	9.898825	Albrecht Kümmerer
090817	44.257026	-76.576279	Kingston Laser Cosmetic Clinic
090817	44.2365262	-76.5666079	Norwest Family Physicians
090817	47.6092608	8.7229422	Zollikofer
090817	42.9308763	1.8534093	Centre Médicale Sud
090817	46.9013352	6.3603439	Hôpital : Espace Seniors
090817	46.9007546	6.3608418	Cabinet infirmier
090818	44.153854	3.0980796	
090818	44.2556543	-76.5714143	
090818	50.2783526	10.9514611	
090818	-27.5229676	153.0473019	Wellers Hill Medical Centre
090818	59.3024155	18.1045511	Mödravårdscentral
090819	53.4404414	-1.3941722	Kimberworth Park Medical Centre
090819	46.6181823	6.4080811	Dr Gabioud
090820	51.5157115	14.7173844	Ambulatorium
090820	51.9794533	21.2178954	Samodzielny Publiczny Zakład Opieki Zdrowotnej
090820	48.5415409	-0.874869	
090821	53.6714839	8.6812353	
090824	48.2772667	16.4006371	Dr. Peter Petridis
090824	49.0044486	9.919713	Dres. Ziegler
090824	51.3089535	0.4408783	GPs Surgery
090824	45.6171031	18.5366838	Ambulanta
090824	50.798139	6.4798574	Gerd Schloemer
090824	45.5845304	11.486854	U.L.S.S. n. 6
090825	51.272476	-1.0447174	Old Basing Health Centre
090825	56.273762	-3.1239869	Ladybank Surgery
090825	47.8091385	10.8949675	
090825	52.6839818	-1.2732484	
090825	52.336257	0.3377029	
090826	46.9133599	6.3420742	Médecine du travail
090826	43.0842926	-1.9136869	
090826	43.4718546	-80.5391746	The Doctor's Office
090827	55.9691511	37.9120187	Поликлиника
090827	46.9072337	6.350846	Centre médico psycho pédagogique
090827	35.2872198	25.4620426	Medical Center
090827	51.4976415	0.3279885	Stifford Clays Health Centre
090828	50.0320742	14.5190566	Poliklinika Litochleby
090828	-26.7427611	150.6258676	
090828	51.1199263	10.5747614	
090828	49.0766849	2.0289615	
090828	51.5099513	-3.1295357	Rumney Medical Practice
090829	51.5946357	-3.7902764	Port Talbot Health Centre
090829	54.1245832	-1.1913143	Millfield Surgery
090829	53.2627889	19.821537	Eskulap NSZOZ
090829	52.88125	20.59849	Medicus
090829	47.003797	12.5392472	
090829	45.7900452	8.6585059	Ambulatorio medico
090829	47.4464698	7.8887735	Dres. med. L. & J. Schaub
090830	51.3341994	-0.2664604	Derby Medical Centre
090830	53.08076	-0.956822	Southwell Medical Centre
090830	55.9042932	-4.1085399	Jamieson Medical Practice
090831	49.4012578	15.6010542	
090831	45.5944799	18.4572594	Dom Zdravlja
090901	34.0833425	-117.5589839	Concentra Urgent Care
090902	43.4036286	-80.3283285	Dr. Bernstein
090902	43.4030347	-80.3273359	Champion Chiropractic
090903	48.2564572	12.0507907	
090903	51.2550164	-0.9412543	Odiham Health Centre
090903	61.4945835	23.8821739	Linnainmaan terveysasema
090905	45.9800346	11.2362299	CasaRossa - ambulatorio - auditorium
090905	41.9631717	21.5592169	Kordis1
090905	41.9801492	21.5279135	Kordis3
090905	51.8008824	12.1796543	Dipl. med. Christiane Schomacker
090905	51.8009065	12.1796745	Physiotherapie Annett Burg
090905	50.7997468	-3.8163537	Bow Medical Practice
090906	56.8156526	24.5934631	Ausmas Balodes ģimenes ārsta doktorāts
090906	48.811363	19.5264459	
090906	47.7570041	7.5727359	Dr. Moser
090906	40.0578373	0.0795022	Consultorio de Desplazados Vilamar
090907	56.818543	24.5899082	Ingas Jasinkevičas ārsta prakse
090907	47.7607693	7.5733837	Dr. Lambach-Lux
090907	49.350926	7.688272	
090907	48.057038	15.1335071	
090907	46.9501923	24.6939015	Dispensar
090907	52.6999559	-2.5144764	Wellington Medical Practice
090907	46.9968536	-1.8155539	
090907	46.9938385	-1.8172653	
090907	46.9935711	-1.8211835	
090907	46.994284	-1.8245041	
090907	52.9114675	-8.5314304	Scarriff Medical Center
090907	37.3735389	-5.9669931	Centro de Salud El Juncal
090908	48.1632228	8.6364545	
090908	52.6301776	-8.6434691	
090908	51.0239983	-0.3518458	
090909	42.243746	13.9359851	Guardia Medica
090909	51.5392651	-2.415248	Courtside Surgery
090909	49.440921	12.9236037	Poliklinika II
090910	63.3914202	10.4302892	Risvollan Legesenter
090910	43.4177138	-80.3079437	Hespeler Physiotherapy
090910	50.827862	-1.703974	Park View Surgery
090910	57.4811322	-4.2366047	Fairfield Medical Practice
090911	52.9799699	-3.3704859	
090911	51.4861601	0.3365297	Balfour Road Surgery
090911	49.6654637	10.0654715	Dr. B. Rudolf
090911	49.6643159	10.0665016	Physiotherapie Binnen/Schraudolph
090912	45.6271257	4.9352974	
090912	45.627822	4.9344305	
090912	50.5520148	-3.5391256	
090912	49.6652032	10.0597528	Naturheilpraxen Kranl / Zenkel
090912	51.2454873	-1.2606356	Overton Surgery
090913	52.5362854	9.3339223	Dr. Kass/Dr. Greb
090914	52.9938207	-6.9642579	The Park Clinic
090914	49.5818238	10.6097006	Kieferorthopädische Fachpraxen Dr. P. Deo, Dr. F. Saad
090915	50.0168161	8.3445992	
090915	51.4075099	-2.6015302	Hartwood Health centre
090915	52.5037074	-2.0580101	Oakham Surgery
090915	53.8346643	-1.7909944	Saltaire Medical Practice
090915	-37.7994967	144.9747971	Victorian Aboriginal Health Service
090916	45.5985012	9.884168	Dottoressa Roble
090916	34.7696298	10.8028097	Généraliste
090916	34.7697743	10.8029905	Généraliste
090916	49.4154925	7.0146348	Dr. med. Hani Hweidi
090916	50.5676729	4.6823889	Chantal Compère
090916	58.4759864	16.3145999	Söderköpings vårdcentral
090916	49.6128886	3.2212719	Cabinet Médical: Sibillat-Bouffanais-Voisin-Lemrabet
090916	49.6115945	3.2198782	Cabinet Médical République: De Muizon-Jullin- Ruffin
090916	49.6125009	3.1938988	Dr Dumortier
090917	51.7277208	10.2549766	
090917	51.2815352	8.8484017	Gemeinschaftspraxis Dr. Gouw und Dr. Ehret
090917	52.327042	8.9074207	Dr. Kühne & ..
090917	52.5122158	-2.0695699	GP Surgery
090918	56.3695972	-3.9777657	Comrie Surgery
090918	50.7477711	10.8100462	Dr. Cornelius
090918	46.9644258	6.8545244	Centre prévention et santé
090918	39.9432673	-0.1076672	Centro Comarcal de la Salud
090919	51.6419204	10.2271752	Witzke
090919	52.1786389	4.5138933	
090919	43.6773041	-79.4449634	St. Clair Medical Centre
090920	46.5354843	15.26726	Zdravstveni dom Radlje ob Dravi, Zdravstvena postaja Ribnica na Pohorju
090920	49.8255521	13.5768849	
090920	50.4816828	10.1871255	Praxis Weber/ Dombrowski
090921	54.7166134	-6.2116745	Antrim Health Centre
090921	40.3505462	-3.7099381	Centro Salud Potes
090921	51.4173809	-0.1365504	The Vale Surgery
090921	51.8667746	-0.1844242	Knebworth Surgery
090921	31.525588	34.4843117	El Nebras Clinic
090921	31.5400693	34.509857	Dental Clinic
090921	31.5310716	34.5024809	Al Rqaeq El Kaeria
090921	31.5465435	34.5069948	Al Nour Specialist Clinic
090921	31.5233408	34.4446137	Gaza Diagnostic Center
090921	31.4992251	34.4590642	Hassona Medical Center
090921	31.508276	34.455329	Doctor Radwan Clinic
090921	31.5135118	34.4457992	
090921	31.5235672	34.4675303	Specialist Surgical Center
090921	31.5080434	34.4591107	Khorsheed Optician
090921	31.5033681	34.4443089	Women Clinic
090921	31.5127274	34.4470401	
090921	31.5072571	34.4605429	Eye Doctor
090921	31.5061024	34.445244	Dr. Zakareya Skaik Clinic
090921	31.5174274	34.4456882	Sick friends
090921	47.994925	18.8630262	
090921	47.1930839	-122.4093123	Anchor Physical Therapy
090921	31.5205684	34.4885657	mohmed abu shbak
090921	31.5465965	34.5069453	Al Nour Specialist Clinic
090921	31.5265731	34.4843672	Al Quds
090921	31.4992171	34.4592092	Hassona Medical Center
090922	-27.4356771	153.5420256	
090922	31.4249069	34.3384252	El Wekala Doctors
090922	31.4181724	34.3488175	Medical Clinic
090922	31.4149833	34.3506323	Medical Clinic
090922	51.1235514	5.3622574	Huisartsenpraktijk 'De Zorgboom'
090922	31.3102336	34.2404439	Tal Alsultan Clinic
090922	31.2964062	34.243634	Emad Zoarob Doctor
090922	31.3442657	34.3046265	Al Yaseen Health Center
090922	31.3352829	34.3061096	Jort Allot Health Center
090923	35.3790408	136.3551913	三浦医院
090923	35.3804455	136.2715779	中西医院
090923	35.3801669	136.2724961	新宅眼科
090924	42.8256734	27.8812899	
090924	50.932412	12.8253346	Dr. Annemarie Meyer
090924	51.5060583	6.912352	allgem.Mediziner
090925	53.1411895	8.1658207	Prochazka / Dörwaldt
090925	-25.3438768	31.1294968	
090925	53.772323	-1.5671293	James Reed House / Beeston Village Medical Centre
090925	40.9838195	-73.9779562	Park Medical Group
090926	51.2029257	-0.6147986	Binscombe Medical Centre
090926	52.2706879	0.1949726	Waterbeach Surgery
090927	51.5656968	0.5068106	Rose Villa Surgery
090927	51.4891988	-0.0967107	Manor Place Surgery
090927	51.0732541	13.007326	
090927	51.072464	13.0241526	
090927	35.7454951	139.8049325	
090927	52.5244906	13.6918405	Ellen Ortmann
090927	52.5227771	13.7099825	Gisela Briesemeister
090927	51.9129501	-0.2061914	
090927	54.7764488	-1.6413465	Millyard House
090928	51.5881744	0.4477498	Noak Bridge Medical Centre
090928	51.573984	0.4421427	Ballards W alk Surgery
090928	48.4683848	2.7044032	
090928	53.4076678	-2.9040067	Oak Vale Medical Centre
090928	53.4112084	-2.9162748	Old Swan Health Centre
090929	42.5036135	14.1649934	Fisioter
090929	48.7493023	-0.0262619	Kinésithérapie
090929	52.1686692	7.5267849	
090929	53.656758	-1.4278234	Crofton Health Centre
090929	52.2112489	-1.0077078	Bugbrooke Medical Practice
090930	51.5297441	6.8922478	
090930	50.1889063	10.3631822	Dres. Drechsel
090930	37.7266765	24.0174383	V. Tsarouchas
090930	47.382604	19.214494	
091002	54.578966	-2.4941738	
091002	45.3983167	11.9477209	Lab 3 Cube
091002	28.480038	34.4911979	Hyperbaric Medical Center
091002	-41.1172368	175.3285808	Featherston Medical Centre
091003	3.6334488	72.9596677	Spa
091003	43.5033556	13.140335	Distretto Sanitario
091004	52.8371701	7.1009677	Arztpraxis Olschewski
091004	53.0653481	19.9098055	Lekarz Rzeczoznawca
091004	34.8582287	-82.3945876	Gorrin's Clinic
091004	43.8249029	1.7246721	
091004	58.4942155	13.1668708	Guldvingens vårdcentral
091005	52.0786098	-0.7294879	Kingfisher Surgery
091005	51.6045691	-0.0685523	Tettenham Health Centre
091005	52.1442556	10.7757924	Dr. med. R. Naumann
091005	45.5840536	17.9498517	
091005	39.8083848	3.1167571	Centro Medico Medinord
091005	52.1825621	0.2179228	Fulbourn Health Centre
091005	47.8607057	12.007638	Dr. med. Hans Novotny
091005	47.862485	12.0068252	Dr. med. E. Edelmann, Dr. med. G. Sträßner, Dr. med. H. Bloching
091005	47.8624505	12.006808	Priv.-Doz. Dr. med. Stephan Orth
091005	47.8628137	12.0052401	Praxisklinik Frank Daudert
091005	47.8641093	12.0084501	Dr. med. Peter Fries
091005	54.1919091	12.14813	Dr. Krempien
091005	54.191874	12.1480957	Dr. Haußwald-Krempien
091005	45.8206412	13.3412021	ASL Bassa Friulana
091006	53.3861898	-2.3536484	Altrincham Medical Practice
091006	51.3466625	14.6848505	DM A.Georgi, Allgemeinmedizin
091007	50.9987388	9.149791	Dr.Döring
091007	46.0249171	16.5540588	dr. Zvjezdana Nervo
091008	41.7225175	8.819673	
091008	55.6091273	-4.4899588	London Road Surgery
091009	51.6951441	-0.1794706	
091009	53.7798359	-0.4158531	Cottingham Medical Centre
091009	52.5813588	1.7253989	
091009	50.9750471	10.3204851	Dr. Sänger
091010	49.4598803	8.1634989	Dr. med. Michael Thyson
091010	49.2048548	16.5985892	Quattromedica
091010	52.4360502	11.9578863	
091010	48.7310379	9.1146644	Dr. Michelfelder
091010	45.1781426	28.802312	Centrul Medical Visa Med
091010	54.6853311	-1.218637	Victoria Road Health Centre & NHS Drop-In Centre
091010	52.7642017	-2.3791931	Wellington Road Surgery
091010	51.2555997	-2.1841745	White Horse Surgery
091010	44.5603977	135.626694	Полликлинника Горьковская
091011	50.200291	8.5817156	
091011	52.2679035	-0.3434018	Great Staughton Surgery
091011	51.430674	0.3474003	The Forge Surgery
091011	48.842657	9.7131389	
091012	52.4546132	-2.1492763	Greenfield Surgery
091012	44.4013829	-76.0186128	
091012	51.4396682	0.3618313	Pelham Medical Practice
091012	36.2233799	27.6093607	
091012	49.0584891	2.0598732	
091012	41.1115335	1.1499303	Centre d'Atenció Primària de Vila-Seca
091013	54.890292	-2.9224675	
091014	51.5146009	-0.0505403	
091014	52.4698121	-2.0848886	Cradley Road Medical Practice
091014	43.6432427	-79.4476727	Family Care Walk-in Clinic
091015	51.2095477	0.7912197	Charing Surgery
091016	44.4256784	12.1901352	Studio Medico
091016	44.4258672	12.1898029	Studio Medico
091016	51.5172677	-3.1902809	
091017	35.3893413	136.2642233	布施クリニック
091017	46.5821923	0.3401489	
091018	51.7751903	-2.3591952	The Surgery
091018	53.2701679	-2.7720433	Heslby Health Centre
091018	52.9504216	-1.1770294	
091018	50.8950631	-1.0168332	Padnell Road Surgery
091020	47.7485791	11.738315	
091020	10.3244929	123.9347944	MetroCebu Oral Rehabilatation Center
091020	-33.9347484	18.4458023	Dr K van der Westhuizen
091021	-37.8514765	144.9917505	High Street Medical Clinic
091021	49.2763655	12.8169572	Praxis Gerhard Gotschy Facharzt für Allgemeinmedizin
091021	49.3091925	12.844137	Kinderarzt Dr.med. Ulrich Gandela
091023	47.448421	19.0366681	Háziorvosi rendelő
091024	46.6000383	14.1735984	Arzt, Dr. Schulz, Privatarzt
091024	45.1359418	5.7709817	Cabinet Médical
091024	55.7964465	37.9517865	Поликлиника ЦРБ №1
091024	51.5381284	-0.9086275	The Hart Surgery
091024	51.5381229	-0.9084427	The Bell Surgery
091025	53.1589994	-2.6655462	Tarporley Health Centre
091025	54.5894578	-5.8440303	Cheryvalley Health Centre
091026	36.8536436	31.0459852	
091026	50.7974613	6.4560184	Praxis Reuter-Stankewitz
091027	39.4302173	-123.8024588	Mendocino Coast Clinic
091027	42.8336793	2.9205426	Cabinet Thibert-Loève
091028	43.3899166	1.6835782	docteur
091028	41.4816856	2.1884494	Ambulatorio de Montcada i Reixac
091028	63.8385116	23.1445025	Kokkolan Lääkärikeskus
091029	51.5325741	9.9278909	
091029	-27.5142179	153.030516	Porter Eye Care
091029	50.0393775	8.3869586	Wernicke, Rogoisch
091029	-22.2947255	166.4417271	CAFAT Receiving
091031	48.1687641	11.713136	Pohl, Daniel, Patrick, Wolfgang
091031	50.8543632	-3.2234934	
091031	53.7528185	-1.6925933	Birkenshaw Health Centre
091031	51.9542725	4.9639619	
091101	50.7433755	7.1769072	Internist
091101	52.00328	20.55653	Przychodnia
091102	48.9846153	12.9875273	Dr. Michael Stern Allgemeinmedizin
091105	48.6851376	9.6316295	Dr. med. Meinhardt
091106	54.320688	13.714579	
091106	49.2580407	14.7214101	Poliklinika
091106	51.1458874	13.5509838	Dr. Rütz
091106	-27.3745973	153.0767737	Banyo Clinic
091107	36.9809017	-3.1555384	Centro de salud
091107	48.5334577	18.0991513	
091107	43.3948635	-79.7105585	
091108	45.7585842	7.0387257	Poliambulatorio ASL Morgex
091108	49.8813706	19.2150434	
091108	53.7552414	-0.3487137	Kingston Medical Centre
091108	50.8621902	8.2010746	Dr. Petri
091108	43.3127507	-1.9807492	Clinica Baviera
091109	51.3534808	6.6465704	Praxis Böhm-Schmitz & Schmitz
091109	51.300863	6.5052041	Praxis Glindmeier
091109	35.4613551	135.396132	指宿医院
091109	52.1646688	8.5449686	Naturheilpraxis
091109	38.3554589	-0.4311056	Centro de Atención a Minusválidos Psíquicos Santa Faz
091110	51.2643127	6.5532183	Praxis Witte
091110	51.2650048	6.5371079	Praxis Vogt
091110	51.9354188	8.8713848	Dr. Hetzer
091110	49.2133649	16.6817069	Poliklinika Horníkova
091111	32.3313982	35.1098218	Bal'a Health Clinic
091111	-37.8342679	144.9721872	Albert Road Clinic
091111	49.3012629	7.3688027	Arno Winter Arzt für Innere Medizin
091111	55.5880931	-4.4897385	Treeswoodhead Clinic
091111	40.209668	0.0292303	Centro de salud de Benlloch
091112	47.1564109	27.5764372	TransmedExpert Medex
091112	53.8638637	-1.9145502	Holycroft Surgery
091113	60.3754301	23.1270039	Salon aluesairaala, Päivystys
091113	60.3754424	23.1296692	Salon aluesairaala, Ensiapu
091113	40.3085244	0.1178526	Centro de salud de Cuevas de Vinromá
091114	44.4213152	12.2043922	SERT Tossicodipendenze
091114	52.6658677	0.1640066	Trinity Surgery
091115	32.33075	34.8585216	Clalit Healthcare
091115	32.3271745	34.8540069	Meuhedet Helthcare
091115	48.6401477	9.6158366	Dr. med. Lang
091115	52.3969923	13.044833	KInderarztpraxis
091115	53.325944	-6.2606277	Doctor Niall M. Joyce
091115	50.8500856	4.3292324	
091115	52.176185	8.542845	Naturheilpraxis
091116	28.0663236	-82.4251605	Childrens Medical Services Building
091116	51.5356955	-0.1009449	St Peters Street Medical Practice
091116	32.3315393	34.8536769	Meuhedet Healthcare
091117	51.5293025	-0.3028624	St Mark's Medical Centre
091117	52.6690885	0.1622878	Clarkson Surgery
091118	51.4207272	-0.1758792	
091118	-41.1170445	174.892939	Whitby Doctors
091118	51.6950781	-9.9570193	Doctor
091118	58.9495957	5.6954734	Tjensvoll Helsestasjon
091119	47.0014455	-2.2471368	Docteurs Guicherd et Bloch
091119	43.5327159	1.2268561	
091119	45.4845349	12.2022007	
091120	47.3865407	1.9542134	Docteur J. Peluau
091120	43.6579868	7.1235619	Laboratoire d'analyse médicale
091120	31.1681163	-81.4064874	Immediate Care
091120	50.7949404	5.7660962	Habets
091121	49.4202894	15.5949797	
091121	46.2375159	0.6898025	Godfroid Jean-Jacques
091121	55.8142716	38.9724441	3 Поликлиника
091121	-37.7321298	145.0253427	Complete Care Medical Centre
091121	51.3822403	-1.3358619	
091121	49.4770363	11.0678673	
091121	50.8050513	-1.9899784	
091121	39.2567859	-84.3423536	
091121	49.6802691	11.4139945	
091122	55.693914	39.3292686	Савинская амбулатория
091122	47.0222517	7.4993571	Franz Seong-Chan Kim
091122	34.7051833	33.0298052	Dr M Karaiskakis
091122	48.0147383	16.290129	Allgemein medizin
091122	48.7468642	-0.5420008	Centre Médico-Psychologique
091122	48.7469172	-0.5415503	
091122	47.294488	5.001517	Institut Médico-Pédagogique
091123	47.5427079	-1.8845059	
091123	50.29309	21.43467	prywatne gabinety lekarskie
091123	35.6385793	139.6001567	成城墨岡クリニック
091123	35.6797255	139.6276943	浜田山診療所
091123	52.173942	10.5954726	Praxis für Logopädie Nitzschner
091123	48.5929596	18.13614	Zdravotné stredisko
091123	53.6505143	-2.6358834	Regent House Surgery
091123	53.6528481	-2.635701	Chorley Health Centre
091123	48.0079706	16.2320949	Hlavicka - Internist
091123	52.4296724	-1.9349576	
091123	38.3966127	-0.5805277	Consultorio Médico
091123	48.8297637	12.7248195	Dr. Krauss
091124	45.3570949	-73.7164316	Clinique Medical Dulude
091125	47.5410008	-1.8866678	
091125	51.8933433	-0.720771	Wing Community Health Clinic
091125	51.8978321	-0.7194084	
091125	47.2954642	8.2427058	Dr.med Tatjana Pance
091126	34.7895482	-82.3141283	Sargent Chiropractic Clinic
091126	-31.7717458	115.7891463	
091127	50.1015716	8.2659459	Dr. B. Kölsch
091127	34.8484616	-82.392345	Piedmont Chiropractic Center
091127	34.8996074	-82.3371865	Iron Disorders Institute
091127	48.6522961	9.6738081	Dr. med. Stavenow
091128	51.4021716	6.7626129	Praxis Schatten
091128	52.0799362	21.1155995	
091128	51.8895541	11.0538414	Frauenärztin
091128	51.7289062	10.2481655	Böttger, Küssner
091129	-22.2327693	166.4649775	CAFAT Rivière Salée
091129	63.0980758	21.6164166	Suomen Terveystalo
091130	47.4058434	8.3934212	Dr. med. Walter Wimmersberger
091201	41.4038409	-75.6505835	Mulberry Medical Center
091201	53.7432025	-0.4241291	Anlaby Clinic
091201	53.3956914	-6.4387412	Meridian Clinic
091201	13.0926372	-86.3528345	Centro de Salude
091202	2.1516276	102.7728586	Klinik Ho
091202	2.1736523	102.7182332	Klinik Ladang Lanadron
091202	2.1689123	102.7565995	Klinik Desa
091202	2.4552094	101.8573	Klinik Desa
091202	2.4624901	101.8544423	Klinik Mesra
091202	50.08453	20.84565	Publiczny Samodzielny Ośrodek Zdrowia
091202	2.1107614	102.7558732	Klinik Desa
091202	51.173074	-0.165839	Woodside Medical Practice
091202	51.174595	-0.171021	
091202	2.9771224	101.7224236	
091202	2.9774785	101.7220627	
091202	2.9768778	101.7216244	
091202	2.977367	101.7209542	
091202	2.9775429	101.7207995	
091202	2.9780878	101.7214182	
091203	48.1591648	12.0044721	Drs S. Sickert
091203	53.1794237	-4.0595509	Bethesda Health Centre
091203	31.3343351	-92.3994715	Cenla Chiropractic
091203	62.0172635	-6.7761935	
091205	35.6985874	139.6345174	中村外科医院
091205	49.4724233	11.1126058	Dr. med. H.-Chr. Krause
091205	51.55521	-0.052726	Athena Medical Centre
091206	12.94317	80.133977	Balaji scan
091206	49.4689136	11.0270307	Dr. Thias und Dr. Kammerer
091207	53.6873293	-2.6395859	Whittle Surgery
091207	42.1962243	-70.9430118	Weymouth Health Care Center
091208	51.3634222	6.4152134	Praxis Wotke & Gebhard-Frickel
091208	38.3521418	-97.2044575	Greene Vision
091208	45.0098855	9.2052019	Ambulatorio Comunale
091209	41.877342	-93.677871	Slater Medical Clinic
091209	52.8042805	-8.4480638	Dr. Bernie Lynch
091209	-37.8842009	145.1465387	Waverley Consulting Suites
091209	-37.8847259	145.1466996	Obstetricians & Gynaecologists
091209	34.054141	-117.188036	
091209	-40.1213362	148.0177491	Flinders Island Multipurpose Centre
091209	48.5709849	2.3589921	
091209	35.6450984	139.6224954	桜丘クリニック
091209	52.2142287	7.0061465	Dr. med. Andreas Binder
091209	52.8335368	10.0893576	C. Burmester
091210	34.0343372	-117.0672721	Beaver Medical Group
091210	50.00828	20.91915	Miejska Przychodnia Lekarska Nr 1 NZOZ
091210	-27.5050448	153.0617407	
091210	53.5201944	12.6852947	
091210	53.8259566	-0.9609664	The Branch Surgery of Escrick
091211	-37.9673592	145.0733203	
091211	28.3983123	-13.8581163	Centro de especialidades medicas
091212	35.7616744	139.6674167	くるみ整骨院
091212	51.6631646	6.6406331	
091212	52.4332875	13.5580809	Ärztehaus
091213	38.3461809	-0.4897635	Instituto Auditivo GAES
091213	38.3465193	-0.4898295	Clínica Ortopedia
091213	52.4036536	13.0485639	Privat-Praxis Physiotherapie
091214	51.9587241	12.8813853	Zweigpraxis d. Gemeinschaftspr. Dr. Kubau & Dr. Wehner
091214	45.8881525	-66.6851075	
091214	14.6244723	121.0519902	Nativity Clinic and Lying-in
091214	46.992846	6.9258725	Mazzucco pédiatre
091214	52.3277375	-0.0731324	Northcote House Surgery
091214	40.0730737	-0.211246	Centro de salud de Alcora
091216	51.6027376	9.9882132	Arzt
091216	53.6700647	-2.6766429	
091217	-37.8769372	145.1503522	Coleman Parade Medical Centre
091217	47.1718709	8.091573	Dr. Uhl
091217	51.2717926	8.8714182	Chirurg Lamprousis
091217	-37.8770388	145.1267411	Mount Waverley Clinic
091217	59.1211661	37.9659438	Станция Скорой помощи
091218	51.2216206	-0.2829043	
091219	-35.1853074	149.137132	Gungahlin General Practice
091219	40.0543094	-75.186519	Rhino Chiropractic
091219	40.0595199	-75.1902902	Eye Institute of Pennsylvania
091219	43.8952216	-0.5030752	Cabinet Médical
091219	-29.5061626	30.2297458	Howick West Clinic
091219	43.4079053	25.8808742	здравна служба
091220	55.7904396	38.9331422	4 Поликлиника
091220	43.8886018	-0.4643106	
091220	51.2732603	8.8699335	Gemeinschaftspraxis Dr. Mahal u. Dr. Moritz
091221	51.9463695	7.168196	Lux, Götz-Wessels, Horn, Jung
091221	62.107921	-6.7235109	Læknamiðstøðin
091221	53.6855962	12.0926691	Arzt für Allgemeinmedizin
091222	35.6929412	139.6356133	たけうち内科
091222	35.4790226	139.4030228	あいる整骨院
091222	35.4780528	139.3995092	井上外科整形外科
091222	51.9074025	-0.206033	King George Surgery
091222	45.6092312	-73.5277885	
091223	51.4538718	-2.1252583	
091223	50.7030369	-3.2280212	
091223	53.7746551	-1.0805681	Beech Tree Surgery
091223	35.6694474	139.62369	元谷整形外科
091223	65.8467796	24.1496901	Terveystalo
091223	51.4399582	7.6535805	Gemeinschaftspraxis Hennen
091223	51.5399544	0.1573507	
091223	51.7140096	-1.9677773	St Peter's Surgery
091223	45.7792083	4.7932544	Faudot Patrick
091223	35.5995075	139.4932637	平井内科クリニック
091223	52.023666	-0.734963	Netherfield Surgery
091223	59.4752416	17.9136036	Rotebro vårdcentral
091223	45.5502834	-73.8932509	
091224	44.4129824	12.1865217	Obitorio
091224	48.5620819	19.4178481	Zdravotnicke centrum
091225	51.2695947	0.4815879	The Pagoda
091225	61.063833	24.406003	Doctor
091225	35.6529767	139.6511972	中田小児科クリニック
091225	35.6420317	139.5980844	とよしまクリニック
091225	42.1195082	-72.7560037	Medical Office Building
091226	45.1577453	5.7322083	
091226	43.8832963	-0.4893911	Kinésithérapeuthe
091227	51.7678452	-1.1963403	Barton Surgery
091227	44.4118331	12.1852201	CMP
091227	51.3592288	12.3718262	Dr. Wachsmuth - Schönheitschirurg
091227	44.4145493	12.1957604	Santa Teresa
091227	51.8670741	12.5886661	
091227	36.9749861	-122.0289901	Women's Health Center
091227	55.8112443	38.9991284	
091227	59.1361044	37.8754977	Поликлинника ОАО Северсталь
091228	47.5439194	-1.8870913	
091228	45.4193887	4.4198451	
091228	35.2972289	136.7763849	いつき病院
091228	50.0271193	9.3600967	Dr.-med. Kerstin-Christine Dinkel
091228	35.6751872	139.6424969	永福町天谷総合医院 (Eifuku-cho Amaya Medical Center)
091228	35.6728144	139.6382268	滝澤医院
091228	35.6808529	139.6267519	小林整形外科医院
091229	47.5419512	-1.8884654	Laurence FRANCHETTE - Masseur Kinésithérapeute
091229	47.5419835	-1.8884908	Paul DANIEL - Masseur Kinésithérapeute
091229	52.1463898	4.39931	Bronovo Gezondheidscentrum Wassenaar
091229	52.3547008	0.0341098	Church Street Helath Centre Earith Branch Surgery
091230	0.3164683	32.6462776	MB Medical Clinic with Lab Services
091230	0.3216761	32.6356162	
091230	0.3217169	32.6357344	Hope Day Clinic
091230	43.6818336	11.5321098	Centro medico polifunzionale
091230	45.3985257	-73.5272788	
091230	45.3570664	-73.7161406	
091230	45.3584372	-73.714999	
091231	60.8084967	23.771522	Tammelan terveyskeskus
091231	47.1700399	27.5796309	Recuperare Medicală
091231	47.1696989	27.5800439	Laborator psihologic
091231	48.4540268	15.0393295	
091231	55.6882094	37.6021671	Семейный доктор №6
091231	43.9635192	11.1245471	Asl 4
100101	51.9427135	7.1685933	Terlinde
100101	51.9446367	7.1634433	Dr. Haase
100101	51.9441351	7.166271	Nippold
100101	51.9421478	7.1666948	Kauschke
100101	47.1673207	27.5737541	Cabinet stomatologic
100101	39.9628451	-0.2680478	Centro de Salud de Onda
100102	51.947261	7.1684815	Micke
100102	51.9473309	7.1685854	Hülsmann
100102	55.8110779	38.9996939	1 Поликлиника
100102	49.1753609	9.5050131	Dr. med. Norbert Kichenbauer
100102	50.7388614	-3.9975241	Okehampton Medical Centre
100102	49.9576337	10.8744284	Facharzt für Allgemeinmedizin Klaus Gräf
100103	51.1053819	5.5563129	Raes-Roex
100103	51.0928927	8.9328915	
100103	50.4219945	10.9078224	
100103	50.4278129	10.8998965	Armann, Otto Dr. med.
100103	-5.8278188	-35.2175579	Dr. Scholl
100103	51.5335532	10.4121074	
100103	51.5335196	10.4124606	
100103	38.3705125	-0.4167023	Clínica Costa Blanca
100103	53.256016	-1.448025	Newbold Surgery
100104	48.3895741	9.1855708	Drs. Werner / Lang / Letsche Allgemeinmedizin
100104	-37.9003423	145.1439384	
100104	57.7260984	13.0038351	Brämhults Vårdcentral
100104	35.6610835	139.6707324	池ノ上産婦人科
100104	0.3345231	32.6328084	
100105	49.4715372	11.4011387	
100105	49.9994835	10.1965637	
100105	46.6086391	14.4753609	Dr. Kurt Ott
100105	46.6131219	14.4660499	Dr. Robert Sucher
100105	0.3347955	32.6314365	Zion Medical Clinic
100105	0.3346106	32.6297503	
100105	0.334006	32.6285424	Maternity Clinic
100105	0.3340581	32.6277266	
100105	0.3335014	32.6264578	
100105	0.3333911	32.6258304	Namboza Family Clinic
100105	0.3331074	32.6246501	
100105	48.3743769	17.0130832	
100106	0.3508204	32.645776	
100106	0.3491765	32.6462495	
100106	0.3434238	32.6456213	Endwario
100106	0.3414356	32.6419972	
100106	0.3259768	32.6373315	
100106	32.8602762	-97.3211861	Mihills-Web Primary Care Physician
100106	0.3142449	32.6149937	
100106	0.3125944	32.6074933	
100106	0.3040601	32.6145998	
100106	53.6493729	10.1043178	Naturheilpraxis Peer Franke
100107	48.4053038	13.3163507	Dr. Sosnowski jun. (Allgemeinmedizin)
100107	0.2999694	32.619937	Community Based Clinic - Uganda
100107	51.8574045	0.4379348	Felsted Surgery
100107	3.058532	101.506388	Klinik Koh
100107	-5.8625178	-35.1906026	Dr. School
100107	0.2875197	32.6329348	Maranatha Clinic
100107	0.287775	32.6067673	
100107	0.2884647	32.6065837	
100107	45.7731339	11.457836	Ambulatorio
100107	34.03447	-118.1615248	Edward R. Roybal Comprehensive Health Center
100108	-37.8803137	145.1465163	
100108	0.2868745	32.6076761	Hope Clinc
100108	0.2891918	32.6063264	
100108	0.2926526	32.6054812	
100108	44.6771594	8.6068559	Ambulatori medico
100108	0.3131446	32.605786	
100108	0.3135488	32.63577	Mirembe Clinic & Maternity
100108	0.314495	32.6361158	Family Care Clinic
100108	0.3159922	32.6329674	
100108	-34.9123239	138.5132615	Medical Clinic
100108	-34.9267586	138.5171605	Fulham Medical Clinic
100108	50.2451092	8.4310824	
100108	48.2203034	-1.7544143	Maison médicale
100108	51.6325157	-3.8206466	Briton Ferry Health Centre
100109	35.6688259	139.6598792	代田橋中央診療所
100109	28.1695424	-14.2229019	
100109	0.3435778	32.5904696	The Kadiac - Kampala Diabetes Centre
100109	0.3438744	32.5911723	
100109	-27.4918768	152.9817946	
100110	46.6183884	0.0758289	Docteur Ounda Meybi Jourdain
100110	-37.8901671	145.1445671	Waverley Family Healthcare
100110	35.6359644	139.588477	赤堀医院
100110	35.6278486	139.5742631	いずみたまがわ
100110	35.6266102	139.5751858	あゆみ接骨院
100110	0.3524311	32.5962671	
100110	0.3513244	32.5979152	
100110	0.3500858	32.5983346	Anoshu Clinic
100110	46.3167493	-0.5023809	Dr Grellet
100110	0.3040863	32.6446032	Abba Medical & Dental Clinic
100110	0.3036371	32.6475336	
100110	0.3022239	32.6475698	St. Francis Domiciliary Center
100110	0.3021605	32.646329	Keb Mirembe Clinic
100110	0.3020639	32.6444402	BR Healthcare Clinic
100110	0.3079575	32.6407141	Capital Medical Clinic
100110	47.0130318	10.2948077	
100110	53.6545295	10.1015693	Allgemeinmedizin Jürgen Maßmann
100111	50.8725217	4.7025569	Van 't Sestich
100111	35.60928	139.5172938	よしだクリニック
100111	50.419534	9.5643585	Arztpraxis
100111	47.5235589	-3.1339891	Pignon
100112	32.3271544	34.8548203	Macabi Healthcare center
100112	58.9526629	5.6833062	Madlakrossen Legesenter
100112	51.4264622	0.0128855	Downham Family Medical Practice
100112	51.1503434	8.2849658	Dipl.-Med. Andreas Kowarz
100112	42.6575805	21.1562458	Kirurgjia
100112	38.3832287	-0.5023676	Consultorio Médico
100113	34.6815878	33.0344751	
100113	49.6771447	18.3423271	
100113	0.3108178	32.6374997	ProFam - The Family Clinic
100113	0.3089769	32.634309	Polah Medical Centre
100113	0.310718	32.6343533	Rwambuga Clinic & Maternity
100113	0.311942	32.6344461	Trinity Medical Centre
100113	46.3679003	11.0355472	
100114	52.2889343	-0.0031164	The Surgery
100114	-43.5532438	172.6639481	Opawa Surgery
100114	47.9939417	7.8367383	Eva Wörner
100114	40.6263914	-4.2338126	
100115	34.0526737	-118.2385718	VA Outpatient Clinic
100116	51.5250145	-0.7198115	Medical Centre
100116	41.6525653	-0.8969785	Centro Médico Parque Roma
100116	48.1948434	0.8942703	
100116	60.4571146	22.2694211	Terveystalo
100116	47.1359392	27.5714699	Centrul Medical Cardiomed
100117	47.9419946	17.0633557	Dr. Margareta Schmidt-Orban
100117	-27.3719575	152.8865049	
100117	-27.3697217	152.8869021	Samford Valley Medical Centre
100117	35.5804611	139.4960966	三輪診療所
100117	35.582047	139.4932669	下地接骨院
100117	35.5828695	139.4869344	後藤医院
100117	0.3408871	32.5858643	Uganda Martyrs Clinic
100117	0.3423924	32.5878029	Royal Medical Care
100117	51.1614991	4.4707758	Groepspraktijk
100118	0.2993912	32.6053064	Chinese Medical Centre
100118	0.3042397	32.601676	
100118	38.3912766	-0.5051223	Fisiología Articular Sol y Luz
100118	0.3105073	32.5920014	
100118	0.3082209	32.5968856	The Herbal Research Clinic
100118	48.1433436	10.255725	Turinsky Edgar
100118	0.3209442	32.6448037	Maawa Clinic
100118	0.3186746	32.646452	St. Rosemary Clinic - Mutungo
100119	51.9699675	8.7106373	
100119	51.0213642	4.0025204	Vander Haegen
100119	-33.2840336	19.1442643	
100119	-18.9095505	47.5203163	
100120	51.1499606	4.4557066	B. Janssens
100120	51.549897	-0.196287	Solent Road Health Centre
100120	52.560134	-2.152003	Penn Manor Surgery
100121	45.4787902	3.7294642	Docteur Franck Perrier
100121	45.4794584	3.7294986	Docteur Nourisson
100121	52.4974391	6.9639577	Dr. Dagmar Bosink / Dr. Elke Landefeld
100121	52.5469529	-1.8939101	Oscott Clinic
100122	51.3568755	-1.145547	Holmwood Health Centre
100123	61.6418979	26.7931672	Hirvensalmen terveysasema
100123	50.5109978	8.7294537	Karla Sell und Ingrid Bacher-Zeller
100123	54.7957617	-1.5903158	Framwellgate Moor Clinic
100123	54.7954798	-1.5900835	Dunelm Medical Practice
100123	55.6439594	37.7405735	Молочн.-раздаточный пункт
100123	51.1697181	4.4444898	Eddy De Prins
100123	43.3070688	-2.3891289	Mutrikuko Osasun Zentroa - Anbulategia
100123	55.1573549	82.9542277	
100124	34.6808808	33.0353226	George Midas Fertility House
100124	34.6877884	33.0349285	Dr Charis Mavros, Pediatrician
100124	55.7658968	37.4128294	Клиника "Новый Взгляд"
100124	50.7485358	13.0784969	Ärztehaus
100124	51.5380382	-0.5219693	Iver Heath Doctor's Surgery
100125	48.7469664	21.2456998	V-vital, s.r.o. - ambulancia všeobecného lekára pre dospelých
100125	47.8097503	13.7718429	Dr. Farnholz-Felgel
100125	53.8380538	-3.0521436	North Shore Surgery (Holmfield Road)
100125	54.0931876	12.1444536	Ästhetikklinik Dr. Weber
100125	10.3952568	-75.4740995	Clinica Laura Carolina
100125	41.2565451	13.5972314	Servizi ASL
100126	-38.1725047	144.323772	The Highton Clinic
