last_edit_date	latitude	longitude	name
070221	40.4227323	-3.7068726	
070222	63.4122707	10.8033734	
070302	40.433807	-3.6046606	
070304	-25.6761094	28.2259256	Sinoville Police Department
070308	51.7702884	-0.7476245	
070507	55.7499947	-4.9362904	
070518	50.7509043	-1.9818781	Gravel Hill
070608	-1.3223442	36.7064119	Karen Police Station
070611	-1.2909894	36.8205158	Parliament Police Station
070614	51.5086873	0.2833668	South Ockendon Police Station
070615	-1.265224	36.8119614	Parklands Police Station
070617	47.5227475	-0.6101617	
070620	-1.2917949	36.795069	Kilimani Divisional Police Station
070620	-1.3345859	36.9263433	JKIA Police Station
070702	48.9885176	8.3787506	Polizeiposten Beiertheim-Bulach
070706	51.4258933	-2.5914501	Broadbury Road Police Station
070709	47.8712674	18.1967327	
070710	-5.9244946	39.3001147	
070710	-6.0427361	39.2283477	
070721	-6.9157412	107.6311105	Polres Bandung Tengah
070729	53.4080603	-2.1527899	
070812	52.126739	0.1683122	
070814	44.1526166	-79.8660552	
070825	54.9319143	-3.8254606	Dalbeattie Police Station
070907	51.6058735	0.2245094	
070911	51.4793536	0.3219152	Grays Police Station
070916	-31.982805	115.7832455	Claremont Police Station
070916	-32.0005778	115.7601044	Cottesloe Police Station
070920	48.2873489	17.2732308	
070924	-26.049615	31.0169607	
071002	51.5245212	0.4457362	Corringham Police Station
071012	41.024603	-76.3449208	
071024	52.7697985	1.5227949	
071030	59.2148251	10.9382249	
071104	34.0557093	-117.1861625	
071109	-1.288501	36.8356843	Muthurua Police Station
071110	39.4736505	-0.3638481	
071110	5.5707446	-0.1804596	Cantonments Police Station
071110	43.6268915	3.8755487	
071111	53.3748567	-3.0180732	
071114	51.3544351	-1.1414055	
071116	-33.2733227	115.7344421	
071118	5.606237	-0.1772318	Airport Police Station
071123	47.388264	8.5411723	Kreiswache 6
071124	51.4215911	-0.1599623	
071124	50.1371121	14.515663	
071125	51.6027576	5.3223035	
071129	38.7882506	30.4677135	Arama Kurtarma
071203	64.2210147	27.7245479	
071203	54.5901579	-5.902643	
071214	55.8060238	-4.2934391	
071214	60.6365884	25.319179	
071219	48.8979894	2.2385197	Police municipale
071219	50.7932552	0.0500511	
071220	-41.1345178	174.8389111	
071223	52.4778303	-1.8508151	
071223	41.0046761	-76.45349	
071227	41.3764175	2.1712408	Comissaria Mossos d'Esquadra
071228	48.9878648	22.1516314	
071229	45.280522	-75.7614738	Barrhaven Community Police Centre
071230	58.3401003	8.593361	
080101	-35.0664204	138.861016	
080103	48.891267	2.2422257	Police
080103	53.6730941	17.362298	
080106	53.7783616	-2.6974448	Fulwood Police Station
080106	50.8541666	14.8439716	
080106	17.1126781	-61.8491377	
080106	44.7687131	-63.6949146	
080108	-29.7839004	30.8279052	
080112	35.150691	33.3475635	
080123	-16.6877607	-179.8808154	Matei Police Post
080123	51.5810206	-0.0863608	St. Anns Police Station
080124	50.7258891	12.4898911	
080127	53.3447285	-6.3579922	Ballyfermot Garda Station
080131	51.8158226	-0.3540638	Harpenden Police Station
080202	-27.4168446	153.0746823	Hendra
080205	45.7417113	4.8743483	Police Municipale
080208	43.5974904	1.4313523	
080208	47.2293917	8.9608724	
080209	49.848235	6.1026334	
080210	-33.0801377	115.8931162	
080214	51.6591742	7.1016046	
080217	-26.1926137	27.9937086	Brixton Police Station
080220	38.3458754	-0.4879186	
080223	52.243574	0.4117758	Newmarket Police Station
080226	51.3846074	-0.292741	
080302	-27.4653795	153.0711012	Morningside
080303	51.430343	-0.1296296	Streatham Police Station
080311	40.2030728	-7.6366248	Guarda Nacional Republicana
080312	51.2824423	-0.0760846	
080315	51.2130881	4.2588068	
080315	43.6431143	-72.1440068	
080315	43.6485705	-72.0065452	
080317	35.8815731	-106.3053329	
080319	50.6318907	13.84376	
080320	56.1306047	10.1637404	Viby Lokal Politi
080320	48.5783387	19.5273343	
080320	54.5477027	-3.5850675	
080321	51.4466045	-0.4038563	Feltham Police Station
080321	51.7059783	0.2450128	
080323	45.7344288	4.8729353	Commissariat de Police du 8ème
080325	53.7383551	-0.3664226	
080326	54.3107664	-1.830076	
080326	43.5593044	11.5350633	Polizia di Stato
080326	51.1134899	-114.035897	
080328	47.1573663	2.9111382	Gendarmerie
080328	42.666821	23.356929	СДВР - КАТ
080328	42.70828	23.321242	2-ро Районно полицейско управление
080401	45.5015325	9.2009575	Commissariato Greco-Turro
080402	57.841802	35.0196927	пост ГАИ
080402	-32.9696262	-71.5425863	Tenencia de Reñaca
080403	42.705386	23.3231839	МВР - Дирекция на Националната Полиция
080403	51.7720652	-3.2439473	
080404	42.708725	23.3139558	СДВР - Дом за настаняване на малолетни и непълнолетни
080405	45.412408	11.8622046	
080408	52.7163977	-2.7261075	
080408	47.2878065	5.0639742	
080411	62.6718049	30.9263326	
080414	42.6786924	-71.8223282	Ashby Police Department
080414	42.129495	-71.5402419	Hopedale Police Dept
080414	42.613358	-71.2359407	Tewksbury Police Department
080414	41.5789062	-71.0895548	Westport Police Dept
080414	42.4518112	-72.4095237	Shutesbury Police Dept
080414	42.0753675	-72.0271475	Southbridge Police Dept
080414	42.6321005	-70.7820093	Essex Police Department
080414	42.1402762	-71.4255921	Medway Police Dept
080414	42.7000687	-72.6310389	Leyden Polcie Dept- Shelburne Falls
080414	41.6809666	-70.0815785	Harwich Police Dept
080414	42.1456403	-71.252701	Walpole Police Dept
080414	42.2564288	-71.1242782	Boston Police Dept
080414	42.4590686	-72.8915619	Cummington Police Dept Adm
080414	41.9936754	-70.7363139	Kingston Police Dept
080414	41.6645079	-70.9954431	Bristol County Sheriff
080414	42.0928216	-70.6937662	Marshfield Police Dept
080414	42.1908708	-73.4281178	Egremont Police Dept
080414	42.0645994	-72.4139341	Hampden Police Dept
080414	42.5548545	-70.9434941	Danvers Police Department
080414	41.8287523	-71.3199697	Seekonk Police
080414	42.4043175	-71.0832183	State Police  Medford
080414	42.5941572	-72.2280291	Athol Police Station
080414	41.9009817	-71.0892959	Tauton Police Dept Headquarters
080414	42.3945042	-71.7932691	West Boylston Police Dept
080414	42.4656801	-70.9487324	Lynn Police Department
080414	41.6397278	-70.9836192	Sp North Dartmouth
080414	41.6768115	-70.5720912	Barnstable County Sheriff
080414	42.6285559	-72.5184291	Gill Police Dept- Shelburne Falls
080414	42.3043389	-72.7758057	Westhampton Police Dept
080414	42.0627523	-71.2503382	Foxboro Police Dept
080414	42.0815908	-73.0026656	Tolland Police Dept
080414	42.4067296	-72.9382116	Worthington Police Dept
080414	42.3581911	-71.5511994	Marlborough  Police Station
080414	42.4076982	-71.0127143	Revere Police Dept
080414	42.1396068	-71.9746513	Charlton Police Dept
080414	42.1139151	-70.8238824	Hanover Police Dept
080414	42.3524445	-72.5830456	Hadley Police Dept
080414	41.9204367	-71.0962791	Tauton Police Dept
080414	42.1011103	-73.0969899	Sandisfield Police Dept
080414	42.1562982	-71.1491272	Canton Police Dept
080414	42.3161494	-73.2570903	Sp Lee
080414	42.6764571	-71.7000688	Townsend Police Deptartment
080414	42.6780673	-70.8362514	Ipswich Police Department
080414	42.2710954	-72.4148193	Belchertown Police Dept
080414	41.9220926	-71.0512336	Raynham Police Dept
080414	42.414395	-70.9893996	Sp Revere
080414	42.3493611	-71.1505902	Brighton Police Dept
080414	42.4804079	-71.4446364	Acton Police Department
080414	41.3807416	-70.6750759	West Tisbury Police Dept
080414	42.3730956	-73.115912	Washington Police Dept
080414	42.5637348	-73.0250081	Savoy Police Department
080414	42.1673412	-71.3588413	Millis Police Dept
080414	42.6124035	-70.872122	Hamilton Police Department
080414	42.1122886	-72.0829891	Sp Sturbridge
080414	42.1925835	-73.0933373	Otis Police Dept
080414	42.4500047	-71.8794282	Princeton Police Dept
080414	42.2846826	-71.0916905	Boston Police Dept
080414	42.5750005	-73.3005472	Hancock Police
080414	42.5193214	-73.2275526	Lanesborough Police Dept
080414	42.2102105	-71.693072	Grafton Police Dept
080414	42.2597568	-71.2087651	Norfolk County Sheriff
080414	42.2557702	-70.9960313	Quincy Police Dept
080414	42.1796906	-73.2137623	Monterey Police Dept
080414	42.3694082	-71.0795014	Middlesex County Sheriff
080414	41.4211377	-70.9297003	Gosnold Police Department
080414	41.9428729	-70.0245946	Wellfleet Police Dept
080414	42.5748723	-70.7724899	Manchester Police Headquarters
080414	42.5303856	-71.3491158	Carlisle Police Department
080414	42.0441252	-71.8919194	Dudley Police Dept
080414	41.4801965	-70.600056	Tisbury Police Dept
080414	42.3580321	-72.0493951	Oakham Police Dept
080414	42.2605662	-71.4655544	Ashland Police Department
080414	41.8270164	-71.1208222	Dighton Police Dept
080414	41.89372	-70.9425762	Sp Middleboro
080414	41.6827223	-70.909654	Acushnet Police Dept
080414	42.5012589	-72.3312858	New Salem Town Police Dept
080414	42.6456377	-70.62922	Rockport Police Headquarters
080414	42.3241635	-71.7682123	Worcester County Sheriff
080414	42.1990553	-70.7163469	Environmental Police
080414	42.0999344	-72.3154785	Monson Police Dept
080414	42.4436173	-72.635017	Whately Town Police Dept
080414	42.17543	-72.4720822	Ludlow Police Dept
080414	42.0563984	-70.7122508	Duxbury Police Dept
080414	42.655868	-72.5632509	Bernardston Police Dept
080414	42.0771187	-71.6480255	Uxbridge Town Police Dept
080414	42.2532789	-71.1180611	Boston Police Department
080414	42.1925981	-71.1949307	Norwood Police Dept
080414	42.0660946	-72.160707	Holland Police-New Braintree Police
080414	42.1593832	-70.7927649	Norwell Police Chief
080414	42.373846	-71.0382464	Sp Sumner Callahan Tunnel
080414	42.7146383	-73.209613	Williamstown Police Dept
080414	42.7063554	-70.9162778	Rowley Town Police Department
080414	42.1970668	-71.8479616	Auburn Police Dept
080414	42.3900887	-73.3669768	Richmond Town Police Dept
080414	42.3120998	-71.0519998	Sp South Boston
080414	42.5042648	-71.0694102	Wakefield Police Department
080414	42.2407622	-70.7989835	Cohasset Police Dept
080414	42.3411211	-71.0567869	Boston Police Community Svc
080414	42.5739289	-71.077723	North Reading Town Police Dept
080414	42.2357391	-73.4143439	Alford Police Dept
080414	41.7813869	-69.9876602	Orleans Police Dept
080414	41.9787743	-71.333642	North Attleboro Police Dept
080414	42.3113435	-71.9287664	Paxton Police Dept
080414	41.7640371	-71.0148643	Freetown Police Dept
080414	42.3889932	-71.0399144	Chelsea Police Dept
080414	41.681354	-70.9341287	New Bedford Police Facility
080414	42.5473718	-72.3968716	Wendell Police Dept- Shelburne Falls
080414	42.526063	-72.7919007	Ashfield Police Dept-Shelburne Falls
080414	42.6931215	-71.0137614	Boxford Police Department
080414	42.1067827	-73.3557663	Sheffield Police Dept
080414	41.6380953	-70.9506157	New Bedford Police Dept
080414	42.6020264	-72.5833669	Greenfield Police Dept
080414	42.4414824	-72.799877	Goshen Police Dept
080414	42.2288243	-72.7288896	Southampton Police Dept
080414	42.5110459	-73.0575283	Windsor Police Dept
080414	41.7461248	-71.194185	Swansea Police Dept
080414	42.4125725	-71.0447532	Everett Police Chief
080414	42.1890597	-71.7620599	Millbury Police Dept
080414	42.4494447	-73.2526261	Pittsfield Police Dept
080414	42.1253996	-71.1043961	Stoughton Police Dept
080414	41.7038869	-70.1550041	Dennis Police Dept
080414	42.4376438	-73.1227913	Hinsdale Police Dept
080414	42.6047944	-70.8862331	Wenham Police Department
080414	42.6854961	-72.0467247	Winchendon Police Dept
080414	42.5161518	-72.9127733	Plainfield Police Dept-Main
080414	42.4889497	-72.1835447	Petersham Police Station
080414	42.1495759	-71.7627143	Sutton Police Dept
080414	41.3504071	-70.7637739	Chilmark Police Dept
080414	41.6966163	-71.1435947	Fall River City Police Dept
080414	42.3749188	-71.1144991	Cambridge Police Dept
080414	42.5240557	-70.9407409	Peabody Police Department
080414	42.1876005	-72.6064413	Chicopee Police Dept-  Community Subst
080414	41.3874858	-70.5197502	Edgartown Police Dept
080414	42.6033509	-72.7386499	Shelburne Police Dept
080414	42.0590436	-72.5037032	East Longmeadow Police Dept
080414	42.363655	-71.3069912	Weston Police Department
080414	42.2800686	-72.9824186	Chester Police Dept
080414	42.3381323	-71.8360789	Sp Holden
080414	41.9336594	-70.6568004	Plymouth Police Dept
080414	41.8529411	-70.9499042	Lakeville Police Dept
080414	41.2846733	-70.0980432	Nantucket Police Dept
080414	42.3378694	-71.0635188	Boston Police Garage
080414	42.053791	-72.7683961	Southwick Police Dept
080414	42.5816013	-71.4370227	Westford Police Department
080414	41.6193674	-70.4947385	Mashpee Police Dept
080414	42.2680489	-71.6147827	Westborough Police Dept
080414	42.5088518	-72.696741	Conway Police Dept
080414	42.2118017	-70.993587	Braintree Police Dept
080414	41.7477185	-70.6090769	Bourne Police Dept
080414	42.3551145	-71.8739843	Holden Police Dept
080414	42.3767663	-70.9844155	Winthrop Police Dept
080414	42.4817003	-71.1565549	Woburn Police Department
080414	42.3731666	-72.7033274	Williamsburg Police Dept
080414	42.0722066	-72.8950332	Granville Police Dept
080414	42.3770927	-71.9542516	Rutland Police Dept
080414	42.2046085	-72.5105724	Hampden County Sheriff
080414	42.0650479	-71.3293841	Wrentham Police Dept
080414	42.1612756	-71.0429442	Randolph Police Dept
080414	42.0631359	-70.8614762	Hanson Police Dept
080414	42.3668529	-71.0688504	Sp Boston
080414	42.0848995	-71.0162135	Brockton Police Dept
080414	42.339314	-71.0692596	Boston Police Dept
080414	42.6947453	-72.8983953	Rowe Police Dept
080414	42.2767936	-73.0583499	Becket Police Dept
080414	42.2650932	-70.8459772	Hull Police Dept
080414	42.1140725	-71.1868868	Sharon Police Dept
080414	41.4541255	-70.6028974	Vineyard Haven Police Dept
080414	42.1506861	-72.4259443	Wilbraham Police Dept
080414	42.007553	-71.3370228	Plainville Police Dept
080414	42.0734845	-72.2204115	Wales Police Dept
080414	41.7059988	-70.7674206	Marion Police Dept
080414	41.7695356	-70.7331272	Wareham Police Dept
080414	42.6771782	-71.338908	Dracut Police Department
080414	41.9863838	-70.9871411	Bridgewater Police Dept
080414	42.3096859	-71.1046118	Boston Police Dept
080414	41.7410048	-71.1480884	Somerset Police Dept
080414	42.6736995	-72.8217124	Heath Police Dept- Shelburne Falls
080414	42.637476	-71.9090364	Ashburnham Police Station
080414	41.9922566	-70.8650788	Halifax Police Dept
080414	42.3976035	-71.5788824	Hudson Police Department
080414	41.3915266	-70.519493	Dukes County Sheriff
080414	41.8873429	-71.088836	Tauton Police Dept
080414	42.1000562	-72.6056972	West Springfield Police Dept - Subst.
080414	42.5382605	-71.0472287	Lynnfield Police Department
080414	41.7304142	-70.8182198	Rochester Police Dept
080414	42.4647456	-72.4978334	Leverett Police Dept-Shelbourne Falls
080414	42.4377957	-73.0442946	Peru Police Dept
080414	41.8617968	-71.2380779	Rehoboth Police Dept
080414	42.6127968	-70.6613312	Gloucester Police Department
080414	42.6730962	-72.1877534	Royalston Police Station
080414	42.3283584	-71.0840861	Boston Police Dept
080414	41.8933713	-70.9074875	Middleboro Police Dept
080414	41.6859596	-69.9623694	Chatham Police Dept
080414	42.3065329	-72.2104307	Gilbertville Police Dept
080414	42.306688	-71.5280366	Southborough Police Dept
080414	42.1199123	-72.5848143	Sp Springfield
080414	42.3173519	-72.1226983	New Braintree Police Dept
080414	42.1055809	-71.5508475	Mendon Police Dept
080414	42.5974072	-70.986788	Essex County Sheriff
080414	42.1911867	-71.309642	Medfield Police Dept
080414	42.5836321	-72.203501	Sp Athol
080414	42.099732	-73.4532495	Mount Washington Police Department
080414	42.3411265	-71.0549541	Boston Police Dept
080414	42.7779142	-71.0825145	Haverhill Sub Police Department
080414	41.2850445	-70.0990148	Nantucket County Sheriff
080414	42.0185758	-71.0137084	West Bridgewater Police Dept
080414	42.2114753	-72.0932013	Sp Brookfield
080414	41.8885079	-70.7681471	Carver Police Dept
080414	42.1892348	-73.364169	Great Barrington Police
080414	42.3185903	-71.0809867	Boston Police Department
080414	42.4964723	-70.8595394	Marblehead Police Deartment
080414	42.0548194	-71.862605	Webster Police Dept
080414	42.21156	-72.1987535	Warren Police Department
080414	42.3051107	-73.2488643	Lee Police Dept
080414	42.2980276	-71.0590886	Boston Police Dept
080414	42.2364916	-72.0057395	Spencer Police Dept
080414	42.0218605	-70.0748967	Truro Town Police Dept
080414	42.4860833	-73.2097451	Berkshire County Sheriff
080414	42.2481745	-71.117114	Boston Police Department
080414	42.1861872	-72.3469906	Palmer Police Dept
080414	41.6644285	-70.1971972	Sp South Yarmouth D2
080414	42.3446045	-73.0095328	Middlefield Police Dept
080414	42.119541	-71.3228567	Norfolk Police Dept
080414	42.2549765	-72.5236031	Granby Police Dept
080414	42.339402	-71.0499091	Boston Police Department
080414	42.5779034	-72.2872962	Orange Police Dept- Shellbourn Falls
080414	42.5955821	-72.7281589	Sp Shelburne Falls
080414	42.0717273	-71.7130912	Douglas Police Dept
080414	42.5157421	-70.8966075	Salem Police Department
080414	42.2436098	-71.2799961	Dover Police Dept
080414	41.8822871	-71.0312124	Taunton Police Dept
080414	41.4575842	-70.5565489	Oak Bluffs Police Dept
080414	41.9717722	-71.1786261	Norton Police Dept
080414	42.3563108	-73.2848363	Lenox Town Police Dept
080414	42.5250809	-71.1011568	Reading Police Department
080414	42.1217961	-72.2039552	Brimfield Town Police Dept
080414	42.1614859	-70.7949233	Sp Norwell
080414	42.7977494	-70.8611213	Newbury Police Department
080414	41.7477132	-70.6090927	Buzzards Baypolice Dept
080414	42.1324207	-71.8643141	Oxford Police Dept
080414	42.3075004	-72.6582912	Hampshire County Sheriff
080414	42.1288074	-71.645982	Northbridge Police Dept
080414	42.841555	-70.8179258	Salisbury Police Department
080414	42.4564957	-71.34396	Concord Police Dept
080414	42.2391774	-71.3707132	Sherborn Police Department
080414	42.138714	-71.5208937	Milford Police Dept
080414	41.9433945	-71.2810813	Attleboro Police Dept
080414	42.3343584	-71.0676647	Suffolk County Sheriff
080414	42.6268549	-72.8715043	Charlemont Police Dept
080414	42.2683901	-72.0855526	North Brookfield Police Dept
080414	41.3432145	-70.8130438	Aquinnah Police Dept
080414	42.265622	-72.6707134	Easthampton Police Dept
080414	42.0563479	-71.1084832	Easton Police
080414	42.3789287	-71.1238574	Harvard University Police
080414	42.0720309	-70.8086069	Pembroke Police Dept
080414	41.616288	-70.9210885	New Bedford Police Facility
080414	42.235192	-72.1423583	West Brookfield Police Dept
080414	42.2458958	-73.2043327	Tyringham Police Dept
080414	42.075011	-71.2857038	Sp Foxboro
080414	41.6018396	-70.9618681	Dartmouth Police Dept
080414	42.0273769	-71.5814965	Millville Police
080414	42.7219603	-70.9935807	Georgetown Police Department
080414	42.1562511	-72.5847295	Chicopee Police Dept
080414	42.1114509	-72.0843432	Sturbridge Police Dept
080414	42.6090803	-71.1185556	Sp Andover
080414	41.5536572	-70.6029149	Falmouth Police Dept
080414	42.2799863	-72.3480536	Sp Belchertown
080414	42.0174393	-71.5330592	Blackstone Police Dept
080414	42.3607183	-71.4205044	Sudbury Police Department
080414	42.2602641	-72.2425537	Ware Police Dept
080414	42.225316	-72.0461398	East Brookfield Police Dept
080414	42.4527229	-72.5848196	Sunderland Police Station- Shelburne F
080414	41.6691435	-70.2441602	Yarmouth Police Dept
080414	42.2155916	-72.59379	South Hadley Police Dept
080414	42.5490072	-72.1321415	Phillipston Police Dept
080414	42.6303353	-70.945674	Topsfield Police Department
080414	41.8460419	-71.0829823	Berkley Police Dept
080414	42.4531113	-71.1358855	Winchester Police Dept
080414	42.7081609	-71.1651798	Lawrence Police Department
080414	42.5995708	-72.735941	Shelbourne Falls Police Dept- Buckland
080414	42.1326027	-71.0395399	Avon Police Dept
080414	42.3634992	-71.3593907	Wayland Police Department
080414	41.6400503	-70.8926109	Fairhaven Police Dept
080414	42.6737929	-72.7069611	Colrain Police Station- Shelburn Falls
080414	41.957251	-70.8167661	Plympton Police Dept
080414	41.7619577	-70.4957816	Sandwich Police Dept
080414	42.5532468	-72.0663372	Templeton Police Dept
080414	42.7120556	-73.0844644	Clarksburg Police Dept- North Adams Po
080414	42.2115291	-71.6878691	Sp Grafton
080414	42.2783647	-71.2366107	Needham Police Dept
080414	42.2443974	-71.9015456	Leicester Police Dept
080414	42.4276118	-70.926141	Nahant Police Dept
080414	42.1058356	-72.6236469	West Springfield Police Dept
080414	42.0236848	-71.2187185	Mansfield Police Dept
080414	42.3816081	-71.2360866	Waltham Police Department
080414	42.5904807	-72.4898918	Erving Police Dept
080417	-18.1398742	178.4243877	
080417	-18.1447191	178.4357346	
080421	35.8926583	139.631757	
080422	-25.6503855	28.3079377	Kameeldrif
080423	41.9278409	12.4794177	
080423	38.0633266	-85.5528681	
080423	41.9212442	12.4929962	
080423	40.9956146	9.6238839	
080423	41.0013863	9.6222617	
080424	42.8530792	-89.3689259	Brooklyn Police Department
080425	52.1628678	-0.6256711	
080425	52.6317136	-1.151239	Hinckley Road Police Station
080425	42.4515357	11.2550355	
080426	55.7997242	-4.3906924	Barrhead Police Station
080427	48.3765174	17.5873816	Mestská polícia
080427	52.0233538	0.2438361	
080428	45.5065832	9.4262781	Comando decentrato di Polizia Locale
080430	46.0324319	4.0718583	Hôtel de Police
080501	46.1695389	21.3037111	
080501	52.2485382	20.8410386	
080502	47.5081245	19.0515029	
080502	45.4953838	9.4158757	
080503	61.1560251	13.2685452	
080504	48.9491903	9.4213273	
080504	41.8321904	12.4708339	Commissariato Esposizione
080504	50.4104838	-4.2221054	
080505	-18.1266066	178.4406984	Samabula Police Station
080505	50.2480967	12.8301926	
080505	50.0766018	12.3708978	
080506	41.9152207	12.5196206	Commissariato Sant'Ippolito
080506	51.3249587	-1.2436648	
080508	47.2093196	27.8034799	Poliția
080510	63.3211372	30.0238801	
080511	40.9310928	9.5112246	
080511	51.7034026	-0.0347444	Cheshunt Police Station
080511	-34.007327	18.4997451	Ottery Hillstar Traffic Police
080512	-1.0589226	-46.7669712	
080512	47.4117193	8.5967147	Kantonspolizei Zürich
080512	37.7324723	30.3028438	
080512	51.5068937	-3.1346536	Rumney Police Station
080514	13.0596173	80.2427681	
080514	25.84293	98.88166	
080514	28.1525661	98.4833863	Yunnan-Tibet Border Station (disused)
080514	51.5047739	-3.5752771	Bridgend Police Station
080515	51.0569819	12.5567193	
080515	47.4246442	8.6186672	
080516	-18.157108	178.444927	Maunikau Police Post
080517	49.3056874	12.8539474	Polizei
080518	47.1310351	24.4893163	
080518	51.5798216	-4.1825076	
080518	52.7055787	13.5414662	
080518	39.19997	9.145376	
080518	39.2054011	9.132558	
080522	51.0383074	-114.1512443	
080524	26.6615399	79.1742208	
080525	40.431578	-3.8990678	
080525	40.9165875	29.2224249	Yakacık Emniyet Müdürlüğü
080525	55.6604757	12.5180887	
080526	53.8477863	-0.4411592	Beverley Police Station
080528	12.8854804	77.6719632	
080529	53.4867835	10.2570916	
080530	34.7751339	32.4226577	Paphos Police HQ
080530	48.9072568	2.3387497	
080530	-25.788604	28.2888968	
080603	48.8860923	9.5270898	
080603	38.7981465	-9.1658451	
080605	-1.2196215	36.8924454	Kasarani Police Station
080605	60.4012918	5.7301071	
080607	53.8079288	-1.7772188	
080610	52.6650088	8.2301519	Polizei Lohne
080610	52.1820244	9.0762427	
080611	43.2929726	5.4034508	
080611	51.4759263	5.6322829	
080612	42.7266984	23.3044861	Полицейски участък Надежда
080612	47.5110129	10.2785525	Polizei
080614	52.1385913	12.5841559	
080614	43.6426023	1.5259113	
080615	34.0045678	134.3561873	神山町二ノ宮駐在所
080615	34.0255455	134.4033048	神山町 広野駐在所
080615	34.0428899	134.4403606	入田町交番
080616	51.6118852	-0.6458616	
080616	63.7377978	8.8380635	
080619	-26.1324114	28.1821608	
080621	-26.1484432	28.149193	
080621	-26.1493908	28.1496737	Court House
080621	-33.699305	18.4443692	Melkbosstrand Police Station
080621	-34.0612975	18.7625956	Macassar Police Station
080622	-31.9742153	116.0569667	
080623	52.2450626	0.1121052	Histon Sector Police Station
080625	47.3853081	9.2775667	
080626	43.7429119	7.4250214	
080626	46.1626186	24.3501956	
080628	50.1188493	8.8191851	Bereitschaftspolizei
080702	38.540611	-121.7573412	
080702	44.4007315	25.9111197	
080703	53.4446515	-1.9476378	
080703	37.5128569	128.2143368	
080705	-31.6900006	115.7161274	
080705	48.2742563	14.4472251	
080706	-31.9939214	115.5386297	
080706	34.0610959	134.3480587	飯尾駐在所
080706	56.0360708	-5.4318625	
080707	-5.0833091	39.0875756	
080707	-5.0718854	39.0960311	
080707	38.1118255	13.3567605	Squadra Mobile
080707	52.7079999	-8.8768231	
080708	43.6951015	7.2434919	Police Municipale
080709	43.5576934	5.2517022	Police municipale
080709	-9.4656176	147.1971118	
080710	43.3126788	23.362685	
080710	42.0046309	-83.9406168	Police Department
080710	49.2517445	6.8579837	Polizeiinspektion Völklingen
080713	41.0238004	29.0269698	
080713	51.1739436	4.7556528	
080714	63.2977209	9.8475717	Orkdal lensmannskontor
080714	50.0049867	14.4149148	
080714	51.2028594	3.8089581	Politiepost Zelzate
080715	43.1122693	0.7437804	Gendarmerie Nationale
080715	51.00504	14.5840437	Bundespolizei
080717	51.0920013	-114.0951337	
080717	55.6670561	12.3489678	
080717	51.9039797	4.2505611	
080717	52.9384542	-8.8989169	Garda
080719	35.5011965	23.9663296	
080719	55.7461072	12.4954211	
080719	45.0847971	-93.2620099	Fridley Police
080720	35.3033643	139.5526463	Zaimokuza KOBAN
080720	52.229222	-10.1788008	
080720	38.9826193	-76.9355465	Police Substation
080721	48.1245458	14.8829834	
080722	33.5716288	133.5974906	大津駐在所
080723	18.5075612	73.9173998	
080723	43.7321058	7.4197197	Commissariat de la Condamine
080724	51.5355103	5.6268881	
080724	52.332453	-0.188633	Huntingdon Police Station
080727	43.4153089	-79.7432828	
080727	55.6272481	12.484982	
080728	53.8572392	27.5989728	
080729	16.0281802	-61.6935474	Poste de Commandement de la Gendarmerie Nationale
080729	42.9885886	-81.2317479	
080730	46.4556987	4.1132759	Gendarmerie
080730	45.820543	6.0252757	Gendarmerie
080730	53.4424101	-1.458436	
080731	-6.8461697	39.241219	
080731	-3.3343083	37.1453851	
080801	-6.7366221	39.226338	
080802	-6.7580289	39.2864391	Police Officers Mess
080802	43.232373	-87.9791291	
080803	42.0555527	-1.6032261	
080803	62.3849632	21.2274647	
080804	35.8583094	139.3354772	飯能警察署
080805	37.5043918	15.0859551	Questura
080805	37.5044054	15.0862727	Ufficio Relazioni con il pubblico; Ufficio denunce
080806	-7.7829468	35.6972768	
080806	42.5883777	-1.7607902	Guardia Civil
080807	49.2428509	-121.7694867	Royal Canadian Mounted Police
080807	-35.006238	138.7175273	
080807	53.0790235	-0.8045018	
080809	53.3574717	-2.8325761	
080809	52.7964142	-6.1544135	Arklow Garda Station
080810	42.3387763	-1.8077195	Guardia Civil
080810	53.7289431	0.0329036	Withernsea Police Station
080810	44.8052986	-0.5428053	Police nationale
080810	42.3364628	-1.9349546	Guardia Civil
080811	45.2603931	17.1960316	
080811	53.214581	-3.0500016	
080812	47.4049549	7.5436083	Kantonspolizei Solothurn
080812	52.0867653	9.7824517	Polizeistation Gronau
080812	53.2340777	-1.4255792	Derbyshire Police, C Division HQ
080813	41.314991	115.7163829	
080813	57.753069	12.0320244	
080813	41.1571995	116.6181834	
080813	51.3932544	8.576756	Polizeiwache Brilon
080813	50.2789937	9.1099988	Polizeistation
080814	52.5059683	-1.7744976	
080814	41.5894401	9.2749455	Gendarmerie
080815	35.5502066	140.1880959	千葉南
080815	41.9152544	15.6708954	Guardia di Finanza Brigata Capojale
080815	-26.1961028	28.313782	
080816	53.6050542	-113.4170174	Edmonton Police Service North Division Station
080817	50.3817363	-102.583153	Royal Canadian Mounted Police
080818	49.3125068	6.2815021	
080819	29.6646185	97.8513911	Checkpoint
080819	43.9251161	11.0405013	Polizia Municipale
080820	-34.4955326	150.7980419	
080821	39.430585	-0.4733333	Juzgados
080821	35.8666779	139.2352895	原市場派出所
080821	51.2281375	3.7533523	Assenede
080821	35.8666998	139.2352318	原市場派出所
080822	-34.5700315	150.7796214	Albion Park Police
080822	55.6823335	12.4532875	
080822	51.0690111	4.5334249	
080822	42.0041146	-5.6788071	Policía Nacional
080823	51.4264893	7.0456324	Wache Rellinghausen
080823	-25.73323	28.29628	
080823	55.624178	12.4206481	
080824	53.7153883	-6.356794	Drogheda Garda Station
080824	40.0311004	116.3075666	上地东里派出所
080824	22.2266105	114.1115245	
080824	-25.4952578	31.510696	Police Station
080824	53.3268733	-3.0949375	
080824	47.7625838	18.1277252	
080824	51.0396481	-114.735316	Kananaskis Ranger Station
080826	51.5804297	9.7576666	Polizei
080826	-34.479611	150.9020623	
080826	-20.6574851	141.748049	Julia Creek Police Station
080827	52.2930042	20.8167403	
080828	30.8887587	75.8614661	Police station Shimla puri
080830	46.7775685	6.6418832	
080830	51.6118361	0.0228722	Woodford Police Station
080901	46.259709	5.6579748	Police Municipale
080904	35.5841488	139.2567884	津久井警察署
080904	52.0997936	7.6165759	
080904	11.68299	92.7236	Haddo Police Station
080904	51.4363198	5.4803977	Begijnenhof
080904	53.7265002	-2.6613443	Police Station
080905	47.4677637	7.7996534	
080905	51.5265494	-0.1440082	Albany Street Police Station
080906	51.1873511	-114.4609064	Royal Canadian Mounted Police
080906	-21.6944737	139.5152269	Dajarra Police Station
080906	37.3571175	-2.3013888	
080907	57.5832595	-4.1280576	
080907	35.6143871	139.4378526	
080907	35.6243939	139.4385869	
080908	47.7527293	-122.1620051	
080912	51.3675413	1.1277408	Herne Bay Police Station
080912	53.2408361	50.2764246	МРЭО
080912	49.9921695	14.6567771	
080913	-20.7289097	143.141548	Richmond Police Station
080913	49.9916755	14.6642393	Městská policie Říčany
080914	54.2036829	-4.6381113	
080914	14.5476499	49.1286651	
080914	34.0410842	133.8697504	東みよし町昼間駐在所
080914	50.6611361	3.0503317	
080915	45.0578665	5.0430046	Gendarmerie Nationale
080915	34.0599991	134.0677337	
080916	41.8381965	12.4954104	Polizia Municipale
080916	40.7377382	-74.0299129	Hoboken Police Station
080917	52.6252778	-1.1183142	Campus Park Police Office
080918	33.8657295	133.7731981	山城町大歩危駐在所 (Yamashirocho Oboke police substation)
080918	43.1067604	5.8702646	Police Nationale
080919	34.1183995	134.4297096	上板町西分駐在所
080919	35.6694331	139.3599313	
080920	46.8674291	12.8753908	
080920	53.58836	9.2537777	Polizeistation Oldendorf
080921	51.2745897	1.3389746	
080921	51.2130523	4.4342101	
080921	53.2087713	13.3161185	
080922	44.9085272	-76.2671846	Ontario Provincial Police
080922	40.6264019	-3.1681273	Comandancia Guardia Civil
080922	43.1142392	-2.416778	Ertzantza
080922	50.0990483	14.3576803	
080922	50.0987741	14.3577996	
080923	-43.5444757	172.5271414	
080923	41.7392841	26.1678784	Border Station Ormenio
080923	41.7572783	26.1649173	Border Station Swilengrad
080924	52.1488252	-3.4065165	Powys Police
080927	34.2476661	-118.83466	Ventura County Sheriffs East Valley Station
080928	45.5406093	-73.658121	Transport de valeurs Centurion, Bureau canadien d'investigation, BCIA/CBIA
080928	48.89487	18.0389952	Mestská polícia
080929	51.3324212	1.4197318	
080929	53.7880369	-1.7510976	West Yorkshire Police
080930	55.7780952	9.6947846	
080930	52.2421904	-3.3800192	
080930	45.9440745	13.5120772	
081001	34.7101027	32.573038	Kouklia Police Station
081001	2.0464267	45.3240857	
081001	33.7527211	-118.0877407	Seal Beach Police Department
081004	52.9989579	-8.8874947	Tubber RIC barracks (ruins)
081005	63.0929756	21.6317436	
081005	43.2143287	-2.4171972	Udaletxea
081005	51.4691505	-0.3645452	Hounslow Police Station
081005	47.8307093	-3.4042853	Gendarmerie
081007	51.1063707	17.0415078	
081008	2.5075652	102.8147654	Balai Polis
081008	50.3441671	-113.7785552	
081009	42.8679047	-71.4983099	Merrimack Police Department
081011	45.5821854	-73.5807032	
081012	50.0416802	14.4600593	Městská policie
081013	41.6246624	2.1680997	
081013	33.4274903	134.0175545	奈半利駐在所 (Nahari Police Box)
081014	37.5246506	15.0851039	
081014	2.2124359	102.6542363	Balai Polis Bukit Gambir
081014	36.7357054	-3.6885482	
081014	57.0052102	-3.3986217	
081014	33.5025204	133.9057525	安芸警察署 (Aki Police Office)
081015	35.6322813	139.4048087	
081015	36.0714237	-115.2045305	Nevada Highway Patrol
081016	33.5675211	-117.7286139	Orange County Sherriff Aliso Viejo Station
081017	40.9133748	21.418925	Niki Border Station
081017	36.08446	-115.173788	Las Vegas Metropolitan Police Southern Command
081017	36.0855301	-115.2046301	Metro Dispatch Center
081018	44.4263413	8.8495207	Polizia di Stato
081018	51.2467453	-0.7201054	
081018	51.5360126	6.8319834	Autobahnpolizei
081019	52.8919611	-1.5046866	
081019	53.7250615	-1.3529581	Castleford Police Station
081020	33.5330535	133.6137768	
081020	38.6926531	-9.3584311	
081020	50.0709743	14.4939062	Policie ČR, místní oddělení Strašnice
081020	33.542998	133.5789511	五台山駐在所 (Godaisan Police Box)
081021	33.9733884	133.7818087	山城町下川駐在所 (Yamashiro-cho Shimokawa Police Box])
081021	36.02373	14.2971451	
081021	33.9624589	133.7158646	山城町信正駐在所 (Yamachiro-cho Nobumasa Police Box)
081022	37.7670108	-122.1757832	
081023	48.6830878	9.2786249	
081023	46.9271557	7.564509	
081025	34.0588439	134.0976671	脇町野村駐在所 (Wakimachi Nomura Police Box)
081025	34.0924391	134.2251751	阿波町伊沢駐在所 (Awa-cho Izawa Police Box)
081025	34.1108529	134.3318819	土成町土成駐在所 (Donari-cho Donari Police Box)
081025	34.1193021	134.4004197	上板町鍛冶屋原駐在所 (Kamiita Town Kajiyabara Police Box)
081025	53.4373792	-2.2744354	Chorlton Police Station
081025	26.169907	34.2398579	Police Streetpost El Qusair
081026	-43.4886509	172.1158077	Police
081026	-25.74823	28.15823	
081026	53.4825103	-2.3563656	
081026	48.419985	-4.4727799	Gendarmerie Nationale de Lambezellec
081027	55.6703745	12.5598365	Station City
081027	34.9861996	135.759904	京都駅北交番
081027	49.1278325	16.6149642	
081027	-42.9488711	171.5675637	Police
081028	49.0309028	2.4579776	Police municipale
081028	52.9981301	-7.4780942	Moutrath Garda Station
081028	51.2062924	-4.1212864	
081029	48.7778877	9.1313979	Polizeiposten Botnang
081029	50.0487993	9.705613	Polizeistation
081029	10.6571159	77.0083512	Police Station
081029	51.6258643	-0.3892175	Oxhey Police Station
081030	12.9893957	80.2019683	Adambakkam Police Station
081030	53.4116433	-2.837358	
081031	50.849996	12.4639491	
081031	28.5779649	77.3375263	
081031	42.4419947	19.2459877	
081101	40.9817781	28.7005514	
081101	56.4818853	-3.4504264	
081101	-33.9124175	19.1217139	SAPS
081103	33.9991265	72.9358176	
081103	8.5093716	76.9566101	
081103	54.0178132	10.7534248	Scharbeutz
081103	16.7241277	-92.6381	
081103	54.7744412	-1.5716138	
081104	37.1908567	-3.7147444	
081105	-6.2319134	106.8349585	
081105	51.0975068	13.7045141	Landeskriminalamt Sachsen
081105	3.1559802	101.6978042	Balai Polis Dang Wangi
081106	53.4357788	8.817828	
081108	51.5699529	0.4213938	Laindon Police Station
081109	49.4159036	7.5664256	
081109	51.8214279	-4.4936771	
081110	52.2460826	10.6544536	Polizeistation Cremlingen
081110	47.8055959	8.8219763	Autobahn Polizei
081110	46.2505513	-63.1371955	RCMP
081112	53.8260661	-1.7355951	Eccleshill Police Station
081112	22.2055125	114.1315004	
081113	46.5086076	18.5863981	
081113	53.2220433	-2.8343888	
081114	45.8845023	13.4948345	
081114	52.2250298	10.50289	Polizeistation Rüningen
081115	-34.9282153	138.6027788	Adelaide Police Station
081115	-25.95149	28.23218	
081116	59.3321862	18.0388073	
081116	40.4386592	-79.9608742	Public Safety
081117	13.0349573	80.22946	Mambalam Police Station
081117	45.9033185	13.5726315	
081117	41.5580985	2.0280964	
081119	39.4302365	-0.4790946	Comisaría de policía de Torrent
081119	43.6956919	7.2758588	Police municipale
081120	39.4329068	-0.4625539	Policia Local
081120	55.9333236	-3.1410573	Craigmillar Police Station
081122	39.3020478	9.1955089	Stazione Guardia Forestale
081122	35.6618197	139.3289602	警視庁第九方面合同庁舎
081123	39.2971657	9.2055954	Polizia Municipale
081123	35.6627167	139.6139865	
081123	53.3019264	-1.1224323	
081123	12.9814685	80.192063	
081124	39.8274395	-75.1232894	
081126	52.1968972	-1.5918991	Wellesbourne Police Station
081126	51.7959906	11.6063171	Revierstation Güsten
081127	38.6284363	34.8637437	Jandarma
081128	50.7358112	-1.7820333	Christchurch Police Station
081128	50.4277578	10.7298367	PI Hildburghausen
081129	28.35703	-16.7756279	Policia Local de El Tanque
081130	35.795217	139.5130574	交番
081130	29.0894394	-110.9526604	
081130	48.8109095	2.0465306	
081201	-7.2814823	112.7111052	
081201	35.417768	139.6127239	
081202	52.3539253	-7.6999149	Clonmel Garda Station
081202	53.8345626	-7.0821731	Virginia Garda Station
081202	53.0285865	-9.2896808	Lisdoonvarna Garda Station
081202	52.7633397	-8.8990317	Newmarket On Fergus Garda Station
081202	54.3455826	-6.6492774	Police Service of Northern Ireland
081202	33.3723716	-112.5726637	Buckeye Police Department
081203	45.942288	13.6251178	Questura
081203	45.9445854	13.6249702	Prefettura
081206	52.6751049	-6.297276	Gorey Garda Station
081207	5.2762921	115.2466073	Police Station
081208	-33.6457011	19.4440053	Worcester
081208	-2.1466225	30.0923483	
081209	-1.6974564	29.2487257	
081210	51.1746871	6.3136266	JHQ Military Police Station
081210	44.3233693	23.7976806	
081213	52.4097717	9.8141631	Polizeikommissariat Lahe
081213	52.0672043	1.2706552	Suffolk Constabulary Headquarters
081213	56.7733061	53.1613689	
081215	-6.210437	106.890889	Polsek Pulo Gadung
081216	2.0325156	45.2966325	police Headquarters
081217	-6.2419056	106.7896574	
081217	65.8377939	24.14121	
081217	60.0557197	-128.6714887	RCMP
081218	56.1525245	10.2104651	Århus politigård
081218	12.3725463	-1.5158893	
081219	36.5228962	-5.0478524	Guardia Civil
081219	37.5186703	15.104696	Direzione Investigativa Antimafia
081220	-6.2318908	106.8464827	
081221	65.6857105	-18.0999983	Lögreglustöðin á Akureyri
081221	36.4624231	-5.0518642	
081222	13.0818276	80.2755071	Central Station PS
081222	13.0830613	80.2732996	Chennai Central RPF
081223	47.5395627	9.1849403	
081225	50.8446616	-1.0685223	
081225	47.4563484	19.1366368	
081226	52.8500118	-8.0359955	Toomyvara Garda Station
081227	35.8725653	14.5195788	
081227	39.7103312	2.6224613	
081228	13.048651	80.2494881	Teynampet E2 PS
081228	-41.2931242	174.0067282	Community Policing Centre
081228	39.5122494	-0.4547841	Comisaría Central Policia Local de Paterna
081228	-19.3361787	-43.629545	Policia Militar
081228	53.8143879	-2.5368311	Police Station
081228	59.6120439	10.4084676	Svelvik lensmannskontor
081229	45.8120132	15.9231537	
081229	51.8819936	5.2807435	
081229	36.7571978	-3.9511775	Policia Locale
081229	47.5194492	7.6145604	
081229	58.3592402	26.6870036	
081230	43.9988839	12.6546007	
081230	44.0039433	12.6516316	
081231	-35.274409	138.4605259	Aldinga Police Station
081231	65.070172	-14.0119827	
081231	-25.816478	28.4069293	
090101	53.7563043	-0.4467327	
090101	36.0587787	14.2267915	Għasri Police Station
090101	36.030999	14.2169617	Xlendi Police Station
090101	36.0316726	14.2360382	Police Station Munxar
090101	48.5930171	6.4989502	Police municipale
090102	50.0194298	7.1773769	Polizeiinspektion Zell
090102	36.0378165	14.2931618	Nadur Police Station
090102	51.9185677	-8.3968963	Glanmire Garda Station
090103	53.2319886	-0.5425422	
090104	36.0715754	14.2607405	Marsalform Police Station
090104	48.1830755	16.2930502	Polizeiinspektion Lainzer Straße
090104	48.1693153	16.2850195	Polizeiinspektion Speisinger Straße
090104	48.2076923	16.2196526	Polizeiinspektion Albert-Schweitzer-Gasse
090104	48.2039882	16.3673603	Polizeiinspektion Goethegasse
090105	19.3715784	-99.1834739	Módulo Policia
090105	48.2381675	16.3194397	Polizeiinspektion Gersthofer Straße
090105	12.3962707	-1.4807214	camp CRS
090105	49.5332386	5.9884627	
090105	55.0248676	82.9222709	
090105	32.8075468	-16.8809899	
090106	53.5265057	15.8131416	
090106	39.9436364	-75.1162321	Camden Police
090107	36.0283879	14.2419533	Sannat Police Station
090107	3.3252806	99.161771	Polres T. Tinggi
090107	37.5050959	15.0934044	Caserma "A. Cardile"
090108	46.5329621	6.5771826	
090109	31.3036029	34.237953	
090109	31.2756431	34.2584236	
090109	51.6277075	6.197405	
090110	54.9731159	-1.6107946	Market Street Police Station
090110	47.9527964	9.380939	Polizeiposten Ostrach
090110	48.2608635	7.4520188	Police nationale
090110	45.5291151	-73.5253761	
090111	55.8830211	12.4957615	
090112	35.9053737	139.6232965	
090112	49.480703	9.8967838	Polizeiposten Weikersheim
090113	48.8553609	20.9366295	
090114	52.0159406	-8.5874368	Rathduff Garda Station
090114	28.4640597	77.0360665	Sadar Police Station
090114	28.4863642	77.0660949	Sirhaul Police Station
090115	42.3279568	-1.7430151	Guardia Civil
090115	41.460508	2.249474	Comisaria Mossos d’Esquadra de Badalona
090115	-16.6877841	-179.8808697	Matei Police Station
090116	37.0040835	-121.5734881	Gilroy Police Station
090116	39.95593	-74.9196437	New Jersey State Police — Moorestown
090117	35.1680214	33.3313565	Ayios Dometios station
090117	52.3317816	14.5071332	Bundespolizei
090117	-27.5524896	152.8073251	
090117	50.7397561	-3.995865	Okehampton Police Station
090117	53.513593	49.6072838	ДПС
090117	45.5951007	5.2710097	Gendarmerie de l'Etissey
090118	51.3913508	1.3839385	
090118	3.0645757	101.4895223	
090118	41.0350707	16.9851094	
090119	2.0444218	102.5632297	Ibu Pejabat Polis Muar
090119	52.9986	13.1541	
090119	-33.8951271	18.5618467	Goodwood Traffic Department
090120	28.4291623	77.0375117	Islampur Police Station
090120	46.2245377	10.8251516	Polizia Stradale
090120	49.7608435	13.3488866	Služebna MP Plzeň-Vinice
090121	48.20955	16.372195	Polizeiinspektion Brandstätte
090121	48.221146	16.3410521	Polizeiinspektion Martinstraße
090121	48.2172491	16.3683346	Polizeiinspektion Deutschmeisterplatz
090121	8.3307076	77.1742787	RTO Check Post
090121	53.4785078	-2.2474478	Bootle Street Police Station
090122	48.2159576	16.355414	Polizeiinspektion Otto-Wagner-Platz
090123	50.4043004	30.6465599	РУ МВС Дарницького району
090124	51.7264975	10.2599065	Polizeikommissariat Osterode am Harz
090124	2.4404443	102.6848508	Balai Polis Jementah
090124	56.0592291	-3.2348224	
090125	42.2989684	-83.488841	
090126	-34.8442915	138.5071971	Port Adelaide Police Station
090126	50.8513229	4.320348	
090126	65.2594583	-14.3974116	
090127	12.3320349	-1.5251186	
090127	12.3316408	-1.5240028	
090128	42.6919956	-71.1181598	North Andover Police Department
090128	2.164902	102.5868911	Balai Polis Serom
090128	-35.6827327	174.3008424	Kamo Community Police Station
090129	12.3395492	-1.5592462	
090129	51.1580966	12.9286214	
090130	49.7416573	19.5888114	Komenda Policji w Suchej Beskidzkiej
090130	52.2130133	20.97382	Straż Miejska
090130	45.5442592	-73.9180603	
090131	49.1416163	9.2366526	
090201	12.3450435	-1.5681578	
090201	48.2784064	17.044901	
090202	14.8387125	-89.1495668	
090203	2.1503242	102.7734586	Balai Polis
090203	1.8511436	103.0311156	Balai Polis Sri Gading
090203	2.045907	102.563194	Polis Trafik Muar
090203	42.5072958	1.5380958	
090204	46.6137293	13.8480092	Polizeiinspektion Hauptplatz
090204	48.3773878	2.816456	Gendarmerie
090206	37.5781118	-122.3560075	
090206	42.6436917	2.5193648	Gendarmerie
090207	48.1859197	16.3024572	Polizeiinspektion Am Platz
090207	48.1999893	16.3788292	Polizeiinspektion Marokkanergasse
090207	48.2356517	16.2899052	Polizeiinspektion Neuwaldegger Straße
090207	48.2178632	16.5283302	Polizeiinspektion Rosenbergstraße
090207	51.4570534	-0.1983978	Wandsworth Police
090207	19.4174736	-99.2369041	Tecali
090208	48.2450639	16.3434501	Polizeiinspektion Billrothstraße
090208	48.1317032	16.316061	Polizeiinspektion Karl-Tornay-Gasse
090208	48.2179626	16.4736871	Polizeiinspektion Langobardenstraße
090208	38.1227747	13.360068	commissariato Politeama
090208	58.8408389	57.5523036	Опорный пункт
090208	9.3393691	-82.2395297	
090208	51.5621764	-0.1169395	
090209	48.1809711	16.3509644	Polizeiinspektion Siebenbrunnenfeldgasse
090209	48.2875009	16.386095	Polizeiinspektion Berlagasse
090210	51.3155013	0.893848	
090210	51.6622048	-3.7995922	Neath Police Station
090211	50.023525	14.4515829	Městská policie
090212	52.0276969	21.0299492	
090212	12.3893109	-1.5686881	
090212	12.3936366	-1.5021093	
090213	3.0430137	101.5497808	Balai Polis Pinggiran USJ
090213	3.0736561	101.5607735	Pondok Polis Komuniti
090213	51.0125105	13.8239616	Polizeirevier Dresden-Leuben
090213	46.5855604	20.4764412	Nagymágocs Rendőrség
090213	3.0844424	101.5071208	Balai Polis
090214	44.499063	12.0411331	Polizia Municipale
090214	48.4024866	-2.8998507	
090214	46.7202042	9.5589946	Kantonspolizei Graubünden
090214	-25.96481	28.46915	
090215	12.3865923	-1.5574366	
090215	36.7419271	3.1915496	
090216	50.8554241	4.3387701	
090216	45.7388323	4.2238585	Gendarmerie
090219	53.4015772	-2.9881222	Merseyside Police Headquarters
090220	47.9613676	14.0162208	
090220	46.5963338	13.8375876	Polizeiinspektion Auen
090221	28.6279974	75.396468	
090221	53.2401554	7.6260682	
090221	-37.1055127	144.0636899	
090222	42.6596345	27.714331	
090222	-25.81017	27.76364	
090222	21.1293103	-101.7205917	Centro De Emergencias 066
090222	51.4078109	0.8581469	
090222	19.4646325	-70.6972215	Policia National
090222	43.5658918	13.5123129	Guardia di Finanza
090222	52.2418382	0.7208246	
090223	2.9735502	101.8282692	Balai Polis
090223	53.7397586	-0.2036088	Hedon Policing Team
090223	54.9717447	-2.4610045	Haltwhistle Police House
090226	8.3242251	77.1817641	Tax Check Post
090226	51.4092322	-3.4856809	
090226	50.7986954	-3.1928755	Honiton Police Station
090226	42.1716814	-1.6910501	Guardia civil
090226	51.6538041	5.9453114	Politie Boxmeer
090227	47.6388461	26.243878	
090227	43.3022261	13.7230851	Polizia di Stato
090227	43.3094	13.7320699	Capitaneria di Porto
090302	10.7313165	77.5240127	Dharapuram Police Station
090302	39.9925228	-0.0331765	Policía local
090302	60.1483676	15.1875204	
090303	36.6218747	29.1137679	
090303	46.6171984	7.056898	Police Locale
090304	51.7683634	6.83755	
090304	46.6173792	14.4654149	Polizeistation Grafenstein
090305	57.3657663	-2.0741273	
090306	53.7620415	-2.701412	
090307	42.3923945	-72.8435497	Chesterfield Police Dept-Davenport Sch
090307	23.1422886	-82.3532242	Comandancia General. Policía Nacional Revolucionaria
090307	60.3476185	5.2762534	Fyllingsdalen politistasjon
090308	47.5850979	7.649854	
090308	53.3826545	-2.4773966	
090308	54.890122	47.5351499	Пост ДПС
090308	34.8474691	136.5897508	鈴鹿警察署
090309	53.1697669	7.747253	Polizeikomissariat Barßel
090309	57.283746	-5.7125277	
090309	11.9922426	121.9164101	Police Post
090310	16.7929167	-62.2107662	
090310	16.749273	-62.2226925	Salem Police Station
090310	35.5735734	139.6698876	向河原交番
090310	51.1777031	21.2555189	Komisariat Policji
090311	43.6098976	10.9668526	Vigili Urbani Comunali
090312	40.445511	-3.7121359	Oficina Atención al Ciudadano. Guardia Civil
090313	2.1716399	102.7150393	Balai Polis Panchor
090313	3.1966267	101.7410561	Balai Polis
090313	-32.9387128	151.65883	Cardiff Police Station
090313	50.0752792	14.4550368	Městská policie
090313	48.8108922	14.3152248	Městská policie
090313	46.4607357	6.8443886	Police municipale Vevey
090314	51.6652782	6.7444575	Polizeiwache Hünxe
090314	49.6017866	9.6908213	Autobahnpolizei
090314	49.3521267	6.8078547	
090314	-27.4998108	153.0497206	
090314	51.7454444	-2.214155	
090314	49.7045356	10.8136981	Polizeiinspektion Höchstadt
090315	51.0158632	-4.2051536	
090316	51.5895195	45.9137778	Разрешительная система Ленинского района
090317	50.0920334	14.5334865	
090317	30.3852685	19.6142863	
090318	51.5234	22.31327	Policja
090318	51.41739	21.97456	Policja
090319	44.0792495	-88.5446105	
090319	43.6285138	5.1030642	Gendarmerie
090320	46.6886303	7.6795946	
090321	-27.5574446	152.9627698	Oxley Neighbourhood Police Beat
090321	43.4283523	13.662203	Polizia Stradale
090321	43.4950589	-112.0417416	Law Enforcement Building
090321	39.4679556	-0.464614	Cuartel de la Guardia Civil
090322	43.5798089	7.1198229	Commissariat de Police
090322	51.7679253	-1.1961607	Barton Neighbourhood Police Office
090323	47.8118519	7.6268986	Polizei Müllheim
090323	52.0876596	6.1472865	
090324	1.9590277	102.643733	Balai Polis Parit Jawa
090324	53.8633091	-0.6622801	
090324	50.4102713	-4.1331326	
090324	4.9220616	-75.0611914	
090325	38.6322579	34.911903	
090325	12.9991212	80.200262	B1 Saint Thomas Mount PS
090325	47.1870282	-1.5498263	Gendarmerie
090325	4.4357503	-75.1954568	
090325	55.8723289	-3.0553347	
090326	19.4716696	-70.8172167	Policia National
090326	30.3169162	-89.3451789	Bay St. Louis Police Department
090326	42.1947222	-122.6966667	Ashland Police Station
090326	45.3217991	-118.0949413	La Grande Police Station
090327	36.8119	-114.0587	Police Station and Justice Facility
090327	35.9779	-114.8337	Boulder City Police Station
090327	36.195	-115.1242	North Las Vegas Police Department
090327	36.2218	-115.3099	Las Vegas Metropolitan Police Department Northwest Substation
090327	36.1251	-115.2213	Las Vegas Metropolitan Police Department Southwest Substation
090327	32.2072987	-110.9603692	Arizona State Highway Patrol
090327	33.3536682	-110.4664888	San Carlos Police Station
090327	32.4597929	-111.2345493	Marana Sheriffs Office
090327	32.3833914	-112.8576543	Pima County Sheriffs Office
090327	33.7803083	-113.6118738	Salome Sheriffs Office
090327	31.3957709	76.3724917	DSP nangal office
090328	42.5825004	-99.5362274	Rock County Sheriffs Office
090328	42.9116652	-98.8484229	Boyd County Sheriffs Office
090328	42.5505549	-99.8640125	Brown County Sheriffs Office
090328	42.5483325	-99.8615126	Ainsworth Police Department
090328	42.8244444	-99.7490055	Keya Paha County Sheriffs Office
090328	42.8244444	-99.7490055	Police Department - Springview
090328	41.2911171	-99.924288	Callaway Police Department
090328	41.4047286	-99.6431685	Broken Bow Police Department
090328	42.2050051	-98.7489783	Chambers City Police
090328	42.2577833	-98.3464655	Ewing Police Department
090328	42.5991677	-99.1426014	Stuart Police Department
090328	42.5311134	-98.9784303	Atkinson Police Department
090328	42.4594476	-98.6473094	Holt County Sheriffs Office
090328	42.4550033	-98.6473094	O'Neill Police Department
090328	41.7802843	-99.1350984	Garfield County Sheriffs Office
090328	41.8852859	-98.5523003	Wheeler County Sheriffs Office
090328	41.9388904	-99.8648479	Blaine County Sheriffs Office
090328	41.9388904	-99.8648479	Brewster City Police
090328	42.8302762	-98.4661932	Lynch City Police Department
090328	42.8738877	-98.7014753	Spencer Police Department
090328	41.1158476	-98.0008915	Central City Police Department
090328	40.5255625	-97.6022705	Fillmore County Sheriffs Department
090328	40.7791778	-97.8128278	Henderson Police Department
090328	40.9750104	-97.1725378	Staplehurst Police Department
090328	40.7786191	-97.2822684	Beaver Crossing Police Department
090328	40.4308448	-98.1058806	Fairfield Police Department
090328	40.3708428	-97.971432	Edgar Police Department
090328	40.5216783	-98.0556038	Clay Center Police Department
090328	40.5214005	-98.0550482	Clay County Sheriffs Office
090328	40.5233401	-97.6003261	Geneva Police Department
090328	40.6383402	-97.4447713	Exeter Police Department
090328	40.6061213	-97.8594924	Sutton Police Department
090328	40.6191784	-98.0975514	Harvard Police Department
090328	40.204177	-98.0680979	Nuckolls County Sheriffs Office
090328	40.3030578	-96.9889187	Plymouth Police Department
090328	40.6530617	-97.2853238	Friend Police Dapartment
090328	40.480837	-96.9603063	Wilber Police Department
090328	40.3863903	-95.8433307	Nemaha County Sheriffs Office
090328	40.1080557	-96.1536177	Pawnee County Sheriffs Office
090328	40.1638893	-95.9449985	Humboldt Police Department
090328	40.0622241	-95.6022071	Richardson County Sheriffs Office
090328	40.0633351	-95.6058184	Falls City Police Department
090328	40.3672221	-96.1938977	Tecumseh Police Department
090328	42.276387	-96.7292049	Emerson City Police Department
090328	42.562775	-96.709203	Dixon County Sheriff Office
090328	42.562775	-96.709203	Ponca Police Department
090328	42.2691672	-96.8650419	Wakefield Police Station
090328	42.1130467	-96.3564161	Omaha Travel Police Department
090328	42.1136092	-96.709203	Thurston County Sheriffs Office
090328	40.3863903	-95.8433307	Auburn Police Department
090328	42.4994468	-97.542007	Wausa Police Department
090328	42.5969469	-98.0336814	Verdigre Police Department
090328	40.091958	-98.5211716	Webster County Sheriffs Office
090328	40.3327912	-98.4492257	Blue Hill Police Station
090328	40.5850135	-98.383115	Hastings Police Department
090328	40.091958	-98.5211716	Red Cloud Police Department
090328	40.6569458	-96.1866753	Syracuse Police Department
090328	42.5983353	-97.6467306	Bloomfield Police Department
090328	41.4361105	-96.4972473	Fremont Police Department
090328	42.7288884	-97.4956183	Crofton Police Department
090328	42.4677817	-97.9059006	Creighton Police Department
090328	42.7547231	-98.0286823	Niobrara Police Department
090328	41.6025096	-98.9284211	Valley County Sheriffs Office
090328	41.4233426	-99.126204	Arcadia City Police Department
090328	41.6013985	-98.9289766	Ord Police Department
090328	41.3969577	-98.3942356	Wolbach Police Department
090328	41.2752872	-98.9667532	Sherman County Sheriffs Office
090328	40.4972363	-98.948415	Minden Police Department
090328	41.5486236	-98.5311848	Greeley County Sheriffs Office
090328	40.4972363	-98.948415	Kearney County Sheriff Office
090328	40.587784	-99.8609545	Gosper County Sheriffs Office
090328	40.9236234	-98.3392289	Grand Island Police Department
090328	40.9236234	-98.3392289	Hall County Sheriffs Department
090328	42.1266733	-98.0314554	Neligh Police Station
090328	40.8197357	-98.6034039	Wood River Police Department
090328	42.1313955	-98.027011	Antelope County Sheriffs Office
090328	41.983619	-98.0847884	Elgin Police Department
090328	42.6199993	-97.2642207	Hartington Police Department
090328	42.6199993	-97.2642207	Cedar County Sheriffs Office
090328	42.5061111	-97.2042191	Coleridge Police Department
090328	42.3500044	-97.7897867	Plainview City Police
090328	42.1994477	-97.5245024	Pierce Police Department
090328	42.2005589	-97.5278358	Pierce County Sheriffs Office
090328	42.3600032	-97.5967282	Osmond City Police Department
090328	41.3572342	-98.6325756	Cotesfield Village Police Department
090328	40.7800065	-99.7370599	Lexington Police Station
090328	40.7802843	-99.7406711	Dawson County Sheriffs Office
090328	40.7483472	-98.8453565	Gibbon Police Department
090328	40.6964015	-99.0800878	Kearney Police Department
090328	40.6900126	-99.0828657	Buffalo County Sheriff Department
090328	40.8591739	-99.9834553	Cozad Police Department
090328	40.099733	-99.362876	Harlan County Sheriffs Office
090328	40.0961242	-98.9525807	Franklin Police Department
090328	40.0961242	-98.9525807	Franklin County Sheriffs Department
090328	41.9508395	-97.2217113	Stanton County Sheriffs Office
090328	41.9533395	-97.2217114	Stanton Police Department
090328	40.1388961	-99.8276202	Furnas County Sheriffs Office
090328	40.1350072	-99.8273424	Beaver City Police Department
090328	42.028895	-97.733948	Meadow Grove Police Department
090328	41.8283401	-97.455048	Madison Police Department
090328	41.844451	-97.4553262	Madison County Sheriffs Office
090328	42.0341712	-97.4169965	Norfolk Police Division
090328	42.2397253	-97.0197683	Wayne County Sheriffs Office
090328	41.6941777	-98.0020058	Albion Police Department
090328	41.746954	-97.776166	Newman Grove Police Department
090328	42.2316699	-97.0194904	Wayne Police Department
090328	41.8533427	-98.0786758	Petersburg Police Department
090328	41.6916753	-97.4853241	Humphrey Police Department
090328	41.4300119	-97.3575416	Columbus Police Station
090328	41.4305675	-97.3600417	Platte County Sheriffs Office
090328	41.7255614	-97.0025355	Howells Police Department
090328	41.7036201	-97.2378175	Leigh Police Department
090328	41.1874989	-96.0389051	La Vista Police Department
090328	41.1422211	-96.0377931	Sarpy County Sheriffs Department
090328	41.1572211	-96.0439046	Papillion Police Department
090328	41.1783321	-95.9252907	Bellevue Police Department - Southroads Substation
090328	41.2080544	-95.947514	Omaha Police Department - Southeast Precinct
090328	41.2158322	-96.0858516	Omaha Police Department - Southwest Precinct
090328	41.5402715	-96.135571	Blair Police Department
090328	41.5402715	-96.135571	Washington County Sheriffs Office
090328	41.1369433	-95.8958448	Bellevue Police Department
090328	40.8700007	-96.1405661	Weeping Water Police Department
090328	41.0116659	-95.8836202	Cass County Sheriffs Office
090328	41.0119436	-95.8850091	Plattsmouth Police Department
090328	41.930001	-96.8122579	Beemer Police Department
090328	42.0113838	-96.5725323	Bancroft Police Department
090328	41.8361104	-96.7119765	West Point Police Department
090328	41.9880584	-96.9164278	Wisner Police Department
090328	41.2113915	-96.6203025	Wahoo Police Department
090328	41.0394427	-96.3794569	Ashland Police Department
090328	41.2097249	-96.6230803	Saunders County Sheriffs Department
090328	41.6111089	-96.5480818	Hooper Police Department
090328	41.7222258	-96.8839223	Dodge Police Station
090328	41.4333328	-96.4986363	Dodge County Sheriffs Office
090328	41.6666664	-96.6666956	Scribner Police Department
090328	42.0055435	-96.2497438	Decatur Police Department
090328	41.8391659	-96.710032	Cuming County Sheriffs Office
090328	41.7774885	-96.221684	Tekamah Police Department
090328	41.7788774	-96.2205729	Burt County Sheriffs Office
090328	41.2788873	-96.051684	Omaha Police Department - Northwest Precinct
090328	41.2877769	-96.2897463	Waterloo Police Station
090328	41.2024989	-96.026405	Ralston Police Department
090328	41.3630528	-96.1569635	Bennington Police Department
090328	44.300891	-72.6901147	Vermont State Police
090328	44.4619983	-72.6909511	Stowe Police Department
090328	41.58	-71.5778	Exeter Town Constable
090328	41.6792	-71.2608	Bristol Police Department
090328	41.9642	-71.6426	Burrillville Police Department
090328	41.888	-71.3928	Central Falls Police Department
090328	41.6402	-71.6882	West Greenwich Police Department
090328	41.7291	-71.2811	Warren Police Department
090328	41.703	-71.4584	Warwick Police Department
090328	41.4627	-71.5105	South Kingstown Police Department
090328	41.6386	-71.1856	Tiverton Police Department
090328	41.7354	-71.5591	Scituate Police Department
090328	41.8993	-71.5414	Smithfield Police Department
090328	41.8323	-71.6051	Rhode Island State Police Headquarters
090328	41.5928	-71.2539	Portsmouth Police Department
090328	41.8197	-71.4201	Providence Police Department
090328	41.9834	-71.5183	North Smithfield Police Department
090328	41.8788	-71.3822	Pawtucket Police Department
090328	41.8604	-71.4705	North Providence Police Department
090328	41.4327	-71.4599	Narragansett Police Department
090328	41.5213	-71.2731	Middletown Police Department
090328	41.9297	-71.4416	Lincoln Police Department
090328	41.4934	-71.3773	Jamestown Police Department
090328	41.4596	-71.7688	Hopkinkton Police Department
090328	41.897	-71.6686	Glocester Police Department
090328	41.7831	-71.7207	Foster Police Department
090328	41.8135	-71.352	East Providence Police Department
090328	41.6909	-71.5622	Coventry Police Department
090328	42.0059	-71.5098	Woonsocket Police Department
090329	52.6183908	-1.1757806	Braunstone Police Station
090329	48.1089074	-105.1997039	Poplar Police Department
090329	48.1461313	-104.5174551	Culbertson Police Department
090329	46.2916544	-107.2333965	Treasure County Sheriff
090329	48.5925001	-109.2287848	Chinook Police Department
090329	47.06414	-109.4237934	Lewistown Police Department
090329	45.6016413	-107.4611944	Crow Agency Police Department
090329	45.7316445	-107.6084201	Hardin Police Department
090329	45.7316445	-107.6084201	Big Horn County Sheriffs Office
090329	47.716128	-104.1588254	Sidney Police Department
090329	47.716128	-104.1588254	Richland County Sheriff Department
090329	47.8536297	-104.046044	Fairview Police Department
090329	45.8902758	-104.5488409	Ekalaka Police Department
090329	46.3605611	-104.2763293	Fallon County Sheriffs Office
090329	46.9858468	-104.1885469	Wibaux County Sheriff
090329	46.3605611	-104.2763293	Baker Police Department
090329	48.1785915	-110.1121523	Big Sandy Police Department
090329	48.2560992	-109.7882573	Chippewa Cree Police Department
090329	44.6582605	-111.1007757	West Yellowstone Police Department
090329	45.6410519	-109.2534947	Columbus Police Department
090329	45.6410519	-109.2534947	Stillwater County Sheriff Department
090329	45.1888338	-109.2465433	Carbon County Sheriffs Department
090329	45.1888338	-109.2465433	Red Lodge Police Department
090329	48.1955148	-114.311797	Kalispell Police Department
090329	47.52799	-114.1009457	Ronan Police Station
090329	47.3199306	-114.0939979	Saint Ignatius Police Department
090329	46.5860453	-112.0363868	Helena Police Department
090329	46.5896567	-111.9155461	East Helena Police Department
090329	48.1894033	-114.3109635	Flathead County Sheriffs Department
090329	48.8791314	-115.052389	Eureka Police Department
090329	48.4629986	-115.8907278	Troy Police Department
090329	46.5860453	-112.0363868	Lewis and Clark County Sheriffs Office
090329	47.1929827	-114.8901312	Mineral County Sheriff Department
090329	48.3902307	-115.5518321	Libby Police Department
090329	48.3916195	-115.5540545	Lincoln County Sheriff Department
090329	47.6091041	-114.6687414	Hot Springs Police Department
090329	47.5971572	-115.3443198	Thompson Falls Police Department
090329	46.8743682	-113.9953871	Missoula Police Department
090329	45.8707598	-112.1036056	Whitehall Police Department
090329	47.5971572	-115.3443198	Sanders County Sheriffs Office
090329	47.508291	-111.3002524	Cascade County Office of Sheriff
090329	47.811342	-112.1833522	Choteau Police Department
090329	47.6152289	-111.9780562	Fairfield Police Department
090329	45.2932587	-111.9447021	Madison County Sheriffs Office
090329	46.0113153	-112.5403006	Butte Police Department
090329	46.0113153	-112.5403006	Butte-Silver Bow Sheriffs Department
090329	47.691883	-114.1609496	Lake County Sheriffs Office
090329	47.6952165	-114.1620607	Polson Police Department
090329	46.3993719	-112.7319828	Powell County Sheriffs Office
090329	37.3452738	-108.2898043	Mancos Police Station
090329	40.0186572	-105.2505436	Boulder Police Department
090329	40.0858172	-104.9366437	Dacono Town Police Department
090329	40.0580411	-106.3791974	Kremmling Police Department
090329	39.4527559	-108.0445192	Parachute Police Department
090329	40.0088723	-104.7163569	Lochbuie Police Department
090329	40.0830389	-104.8113607	Weld County Sheriff Office
090329	40.0797056	-104.8124719	Fort Lupton Police Department
090329	40.0988728	-104.9377548	Frederick Police Department
090329	39.7992895	-105.5131823	Central City Police Department
090329	39.6508498	-105.1939798	Morrison Police Department
090329	39.7745067	-105.0552	Mountain View Police Department
090329	39.7566822	-105.2242866	Golden Police Department
090329	39.6064	-104.9032899	Greenwood Village Police Department
090329	39.6370796	-104.9581621	Cherry Hills Village Police Department
090329	39.61767	-105.01404	Littleton Police Department
090329	39.9096018	-104.9884025	Northglenn Police Department
090329	40.01423	-105.28812	Boulder County Sheriff's Office Headquarters
090329	39.7372405	-104.9923574	Denver Police Department Headquarters
090329	39.7316387	-105.2017592	Jefferson County Sheriff's Office Headquarters
090329	39.7714357	-104.9217317	Denver Police Department District 2 Substation
090329	39.5799261	-104.8375784	Arapahoe County Sheriff's Office Headquarters
090329	39.7376448	-104.9926253	Denver Sheriff Department Pre - Arraignment Detention Facility
090329	39.7268783	-105.1073983	Colorado State Patrol Headquarters
090329	39.5692601	-105.1278546	Jefferson County Sheriff's Office South Precinct
090329	39.8424592	-104.9234559	Colorado State Patrol Adams County Troop Office 1D
090329	39.1420508	-104.0834407	Simla Police Department
090329	39.8008401	-105.5109289	Colrado State Patrol Gilpin County Gaming Post
090329	39.8027951	-105.0877509	Arvada Police Department Headquarters
090329	39.7531289	-105.0616543	Edgewater Police Department
090329	39.6126518	-105.008025	Arapahoe County Sheriff's Office Littleton Substation
090329	39.7518096	-104.3201663	Adams County Sheriff's Office Strasburg Substation
090329	39.8392488	-105.4822799	Gilpin County Sheriff's Office
090329	39.3461992	-104.4631553	Kiowa Police Department
090329	39.9876511	-104.7987445	Adams County Sheriff's Office Headquarters
090329	39.3590328	-104.5954709	Elizabeth Police Department
090329	39.8283491	-104.9384697	Adams County Sheriff's Office Patrol Division
090329	39.6990531	-104.9360224	Glendale Police Department
090329	39.6782	-105.0197599	Denver Police Department District 4 Substation
090329	39.8027632	-105.0877707	Arvada Police Chief
090329	39.7607745	-105.6828623	Empire Police Department
090329	39.6065315	-105.0346599	Columbine Valley Police Department
090329	39.7179727	-104.2194093	Arapahoe County Sheriff's Office Byers Substation
090329	39.7061391	-105.6958033	Georgetown Police Department
090329	39.7336562	-105.1746174	Colorado State Patrol District 6 Golden Office
090329	42.7183176	-102.4640647	Sheridan County Sheriffs Office
090329	41.0930442	-102.4710223	Deuel County Sheriffs Office
090329	42.8755611	-100.5509669	Valentine Police Department
090329	42.8072196	-102.204329	Gordon Police Department
090329	42.7183176	-102.4640647	Rushville Police Department
090329	41.2352584	-103.6618855	Kimball County Sheriff Office
090329	41.5563636	-103.7385564	Banner County Sheriffs Office
090329	42.8761166	-100.5509669	Cherry County Sheriffs Office
090329	41.7549697	-103.3241025	Bayard Police Department
090329	41.6580287	-103.0999309	Bridgeport City Police Department
090329	41.1433178	-102.9774229	Cheyenne County Sheriffs Office
090329	41.1433178	-102.9774229	Sidney Police Department
090329	41.1361093	-100.7637566	Lincoln County Sheriffs Office
090329	41.1422203	-100.7618122	North Platte Police Department
090329	40.5108385	-101.0196016	Hayes Center Police Department
090329	40.5108385	-101.0196016	Hayes County Sheriffs Office
090329	42.0005407	-101.7618438	Grant County Sheriffs Office
090329	41.5716538	-101.691565	Arthur County Sheriff Office
090329	41.552772	-100.9576549	McPherson County Sheriff Office
090329	41.1288813	-101.7193407	Keith County Sheriffs Office
090329	41.1258258	-101.7151738	Ogallala Police Department
090329	41.1244381	-101.3571095	Paxton Police Department
090329	40.1763873	-101.0101601	Hitchcock County Sheriffs Office
090329	40.1763873	-101.0101601	Trenton City Police
090329	40.1983366	-100.6323744	McCook Police Department
090329	40.2022255	-100.6262632	Red Willow County Sheriffs Office
090329	40.0508281	-101.5334999	Benkelman Police Department
090329	40.6316748	-100.5151448	Frontier County Sheriffs Office
090329	40.4183299	-101.3712753	Wauneta Police Department
090329	40.0508281	-101.5334999	Dundy County Sheriffs Office
090329	40.5169402	-101.6432253	Imperial Police Department
090329	40.5205514	-101.6443364	Chase County Sheriffs Office
090329	41.8230239	-103.6607773	Gering Police Department
090329	41.9632982	-103.9263362	Morrill Police Department
090329	41.8094127	-103.5038293	Minatare Police Department
090329	42.7033018	-103.4124228	Crawford Police Department
090329	42.8271964	-103.0012959	Dawes County Sheriff Department
090329	41.8263572	-103.6607773	Scotts Bluff County Sheriff Office
090329	42.3221843	-103.0749202	Hemingford Police Department
090329	42.0994122	-102.8690894	Alliance Police Department
090329	41.9402435	-103.8085573	Mitchell Police Department
090329	41.9171885	-104.0391159	Lyman Police Department
090329	42.6871883	-103.8827115	Harrison Police Department
090329	42.6871883	-103.8827115	Sioux County Sheriffs Department
090329	42.608891	-97.8774885	Center Village Police Department
090329	42.6089858	-97.8775056	Knox County Sheriffs Office
090329	41.4219462	-100.1956871	Arnold Police Department
090329	40.9277845	-100.1629047	Gothenburg Police Department
090329	40.2819509	-100.1656922	Cambridge Police Department
090329	56.3508619	-3.2400335	
090329	38.6849702	-75.3962214	Sussex County Sheriff's Office
090329	39.1189144	-75.559099	Wyoming Police Department
090329	38.6905692	-75.0749899	Dewey Beach Police Department
090329	39.6706267	-75.5613279	New Castle City Police Department
090329	39.7151317	-75.6099423	Newport Police Department
090329	39.15496	-75.52863	Dover Police Department
090329	39.76708	-75.5872229	Westover Hills Police Department
090329	38.6338813	-75.6098309	Blades Police Department
090329	38.9165954	-75.4206002	Milford Police Department
090329	39.0112136	-75.5749875	Felton Police Department
090329	39.5735629	-75.5936625	Delaware City Police Department
090329	38.5920597	-75.2914089	Millsboro Police Department
090329	39.2908297	-75.6342805	Clayton Police Department
090329	39.1136237	-75.5434595	Camden Police Department
090329	38.7774825	-75.3100804	Milton Police Department
090329	38.6533551	-75.6143503	Seaford Police Department
090329	39.299816	-75.6140772	Smyrna Police Department
090329	38.5556046	-75.5725111	Laurel Police Department
090329	38.4578943	-75.0524607	Fenwick Island Police Department
090329	38.5481727	-75.2450252	Dagsboro Police Department
090329	38.8060237	-75.4247037	Ellendale Police Department
090329	38.4571113	-75.2269998	Selbyville Police Department
090329	39.74547	-75.5462561	New Castle County Sheriff's Office
090329	38.9244233	-75.5791539	Harrington Police Department
090329	38.7589901	-75.5931828	Delaware State Police Troop 5
090329	39.7694855	-75.5037048	Delaware State Police Troop 1
090329	38.7486362	-75.1600415	Delaware State Police Troop 7
090329	39.4561626	-75.6596966	Delaware State Police Troop 9
090329	39.0085596	-75.4655994	Frederica Police Department
090329	39.0898797	-75.5579444	Delaware State Police Troop 3
090329	38.7815	-75.1217	Delaware River and Bay Authority Police Station
090329	39.8356	-75.5312	Delaware State Police Satellite 1A Police Department
090329	52.0049784	-95.475327	Royal Canadian Mounted Police Little Grand Rapids Detachment
090329	38.3668134	-95.1305644	Greeley City Marshal's Office
090329	39.1125978	-98.6923628	Luray City Marshal's Office
090329	38.0707711	-95.366512	Colony City Marshal's Office
090329	38.0832247	-95.155107	Kincaid City Marshal's Office
090329	39.3616471	-101.3752266	Brewster City Marshal's Office
090329	38.0245063	-97.6711634	Burrton Police Department
090329	37.2849911	-100.3481044	Meade Police Department
090329	37.8816654	-95.733181	Woodson County Sheriff's Office
090329	39.8211599	-100.529654	Oberlin Police Department
090329	37.6783119	-97.0798051	Kansas Highway Patrol Troop F - Butler
090329	38.4813257	-100.4651637	Lane County Sheriff's Office
090329	39.3447613	-95.4580042	Valley Falls Police Department
090329	39.4903693	-96.1688572	Onaga Police Department
090329	37.5451517	-97.2711412	Derby Police Department
090329	37.8396184	-97.3653972	Valley Center Police Department
090329	39.6597475	-95.5255373	Horton Police Department
090329	39.1180759	-94.7646097	Kansas City Kansas Police Training Academy
090329	37.6861537	-97.2617323	Eastborough Police Department
090329	37.5771843	-97.1364276	Rose Hill Police Department
090329	37.1506726	-98.0318223	Anthony Police Department
090329	39.0587453	-94.8850838	Bonner Springs Police Department
090329	38.7788599	-95.5572972	Overbrook Police Department
090329	39.3661006	-99.842309	Hill City Police Department
090329	39.0265901	-99.8827943	Wakeeney Police Department
090329	37.2798195	-98.5778528	Barber County Sheriff's Department
090329	38.5302181	-99.3111842	Rush County Sheriff's Office
090329	37.9170045	-95.169701	Moran Police Department
090329	37.8394969	-94.7078596	Bourbon County Sheriff's Department
090329	39.7864272	-95.0906282	Troy Police Department
090329	37.0760763	-94.6406568	Galena Police Department
090329	37.9823563	-101.7522682	Hamilton County Sheriff's Office
090329	38.8967873	-101.7520898	Wallace County Sheriff's Department
090329	38.8192598	-95.691827	Carbondale Police Department
090329	37.7882555	-97.1076511	Benton Police Department
090329	38.5064931	-95.6382734	Melvern Police Department
090329	37.5210847	-97.0042696	Douglass United School District 396 Police Department
090329	37.2407627	-98.2254378	Attica Police Department
090329	39.1267348	-100.8529667	Oakley Police Department
090329	37.7947243	-96.99396	Circle Unified School District 375 Police Department
090329	38.9573971	-94.8638184	Lenexa Police Department Substation
090329	37.6832791	-96.7878718	Blue Stem Unified School District 205 Police Department
090329	38.9856611	-94.7814152	Johnson County Park Police
090329	38.8650189	-94.8085066	Kansas Highway Patrol Troop A Headquarters
090329	39.1269322	-100.8616643	Logan County Sheriff's Department
090329	38.2426841	-96.9266162	Florence Police Department
090329	37.5729169	-95.2396334	Neosho County Sheriff's Department
090329	38.194277	-95.74205	Coffey County Sheriff's Office
090329	37.5646151	-97.3541335	Haysville Police Department
090329	38.0841009	-99.8931524	Hodgeman County Sheriff's Office
090329	37.5471324	-95.822287	Wilson County Sheriff's Office
090329	38.7109963	-98.157636	Kanopolis Police Department
090329	37.39054	-97.6444347	Conway Springs Police Department
090329	39.7883613	-98.2103656	Jewell County Sheriff's Department
090329	37.03277	-97.6075896	Caldwell Police Department
090329	38.142144	-94.8108905	Linn County Sheriff's Department
090329	39.0104349	-94.7234082	Shawnee Police Department
090329	39.0438071	-94.6122982	Westwood Police Department
090329	38.7461038	-94.8278596	Spring Hill Police Department
090329	38.8391	-94.9048	Johnson County Sheriffs Operation Center
090329	39.0338507	-94.6169136	Fairway Police Department
090329	38.0008825	-98.7600036	Stafford County Sheriff's Department
090329	38.1474105	-98.0823343	Nickerson Police Department
090329	37.5685726	-95.243675	Erie Police Department
090329	37.15357	-98.0294724	Harper County Sheriff's Department
090329	37.1796245	-101.3427162	Hugoton Police Department
090329	39.7763801	-98.7862812	Smith Center Police Department
090329	39.1094442	-95.086109	Tonganoxie Police Department
090329	38.5731528	-97.6732842	Lindsborg Police Department
090329	38.2313944	-97.7762225	Inman Police Department
090329	37.2235361	-95.703421	Montgomery County Sheriff's Office
090329	37.2864165	-98.0277154	Harper Police Department
090329	37.2642013	-97.7651418	Argonia Police Department
090329	38.9540374	-94.6150384	Leawood Police Department
090329	39.0502109	-94.7697198	Lake Quivira Police Department
090329	39.0188912	-94.6541192	Mission Police Department
090329	38.9721061	-94.729175	Lenexa Police Department
090329	38.8668065	-94.8142928	Olathe Police Department
090329	39.0176903	-94.69	Merriam Police Department
090329	38.9892059	-94.6307216	Prairie Village Police Department
090329	39.8171885	-97.0492936	Washington County Sheriff's Department
090329	39.3682466	-99.8414833	Graham County Sheriff's Office
090329	37.6577152	-97.5745502	Goddard Police Department
090329	37.4696095	-96.2613538	Elk County Sheriff's Office
090329	37.3872315	-97.1170214	Udall Police Department
090329	38.0836682	-95.6341087	Leroy Police Department
090329	39.4168065	-95.3322405	Nortonville Police Department
090329	38.3730426	-97.6841662	McPherson County Sheriff's Office
090329	39.4357508	-99.2740398	Stockton Police Department
090329	37.6814364	-97.2706566	Wichita Police Department - East
090329	39.7861928	-95.0889684	Doniphan County Sheriff's Department
090329	38.5341473	-99.310064	La Crosse Police Department
090329	38.8445625	-97.6139808	Salina Police Department
090329	39.5913924	-97.39724	Clyde Police Department
090329	39.0310922	-96.8279663	Geary County Sheriff's Department
090329	37.8109131	-95.4377911	Humboldt Police Department
090329	39.8081383	-101.0396244	Rawlins County Sheriff's Office
090329	37.2409409	-96.995585	Winfield Police Department
090329	39.8232663	-97.6317928	Belleville Police Department
090329	37.6802794	-95.4521107	Chanute Police Department
090329	38.6187161	-95.6863982	Osage County Sheriff's Office
090329	39.8071614	-101.0436971	Atwood Police Department
090329	39.2168469	-95.313449	Oskaloosa Police Department
090329	39.5659357	-95.1198056	Atchison County Sheriff's Department
090329	37.1924239	-95.2967635	Altamont Police Department
090329	38.9036957	-97.1169999	Enterprise Police Department
090329	39.1058258	-95.8603376	Silver Lake Police Department
090329	37.5310783	-95.8344329	Fredonia Police Department
090329	38.7160693	-95.0822902	Wellsville Police Department
090329	39.2079711	-95.3110844	Jefferson County Sheriff's Office
090329	38.4988945	-94.948379	Osawatomie Police Department
090329	38.3537825	-98.3497923	Chase Police Department
090329	37.2736908	-99.3283886	Comanche County Sheriff's Department
090329	37.0476115	-97.4015167	South Haven Police Department
090329	39.84143	-96.6500869	Marysville Police Department
090329	39.823258	-97.6301081	Republic County Sheriff's Department
090329	37.1284093	-96.1873384	Chautauqua County Sheriff's Department
090329	37.3429716	-94.8205747	Cherokee Police Department
090329	37.2671202	-97.3971018	Wellington Police Department
090329	37.6928621	-97.3390132	Wichita Police Department Headquarters
090329	38.8889201	-98.858213	Russell County Sheriff's Department
090329	38.7743657	-95.1892046	Baldwin City Police Department
090329	38.2012865	-97.5193459	Moundridge Police Department
090329	38.8262755	-98.4749252	Wilson Police Department
090329	38.9155799	-97.213339	Dickinson County Sheriff's Department
090329	37.96241	-98.6008167	Stafford Police Department
090329	37.6423835	-98.1114153	Kingman Police Department
090329	39.8413914	-96.6422996	Marshall County Sheriff's Department
090329	37.1781633	-101.3460848	Stevens County Sheriff's Office
090329	38.3463955	-98.2241623	Rice County Sheriff's Department
090329	37.1871553	-99.7677378	Clark County Sheriff's Office
090329	39.9031301	-95.800361	Sabetha Police Department
090329	38.4777621	-101.3579662	Wichita County Sheriff's Department
090329	38.4149195	-95.8596352	Lebo Police Department
090329	39.8526799	-95.5326842	Hiawatha Police Department
090329	39.5718163	-97.6651542	Concordia Police Department
090329	37.7532887	-100.0014728	Ford County Sheriff's Office
090329	37.01725	-98.477952	Kiowa Police Department
090329	39.4611169	-95.7470908	Jackson County Sheriff's Office
090329	37.17057	-94.8397086	Columbus Police Department
090329	38.4537199	-99.9138576	Ness County Sheriff's Department
090329	37.7016196	-97.1359787	Andover Police Department
090329	39.1975763	-95.2080132	Mclouth Police Department
090329	39.8369998	-96.064406	Seneca Police Department
090329	39.9246287	-95.5594825	Sac and Fox Tribal Police Department
090329	38.7533625	-95.8342086	Burlingame Police Department
090329	37.3051744	-94.7703423	Weir Police Department
090329	37.6494073	-97.3364279	Wichita Police Department - South
090329	37.4553216	-94.6884842	Frontenac Police Department
090329	37.7757585	-97.4690128	Maize USD Number 266 Police Department
090329	39.3482699	-101.7136325	Goodland Police Department
090329	39.7739001	-101.7994952	Saint Francis Police Department
090329	38.847566	-99.1481915	Victoria Police Department
090329	39.8285941	-99.8876491	Norton County Sheriff's Office
090329	39.6676742	-95.6536594	Kickapoo Tribal Police Department
090329	37.1657433	-95.1078876	Labette County Sheriff's Department
090329	37.4137798	-94.7066526	Pittsburg Police Department
090329	39.2015146	-96.3060474	Wamego Police Department
090329	37.5122505	-94.864466	Crawford County Sheriff's Office
090329	39.85213	-95.537766	Brown County Sheriff's Department
090329	37.4794349	-100.8428147	Haskell County Sheriff's Department
090329	38.2801661	-95.2429398	Garnett Police Department
090329	38.1897332	-95.7369626	Burlington Police Department
090329	37.0244508	-94.7357874	Baxter Springs Police Department
090329	38.1684231	-94.7132836	Pleasanton Police Department
090329	37.1663232	-95.1078366	Oswego Police Department
090329	37.2683645	-95.55156	Cherryvale Police Department
090329	37.223663	-95.7049436	Independence Police Department
090329	37.9003405	-97.7822735	Haven Police Department
090329	37.6275557	-97.7814027	Cheney Police Department
090329	38.6205598	-94.6798108	Louisburg Police Department
090329	39.3553652	-100.4441966	Sheridan County Sheriff's Department
090329	39.1372166	-94.9392904	Basehor Police Department
090329	38.3286547	-94.9929756	Parker Police Department
090329	37.7913589	-97.6298737	Andale Police Department
090329	38.2107887	-98.2064987	Sterling Police Department
090329	37.7945456	-97.3166937	Park City Police Department
090329	38.6106527	-95.6848252	Lyndon Police Department
090329	37.9878131	-100.9908936	Holcomb Police Department
090329	38.8733788	-99.3307539	Hays Police Department
090329	39.2346986	-99.3006851	Plainville Police Department
090329	37.0411056	-100.9206844	Liberal Police Department
090329	37.9155486	-95.2995011	La Harpe Police Department
090329	37.7784503	-97.2488445	Bel Aire Police Department
090329	38.5722811	-94.8768688	Paola Police Department
090329	39.3141136	-94.9108867	Leavenworth Police Department
090329	37.8180061	-96.8480188	El Dorado Police Department
090329	37.7547591	-100.0175459	Dodge City Police Department
090329	37.3151703	-96.7536778	Burden Police Department
090329	37.5508571	-99.6345383	Bucklin Police Department
090329	38.7310347	-98.2314645	Ellsworth County Sheriff's Department
090329	38.553881	-97.8342392	Marquette Police Department
090329	37.9427043	-101.2560134	Kearny County Sheriff's Department
090329	39.9890177	-95.3685338	Iowa Tribal Police Department
090329	37.289357	-97.3897969	Sumner County Sheriff's Department - Sumner County Law Enforcement Center
090329	39.0409791	-98.1447695	Lincoln County Sheriff's Office
090329	37.9225507	-95.4038589	Allen County Sheriff's Department
090329	37.8170167	-96.8507944	Butler County Sheriff's Office
090329	39.2015158	-96.3060474	Kansas Highway Patrol Troop B - Pottawatomie
090329	38.6187192	-95.686404	Kansas Highway Patrol Troop B - Osage
090329	38.3640905	-98.7672156	Great Bend Police Department
090329	38.4178709	-96.1790408	Kansas Highway Patrol Troop H - Lyon
090329	39.836999	-96.064406	Nemaha County Sheriff's Department
090329	38.3588093	-97.2057218	Kansas Highway Patrol Troop C - Marion
090329	37.8216681	-96.2944903	Kansas Highway Patrol Troop H - Greenwood
090329	37.6077012	-99.2825165	Kansas Highway Patrol Troop E - Kiowa
090329	37.7670693	-97.2982099	Kansas Highway Patrol Troop F Headquarters
090329	38.871372	-98.858932	Kansas Highway Patrol Troop D - Russell
090329	38.0008825	-98.7600036	Kansas Highway Patrol Troop F - Stafford
090329	37.5471324	-95.8222963	Kansas Highway Patrol Troop H - Wilson
090329	39.0409805	-98.1447753	Kansas Highway Patrol Troop C - Lincoln
090329	39.8417501	-96.6330694	Kansas Highway Patrol Troop C - Marshal
090329	39.0316926	-96.8270976	Junction City Police Department
090329	38.9124463	-94.7317372	Overland Park Police Department
090329	37.92341	-95.4049332	Iola Police Department
090329	37.3617901	-96.3025016	Moline Police Department
090329	39.1935519	-96.0741231	Saint Mary's Police Department
090329	38.4004722	-98.0102892	Little River Police Department
090329	39.56327	-95.1195609	Atchison Police Department
090329	38.2781933	-95.2555663	Anderson County Sheriff's Department
090329	38.8932652	-98.856466	Russell Police Department
090329	37.1059775	-96.4990143	Cedar Vale Police Department
090329	37.7222446	-97.3008336	Wichita Police Department - North
090329	39.6823539	-96.659043	Blue Rapids Police Department
090329	38.3470659	-97.0195472	Marion County Sheriff's Department
090329	38.6139728	-95.2682725	Franklin County Sheriff's Office
090329	37.6942569	-97.405088	Wichita Police Department - West
090329	39.1226563	-97.7074824	Minneapolis Police Department
090329	39.46314	-95.738	Holton Police Department
090329	38.3544475	-98.583779	Ellinwood Police Department
090329	38.5231841	-98.532777	Claflin Police Department
090329	38.9396747	-99.561245	Ellis Police Department
090329	38.1781037	-99.0987328	Larned Police Department
090329	38.1366332	-97.7708338	Buhler Police Department
090329	38.0024671	-97.5064065	Halstead Police Department
090329	39.0562907	-94.8217645	Edwardsville Police Department
090329	37.4171911	-95.6790006	Neodesha Police Department
090329	37.2870791	-100.3390181	Meade County Sheriff's Office
090329	39.3506945	-101.7100069	Sherman County Sheriff's Office
090329	38.5063492	-96.2625152	Americus Police Department
090329	39.2373069	-94.8991513	Lansing Police Department
090329	38.1429294	-94.8103995	Mound City Police Department
090329	38.9581293	-100.4881985	Gove County Sheriff's Department
090329	39.4586947	-98.1080753	Beloit Police Department
090329	37.4577599	-97.8488384	Norwich Police Department
090329	39.7762977	-98.7815457	Smith County Sheriff's Office
090329	37.6044381	-99.2909452	Kiowa County Sheriff's Office
090329	38.3464767	-94.7630413	La Cygne Police Department
090329	38.3480238	-98.2000524	Lyons Police Department
090329	38.6161736	-95.2772518	Ottawa Police Department
090329	38.0728686	-97.34561	North Newton Police Department
090329	39.7594871	-94.9468976	Wathena Police Department
090329	38.0027535	-98.7611658	Saint John Police Department
090329	39.5687469	-97.6597272	Cloud County Sheriff's Department
090329	37.5445425	-94.6967464	Arma Police Department
090329	37.6580698	-97.6843135	Garden Plain Police Department
090329	37.0374657	-95.6160586	Coffeyville Police Department
090329	38.3670204	-96.5383555	Chase County Sheriff's Department
090329	39.3546101	-100.4415335	Hoxie Police Department
090329	37.8689751	-97.6659392	Mount Hope Police Department
090329	37.5111004	-94.8414634	Girard Police Department
090329	39.8284534	-99.8866955	Norton Police Department
090329	39.7571137	-94.8758768	Elwood Police Department
090329	38.5135001	-98.7767531	Hoisington Police Department
090329	39.5088196	-98.4313199	Cawker City Police Department
090329	39.4587005	-98.1080754	Mitchell County Sheriff's Department
090329	39.216476	-97.0180232	Wakefield Police Department
090329	37.1274231	-96.1871772	Sedan Police Department
090329	39.8191798	-100.5284003	Decatur County Sheriff's Office
090329	37.01189	-95.9352992	Caney Police Department
090329	39.0607957	-94.6674428	Kansas City Kansas Police Department South Patrol
090329	38.18195	-99.0991066	Pawnee County Sheriff's Office
090329	37.2031216	-99.4851332	Protection Police Department
090329	37.0362421	-95.0897318	Chetopa Police Department
090329	37.0430691	-100.9206782	Seward County Sheriff's Department
090329	38.9744635	-94.6868394	Overland Park Police Department
090329	39.4370447	-99.2740772	Rooks County Sheriff's Department
090329	37.6944233	-97.3386169	Sedgwick County Sheriff's Office
090329	39.7499069	-101.5319003	Cheyenne County Sheriff Department Substation - Bird City
090329	37.88166	-95.7316459	Yates Center Police Department
090329	37.1791902	-96.7174799	Dexter Police Department
090329	38.3658711	-98.7632732	Barton County Sheriff's Department
090329	38.5864034	-98.4115246	Holyrood Police Department
090329	39.0316362	-96.7972772	Grandview Plaza Police Department
090329	39.6927591	-96.7479468	Waterville Police Department
090329	38.7304643	-98.2311555	Ellsworth Police Department
090329	39.7016557	-96.4183847	Frankfort Police Department
090329	38.3917769	-95.6004807	Waverly Police Department
090329	39.1132016	-94.627323	Wyandotte County Sheriff's Department
090329	38.6797474	-97.6017026	Assaria Police Department
090329	37.7963803	-97.0026335	Towanda Police Department
090329	37.821663	-96.2944902	Greenwood County Sheriff's Department
090329	37.4761287	-97.2451939	Mulvane Police Department
090329	37.2235361	-95.703421	Montgomery County Sheriff's Office Jail
090329	37.1781633	-101.3460848	Stevens County Sheriff's Office Jail
090329	39.3682466	-99.8414833	Graham County Sheriff's Office Jail
090329	37.4696095	-96.2613538	Elk County Sheriff's Office Jail
090329	38.3658711	-98.7632732	Barton County Sheriff's Department Jail
090329	37.6044381	-99.2909452	Kiowa County Sheriff's Office Jail
090329	37.5729169	-95.2396334	Neosho County Sheriff's Department Jail
090329	38.7310347	-98.2314645	Ellsworth County Sheriff's Department Jail
090329	38.4813257	-100.4651637	Lane County Sheriff's Office Jail
090329	37.7532887	-100.0014728	Ford County Sheriff's Office Jail
090329	37.9225507	-95.4038589	Allen County Sheriff's Department Correctional Facility
090329	38.9155799	-97.213339	Dickinson County Sheriff's Department Jail
090329	37.5122505	-94.864466	Crawford County Sheriff's Office Jail
090329	38.2781933	-95.2555663	Anderson County Sheriff's Department Jail
090329	37.5471324	-95.822287	Wilson County Sheriff's Office Jail
090329	37.8394969	-94.7078596	Bourbon County Sheriff's Department Jail
090329	37.821663	-96.2944902	Greenwood County Sheriff's Department Jail
090329	38.194277	-95.74205	Coffey County Sheriff's Office Jail
090329	39.4587005	-98.1080754	Mitchell County Sheriff's Department Jail
090329	39.823258	-97.6301081	Republic County Sheriff's Department Jail
090329	39.8081383	-101.0396244	Rawlins County Sheriff's Office Jail
090329	39.5659357	-95.1198056	Atchison County Sheriff's Department Jail
090329	37.1871553	-99.7677378	Clark County Sheriff's Office Jail
090329	37.15357	-98.0294724	Harper County Sheriff's Department Jail
090329	38.3441964	-94.8520794	Prairie View High School Unified School District 362 Police Office
090329	39.4611133	-95.7470898	Kansas Highway Patrol Troop B - Jackson
090329	38.6195363	-94.7506712	Kansas Highway Patrol Troop A - Miami
090329	39.5687469	-97.6597272	Cloud County Sheriff's Department Jail
090329	38.3670204	-96.5383555	Chase County Sheriff's Department Jail
090329	39.1269383	-100.8616663	Kansas Highway Patrol Troop D - Logan
090329	38.2795866	-95.2428564	Kansas Highway Patrol Troop H - Anderson County
090329	38.0897735	-96.8860031	Burns Police Department
090329	39.8370005	-96.064406	Kansas Highway Patrol Troop B - Nemaha
090329	39.5598372	-95.1475477	Kansas Highway Patrol Troop B - Atchison County
090329	38.3578235	-98.7746082	Kansas Highway Patrol Troop F - Barton
090329	38.530218	-99.3111842	Kansas Highway Patrol Troop E - Rush
090329	37.9225507	-95.4038684	Kansas Highway Patrol Troop H
090329	37.8851911	-97.5162209	Bentley Police Department
090329	39.3141148	-94.9108855	Leavenworth County Sheriff's Office
090329	37.2871331	-98.5870719	Kansas Highway Patrol Troop F - Barber
090329	39.7828355	-95.097459	Kansas Highway Patrol Troop B - Doniphan
090329	39.0063852	-94.73261	Shawnee Mission Northwest High School Police Department
090329	39.2741025	-97.7669033	Delphos Police Department
090329	37.6545303	-97.5768034	Goddard Unified School District 265 Police Office
090329	39.0208068	-94.6716334	Shawnee Mission North High School Police Department
090329	38.9973003	-94.6856772	Shawnee Mission School District Police Department Headquarters
090329	38.9372059	-94.653752	Shawnee Mission South High School Police Department
090329	37.7966761	-97.2828945	Kechi Police Department
090329	37.7197705	-97.2902293	Wichita State University Police Department
090329	37.504355	-97.5053661	Clearwater Police Department
090329	37.7796667	-97.5368978	Colwich Police Department
090329	37.9176918	-97.424889	Sedgwick Police Department
090329	38.9762123	-94.6888978	Shawnee Mission West High School Police Department
090329	38.3730374	-97.6841506	McPherson Police Department
090329	38.3692964	-97.6369788	Kansas Highway Patrol Troop C
090329	37.3931599	-97.2763299	Belle Plaine Police Department
090329	37.3942801	-94.7002878	Pittsburg State University Police Department
090329	38.3832407	-97.9103836	Windom Police Department
090329	37.6432976	-94.6258363	Arcadia Police Department
090329	38.0575899	-97.3276727	Kansas Highway Patrol Troop F
090329	39.1159887	-94.627075	Kansas City Kansas Police Department Midtown Patrol Headquarters
090329	39.0738877	-95.3935759	Perry Police Department
090329	37.5566874	-94.6215496	Mulberry Police Department
090329	38.02822	-97.9391794	South Hutchinson Police Department
090329	37.2831432	-94.926277	West Mineral Police Department
090329	37.6424793	-98.1114153	Kingman County Sheriff's Office
090329	37.15357	-98.0295884	Kansas Highway Patrol Troop F
090329	39.3191101	-95.2695511	Winchester Police Department
090329	39.3378365	-95.7238458	Mayetta Police Department
090329	37.9602608	-100.8443594	Kansas Highway Patrol Troop E Headquarters
090329	39.4338923	-99.2777838	Kansas Highway Patrol Troop D - Zone C
090329	38.859721	-96.1075754	Eskridge Police Department
090329	39.0821484	-96.0270545	Maple Hill Police Department
090329	39.2485208	-95.704666	Hoyt Police Department
090329	37.6484942	-98.099632	Kansas Highway Patrol Troop F
090329	39.337095	-101.7018561	Kansas Highway Patrol Goodland Zone Office
090329	39.7985729	-97.6530349	Kansas Highway Patrol Troop C - Zone M
090329	37.6668913	-95.458076	Kansas Highway Patrol Troop H - Headquarters
090329	39.3775812	-101.0528902	Colby Community College Campus Security
090329	39.0265901	-99.8827824	Trego County Sheriff's Department
090329	37.2696694	-99.3255385	Coldwater Police Department
090329	37.119585	-101.6333422	Rolla Police Department
090329	37.9582275	-98.9681797	Macksville Police Department
090329	38.9109839	-99.3541428	Kansas Highway Patrol Troop D Headquarters
090329	38.9906206	-95.2337063	Kansas Highway Patrol Troop H
090329	37.9213472	-99.4108434	Kinsley Police Department
090329	39.0676563	-100.2351419	Quinter Police Department
090329	38.4012761	-95.255346	Richmond Police Department
090329	37.28213	-98.5801554	Medicine Lodge Police Department
090329	37.4695868	-96.2626238	Howard Police Department
090329	37.8948432	-95.0717841	Bronson Police Department
090329	37.8177817	-100.3482	Kansas Highway Patrol Troop E - Zone 2
090329	39.7561299	-99.3083874	Kansas Highway Patrol Troop D - Phillips
090329	38.2459841	-97.3465077	Goessel Police Department
090329	38.8406799	-97.5780641	Kansas Highway Patrol Troop C - Headquarters
090329	39.8526775	-95.5326799	Kansas Highway Patrol Troop B
090329	38.8406679	-97.5802982	Kansas Highway Patrol Troop J Training Academy
090329	39.0204265	-99.890502	Kansas Highway Patrol Troop D - Trego
090329	38.9567384	-95.7595272	Auburn - Washburn Unified School District 437 Police Office
090329	37.6879561	-96.7816472	Leon Police Department
090329	38.9870361	-95.557087	Shawnee Heights Unified School District 450 Police Office
090329	39.3428309	-95.7379234	Prairie Band Potawatomi Tribal Police Department
090329	39.5085668	-96.0768744	Havensville Police Department
090329	39.0265901	-99.8827824	Trego County Sheriff's Department Jail
090329	39.7861928	-95.0889684	Doniphan County Sheriff's Department Jail
090329	39.2079711	-95.3110844	Jefferson County Sheriff's Office Jail
090329	37.6944233	-97.3386169	Sedgwick County Sheriff's Office Detention Center
090329	37.8816654	-95.733181	Woodson County Sheriff's Office Jail
090329	37.9823563	-101.7522682	Hamilton County Sheriff's Office Jail
090329	39.4370447	-99.2740772	Rooks County Sheriff's Department Jail
090329	37.4794349	-100.8428147	Haskell County Sheriff's Department Jail
090329	39.7762977	-98.7815457	Smith County Sheriff's Office Jail
090329	38.8967873	-101.7520898	Wallace County Sheriff's Department Jail
090329	38.3463955	-98.2241623	Rice County Sheriff's Department Jail
090329	39.7883613	-98.2103656	Jewell County Sheriff's Department Jail
090329	37.2870791	-100.3390181	Meade County Sheriff's Office Jail
090329	38.3730426	-97.6841662	Mcpherson County Sheriff's Office Jail
090329	38.8889201	-98.858213	Russell County Sheriff's Department Jail
090329	39.836999	-96.064406	Nemaha County Sheriff's Department Jail
090329	37.1284093	-96.1873384	Chautauqua County Sheriff's Department Jail
090329	39.1132016	-94.627323	Wyandotte County Sheriff's Department / Adult Detention / Juvenile Detention Center
090329	37.6424793	-98.1114153	Kingman County Sheriff's Office Jail
090329	38.18195	-99.0991066	Pawnee County Sheriff's Office Jail
090329	37.0430691	-100.9206782	Seward County Sheriff's Department Jail
090329	39.0409791	-98.1447695	Lincoln County Sheriff's Office Jail
090329	39.3506945	-101.7100069	Sherman County Sheriff's Office Jail
090329	37.2798195	-98.5778528	Barber County Sheriff's Department Jail
090329	38.142144	-94.8108905	Linn County Sheriff's Department Jail
090329	39.8285941	-99.8876491	Norton County Sheriff's Office Jail
090329	39.8191798	-100.5284003	Decatur County Sheriff's Office Jail
090329	37.5719354	-101.7498232	Stanton County Sheriff's Department Jail
090329	39.0310922	-96.8279663	Geary County Sheriff's Department Jail
090329	36.5759025	-6.2249327	
090329	44.2044116	-93.815508	Madison Lake Police Department
090329	44.1052418	-94.2216272	Lake Crystal Police Department
090329	44.0041307	-94.070233	Good Thunder Police Department
090329	44.261079	-96.287539	Lake Benton Police Department
090329	44.462465	-96.2517076	Lincoln County Sheriffs Office
090329	44.4630205	-96.2486519	Ivanhoe Police Department
090329	43.9813466	-94.6255291	Watonwan County Sheriffs Department
090329	44.050516	-94.4191314	Madelia City Police Department
090329	43.9235691	-94.4366325	Lewisville Police Department
090329	43.938846	-94.9297089	Mountain Lake Police Department
090329	43.8952382	-93.4935509	New Richland Police Department
090329	43.806631	-91.7548702	Rushford Police Department
090329	43.6877415	-92.391281	Spring Valley Police Department
090329	43.718853	-91.9765446	Lanesboro Police Department
090329	43.5219122	-91.7701505	Mabel Police Department
090329	43.9813466	-94.6255291	Saint James Police Department
090329	43.5521878	-92.014049	Harmony Police Department
090329	43.8694073	-95.5958411	Fulda Police Department
090329	43.7624662	-91.5693098	Houston Police Department
090329	43.6344135	-91.4945852	Caledonia Police Department
090329	43.7621895	-91.3443041	Hokah Police Department
090329	43.5613576	-91.638201	Spring Grove Police Department
090329	43.8280119	-94.4380238	Truman Police Department
090329	43.7621774	-94.7172003	Trimont Police Department
090329	43.6427328	-94.1032933	Faribault County Sheriffs Office
090329	43.6682887	-94.6199767	Welcome Police Department
090329	43.9846863	-95.7561241	Murray County Sheriff Department
090329	43.9902419	-95.7558464	Slayton Police Department
090329	43.6466238	-93.3682655	Albert Lea Police Department
090329	43.6466238	-93.3682655	Freeborn County Sheriffs Office
090329	43.7657884	-94.1663505	Winnbago Police Station
090329	43.7652427	-95.8277927	Wilmont Police Department
090329	43.5863438	-93.9266201	Frost Police Department
090329	43.5621765	-93.8118931	Bricelyn Police Department
090329	43.743566	-93.7246692	Wells City Police Department
090329	43.8399591	-93.8330061	Minnesota Lake Police Department
090329	43.7938482	-95.3191651	Heron Lake Police Department
090329	43.6341249	-94.99388	Jackson Police Department
090329	45.1297222	-94.5291667	Meeker County Sheriff Department
090329	45.3194444	-94.4130556	Watkins Police Department
090329	45.1505556	-94.6827778	Grove City Police Department
090329	45.3255556	-94.5475	Eden Valley Police Department
090329	45.0144444	-96.1925	Lac qui Parle Sheriff Office
090329	45.0144444	-96.1925	Madison Police Department
090329	44.9297222	-96.0555556	Dawson Police Department
090329	44.6169444	-95.4172222	Echo Police Department
090329	44.7905556	-95.8083333	Clarkfield Police Department
090329	44.7086111	-96.2741667	Canby Police Department
090329	45.2005556	-96.0216667	Appleton Police Department
090329	44.7761111	-94.9916667	Olivia Police Department
090329	44.7919444	-95.0969444	Danube Police Department
090329	44.81	-95.5388889	Granite Falls Police Department
090329	44.8097222	-95.5447222	Yellow Medicine County Sheriffs Department
090329	45.1297222	-94.5291667	Meeker County Sheriff Department
090329	45.1297222	-94.5291667	Litchfield Police Department
090329	45.1505556	-94.6827778	Grove City Police Department
090329	45.3194444	-94.4130556	Watkins Police Department
090329	45.0144444	-96.1925	Lac qui Parle Sheriff Office
090329	44.7086111	-96.2741667	Canby Police Department
090329	45.0144444	-96.1925	Madison Police Department
090329	44.81	-95.5388889	Granite Falls Police Department
090329	44.9577778	-95.3694444	Clara City Police Department
090329	44.8097222	-95.5447222	Yellow Medicine County Sheriffs Department
090329	44.9391667	-94.6972222	Cosmos Police Department
090329	45.0816667	-94.3066667	Dassel Police Department
090329	44.9511111	-95.7138889	Montevideo Police Department
090329	44.9511111	-95.7138889	Chippewa County Sheriffs Office
090329	45.1755556	-93.8758333	Buffalo Police Department
090329	45.0769444	-94.1905556	Cokato Police Department
090329	45.3047222	-96.4438889	Big Stone County Sheriffs Office
090329	45.5583333	-96.7119444	Beardsley Police Department
090329	45.8066667	-96.4927778	Wheaton Police Department
090329	45.4986111	-95.7941667	Hancock City Police Office
090329	45.8066667	-96.4927778	Traverse County Sheriffs Office
090329	45.5877778	-95.9088889	Stevens County Sheriffs Office
