last_edit_date	latitude	longitude	name
070324	50.8452848	-0.1844875	Windmill Theatre
070419	59.1227691	11.3836481	Blackbox
070419	59.1226085	11.3841146	Fredrikshalds teater
070419	53.3909593	-6.3918252	Draíocht
070623	50.8425069	-0.7777993	The Minerva Theatre
070719	55.0059049	-1.6353849	Jubilee Theatre
070901	51.4745538	5.5479726	Het Klooster
070907	51.3727681	1.1366614	Kings Hall
071031	60.1722969	24.9445312	Omapohja
071106	60.4443348	22.2618465	Samppalinnan Kesäteatteri
071107	40.4182312	-3.7103603	Teatro Real
071110	51.3728529	-0.0105443	Theatre 62
071118	39.9040298	32.8593654	Şinasi Sahnesi
071119	46.3596293	15.115051	Kulturni dom Velenje
071129	51.6168368	-3.9372232	Dylan Thomas Arts Centre
071129	52.6059619	-1.9148335	
071204	50.2535504	12.4021728	
071209	51.6182384	-3.9481151	Grand Theatre
071212	39.9370221	32.8256151	MEB Şura Salonu
071220	51.5131905	-0.0411652	Half Moon Theatre
080105	40.7873421	22.9567857	
080105	40.8406221	22.9265733	
080106	62.7049076	25.2495008	Työväenteatteri
080112	43.618664	3.8724443	Théâtre du Hangar
080113	61.0110216	24.4495265	Hämeenlinnan kesäteatteri
080117	15.3008683	-61.3863042	Arawak House of Culture
080121	40.483996	22.9865154	
080131	-25.5345726	152.7060461	Brolga Theatre
080208	34.778195	32.4233156	
080216	52.606634	4.7132399	De Beun
080219	52.6450094	-1.122029	Peepul Centre
080220	41.9349239	12.5675843	
080223	41.0514413	-0.1316503	Teatro Municipal
080228	51.7029675	10.0254961	Waldbuehne
080309	39.9038521	32.8592001	Akün Sahnesi
080320	51.2485798	4.4232999	
080325	52.635905	9.3263898	Freilichtbühne Stöckse
080328	46.2380194	14.3558945	
080329	50.9080069	6.7943387	Haus am Bahndamm/Theater Harlekin
080331	54.9589892	9.42011	
080402	50.8790795	6.16115	Bühne
080403	4.622909	-74.0778456	Colsubsidio
080408	42.7882701	-89.6331243	
080420	-33.9298342	18.414527	Little Theatre
080420	-33.9294286	18.4134242	Arena Theatre
080502	45.5001787	9.4225019	Teatro Trivulzio
080503	51.2335267	-0.5749539	Yvonne Arnaud Theatre
080503	51.0315988	2.8650675	CC Kruispunt
080504	51.0345637	2.8603861	4AD
080505	51.1335974	4.3841128	Cultureel Centrum Nr 34
080511	44.4080705	8.9589109	Teatro Garage
080512	47.5026485	19.0478871	Komédium Színház
080512	48.2072026	16.3729645	Theater im Zentrum
080518	45.4962225	9.2246258	Teatro del Parco Trotter
080521	61.4992093	9.7646044	Friluftsscena ved Gålåvatnet
080526	41.8783855	12.4846527	Anfitrione
080603	50.929054	4.4327171	CC Het Bolwerk
080605	-33.8680361	18.4968411	Milnerton Playhouse Theatre
080605	19.4354909	-99.1412526	Bellas Artes
080607	38.1138033	13.3656188	teatro Santa Cecilia
080607	38.1167408	13.3722535	teatro Ditirammu
080611	54.0876184	12.1313959	Sommertheater
080617	41.1305022	16.556266	
080622	45.6543387	25.5899776	Teatrul Liric
080622	41.372356	-89.465234	Festival 56
080624	38.7871984	-9.1700612	Teatro da Malaposta
080702	43.2129001	11.7371667	Teatro Ciro Pinsuti
080703	51.3845944	0.5102081	Medway Little Theatre
080705	-33.889003	151.2091499	Belvoir Theatre
080705	54.6069442	-1.2887405	Forum Theatre
080707	38.1109138	13.357327	teatro delle Balate
080708	47.5032858	19.0728363	Magyar Színház
080709	-17.7950034	31.0439689	Reps Theatre
080714	55.6766107	12.5366472	Edison
080717	51.9059784	4.2463139	Muziektheater De Ontmoeting
080720	45.5023512	9.2118728	Greco
080720	59.8934321	14.9278824	Opera På Skäret
080720	55.678552	12.5324953	CampX Rialto
080723	51.5094507	5.4936473	Het Vestzaktheater
080727	53.8993072	27.563334	Кукол
080730	52.8446512	-8.9770509	Glór
080730	55.6427263	12.4634514	Teater Vestvolden
080731	51.8241494	5.8342075	Goffert Openlucht theater
080802	62.973596	8.7257972	
080803	45.4793789	9.1760658	Teatro Verga
080806	42.4864633	2.7496067	Cinéma Le Cérétan
080809	59.2095339	9.6074661	Telemark Teater
080810	44.8113043	-0.5458178	Théâtre en Miettes
080810	50.2132528	10.2343349	
080811	53.1792422	-3.1368143	Clwyd Theatr
080812	60.6775378	17.1416222	Gävle teater
080812	50.9251773	6.9645047	Theater 509
080813	62.5905153	25.6012135	Martin Kievarin kesäteatteri
080815	39.9383592	32.822512	Gazi Üniversitesi Konser Salonu
080815	43.7043413	-79.4103504	The Eglinton Grand
080815	51.1712445	4.4467268	Mark Liebrecht
080818	52.2487654	0.6990311	Vinegar Bowl Theatre
080818	52.243735	0.7123075	The Guildhall
080820	51.6462571	4.8611258	De Bussel
080826	51.8906343	-0.5220817	Grove Theatre
080829	52.0628649	1.1370048	Sir John Mills Theatre
080830	50.0662992	14.4166716	Letní scéna na Vyšehradě
080830	46.177638	23.9198608	Casa de Cultură
080901	44.325621	-76.1559735	Thousand Islands Playhouse
080902	35.5160142	24.0299311	
080902	49.3252195	11.3059564	Haus der Musik
080902	42.0014969	-5.6793796	Reina Sofía
080903	52.0001436	11.7237579	Kurparkbühne
080903	48.1312848	12.7145173	Waldbühne
080907	49.5534818	8.6719184	Kulturbühne Alte Druckerei
080913	47.2254556	8.6788672	Theater Ticino
080915	44.6367439	11.4214253	TeZe
080916	50.9749552	-3.2255748	Wellington Arts Centre
080920	14.8826829	-92.2978165	Teatro de la Ciudad
080921	53.3262446	-3.4835265	Pavilion Theatre
080922	52.1129673	9.6260146	Freilichtbühne
080924	51.2215496	4.3497923	Tophat
080925	52.402907	13.0740137	Bühne
080926	55.6262667	12.3459519	Ishøj Teater
080927	-25.84345	28.20922	Centurion
080928	47.3682487	8.5447542	Theater am Hechtplatz
080928	43.6202094	1.3291365	Théatre de l'Éprouvette
080930	52.247523	-3.3762805	Theatr Powys
080930	52.2401716	-3.3835273	Albert Hall Theatre
081001	36.191497	-115.3022459	Summerlin Performing Arts Centre
081005	63.0969084	21.6077988	Wasa Teater
081006	52.2795384	8.0419253	Erstes unordentliches Zimmertheater
081007	44.2320876	-76.4863996	Grand Theatre
081009	13.0827574	80.2783238	Memorial Hall
081011	55.4699606	9.1076389	Sløjt senen
081012	51.995374	-4.9789863	Theatr Gwaun
081013	58.4082456	15.5886981	Folkets hus, Cupolen
081014	16.7386541	-92.6381803	Teatro Zebadúa (Teatro Las Casas)
081014	16.7333463	-92.6519622	Theatro Hermanos Dominguez
081015	16.7329463	-92.6518619	Teatro Hermanos Dominguez
081017	35.6729174	139.7591002	東京宝塚劇場 (Tokyo Takarazuka Theater)
081017	50.0811036	14.4147141	
081018	51.14762	4.09601	Cultureel centrum De Klavers
081018	43.6026555	3.8682852	Theâtre Kawa
081019	51.15715	4.04606	Buurthuis Sinaai
081020	36.0932298	-115.1755517	House of Blues
081022	53.0989121	-2.4402102	Lyceum Theatre
081023	51.6242021	-3.9283365	Saint Thomas Community Centre
081025	51.5714654	4.640411	De Nobelaer
081028	13.0490493	80.2483265	Kamaraj Arangam
081030	37.6765249	-113.0663179	Randall L Jones Theatre
081030	37.6763111	-113.0679101	Adams Theatre
081102	46.175182	12.3098471	Piccolo Teatro Giovanni Pierobon
081103	45.4892389	9.164488	OutOff
081103	45.4879753	9.1645395	Teatro della Memoria
081104	39.9119519	32.8259006	Anadolu Gösteri Merkezi
081108	43.7079341	7.2573197	Le Village
081110	37.7643233	-122.2425149	Alameda Civic Ballet
081112	41.9757947	-87.6693323	Neofuturists
081114	13.0451133	80.2566747	Russian Cultural Centre
081114	13.0065031	80.2374064	Gandhi Mandapam
081115	37.5119902	15.0757462	Teatro Don Bosco
081115	40.4681078	-3.6996284	Liberarte
081116	16.7601817	-93.1055698	Teatro de la Ciudad "Emilio Rabasa"
081116	45.9432264	-1.307865	
081117	39.9348186	32.8496631	C.S.O. Konser Salonu
081126	52.4911862	-2.0118244	The Barlow Theatre
081126	37.3327559	-121.9232526	Hoover Theatre
081201	49.1460598	8.6690822	Kulturtreff
081202	53.6451174	-1.7801178	The Lawrence Batley Theatre
081203	45.9423157	13.6202831	Teatro Giuseppe Verdi
081207	53.0219815	9.8775412	Hallo Spencer
081210	40.3901767	-3.6836845	Auditorio
081210	43.4773244	13.1188203	teatro G.Spontini
081211	-27.9195003	120.7030772	
081218	47.3488569	8.7154156	Stadthofsaal
081221	-34.4263484	150.9026452	
081222	65.6771157	-18.0897522	Leikfélag Akureyrar
081223	47.4605853	34.8211108	Дом культуры
081230	49.4131725	14.662427	Oskara Nedbala
081231	35.1441281	33.3433707	Strovolos Municipal Theatre
081231	48.9562179	4.3635262	Espace Pierre Dac
090104	36.0451129	14.2389986	Citadel Theatre
090105	12.3819438	-1.4741124	Espace culturel Gambidi
090105	12.4040164	-1.477683	Théatre des enfants Wamdé
090106	53.52135	-1.1286183	
090106	44.4435282	26.0987059	Teatrul Nottara
090107	49.3097696	14.1501219	Divadlo Fráni Šrámka
090109	45.5907747	11.5519522	Teatro E. Zuccato
090110	49.29831	17.3994465	Dům kultury
090110	12.9893025	80.2378229	Students Activity Centre
090110	55.9352993	-3.1317667	
090111	-37.7990994	144.9676917	La Mama Theatre
090111	48.9396481	9.2588314	Outdoor Burgplatz an der Stadtmauer
090112	42.6489775	-71.132203	Tang Theater
090115	51.2338202	-0.5748998	The Mill Studio
090120	53.7989431	-1.5424994	Leeds City Varieties
090120	47.3007751	8.5504205	Amphitheater
090121	12.988999	80.2336656	Open Air Theatre
090124	49.2243329	18.736259	Bábkové divadlo
090127	51.3283715	5.9806827	Dok 6
090201	39.4657938	-0.456751	
090204	50.2473871	14.3153112	
090205	12.988175	80.2649839	
090206	12.3571231	-1.5495915	Atelier Theatre Burkinabe
090208	52.2164265	21.0220953	Teatr Syrena
090208	43.6456116	-79.4028849	Factory Theatre
090211	41.1785388	-111.9786332	Terrace Plaza Playhouse
090211	43.6593908	-79.3795591	Ryerson Theatre
090211	55.6552032	12.2959081	Taastrup Teater
090214	60.3635018	23.0643952	kesäteatteri
090215	32.0796303	34.7736171	בית ליסין
090217	51.9441731	-3.3885927	Theatr Brycheiniog
090221	21.122907	-101.680026	Teatro Manuel Doblado
090222	52.2405625	0.7173198	Theatre Royal
090222	21.1063382	-101.6574329	Salon De Fiestas La Vendimia
090222	39.2762145	-84.2816164	
090224	-33.2814858	149.1025341	Orange Civic Theatre
090225	62.6011171	29.7615781	Torin esiintymislava
090225	49.3331811	8.406261	Waldtheater
090301	48.1271881	11.5246828	Dramatischer Club Alpenrösl e.V.
090301	60.6167468	23.5343684	Havuharjun kesäteatteri
090301	48.7950618	9.286756	Waldbühne
090302	50.5961988	8.1137385	Theater
090305	51.4286219	6.7565923	Theater am Marientor
090308	3.0738315	101.5146918	Laman Budaya
090308	3.1743391	101.7030185	Istana Budaya
090308	3.0842699	101.5144048	Dewan Jubli Perak
090308	40.394222	-3.7457545	
090314	47.2894359	-1.8798882	
090315	52.2274112	21.0078118	Teatr Muzyczny "Roma"
090317	52.4892198	13.4480663	Cabuwazi – Kinder- und Jugendzirkus
090321	60.3853277	23.124655	Salon teatteri
090321	-23.3360818	-51.1559467	
090322	13.0417163	80.2494482	Anna Arivalayam
090324	47.9714406	0.1658627	Théatre de Chaoué
090324	13.0183125	80.269991	IMAGE Auditorium
090324	13.0373045	80.258891	Sivagami Petachi Auditorium
090324	13.0707166	80.257211	Egmore Museum Theatre
090324	43.4933017	-112.0410457	Colonial Theater
090325	46.9032614	6.3588151	Théâtre du Lavoir
090325	-1.0579621	-46.7673616	
090326	47.6551	-122.314	University of Washington Instructional Center Theater
090327	39.3110234	-119.6501791	Piper Opera House
090327	-34.1027786	18.4685097	Masque Theatre
090327	33.4187	-111.9389	Galvin Playhouse
090328	40.8119458	-96.6986273	Pershing Auditorium
090328	41.2613874	-95.9394587	Omaha Civic Auditorium and Convention Center
090328	40.8380564	-96.6494589	Elder Memorial Speech and Theatre Center
090328	41.436666	-96.4889138	Eppley Auditorium
090328	41.436666	-96.4889138	Kimmel Theatre
090328	40.5922356	-98.3733925	Scott Studio Theatre
090328	42.2430587	-97.0169906	Rice Auditorium
090328	44.3058947	-71.7698107	Littleton Town Opera House
090328	56.1796668	15.6109459	
090328	42.9728586	-72.5520345	Putney Theatre
090328	44.168666	-73.2509556	Vergennes Opera House
090328	44.5942183	-72.6181721	Hyde Park Opera House
090328	44.2033943	-72.503994	Barre Auditorium
090328	44.587832	-71.9467615	Vermont Childrens Theater
090328	43.602846	-72.9920513	College of Saint Joseph Playhouse
090328	43.6220139	-72.5259277	Little Theatre
090329	35.7641954	-105.9469662	Santa Fe Opera
090329	34.5203411	-106.241127	Mountainair Municipal Auditorium
090329	36.9033581	-104.4391532	Shuler Theater
090329	35.5939325	-105.21723	Ilfeld Auditorium
090329	35.596988	-105.2005628	Ilfield Auditorium
090329	42.0405531	-101.0426593	Lariat Auditorium
090329	39.571391	-97.663373	Brown Grand Opera House
090329	38.3713971	-97.6425413	Mingenback Theatre
090329	50.7930787	-0.9947151	Station Theatre
090329	46.8152778	-92.1063889	Saint Scholastica Theatre
090329	46.8161111	-92.1061111	Mitchell Auditorium
090329	45.9647222	-95.5963889	Brandon Auditorium
090329	41.4774899	-95.2219405	Walnut County Opera House
090329	41.3083391	-92.6410256	George Daily Community Auditorium
090329	41.0450143	-92.3946293	Saint John Auditorium
090329	41.4005535	-92.9196426	Douwstra Auditorium
090329	41.4005535	-92.920476	Kruidenier Center for Communication and Theatre
090329	40.3972664	-91.3837628	Grand Theatre
090329	42.7644365	-90.6659605	Five Flags Theater
090329	42.5272164	-96.4264184	Briar Cliff University Theater
090329	42.5297079	-92.339629	McBride Auditorium
090329	38.6384	-90.3107	Werner Auditorium
090329	38.4442184	-91.0043094	Union Memorial Auditorium
090329	38.6474	-90.3096	Edison Theatre
090330	29.9552034	-89.9809023	Saint Bernard Parish Civic Auditorium
090330	30.4129694	-91.1806626	Dodson Auditorium
090330	29.5907697	-90.727035	Dumas Auditorium
090330	32.5262543	-92.0745777	Brown Auditorium
090330	41.3117638	-72.9198243	Little Theatre
090330	41.3312082	-72.9195466	Jones Auditorium
090330	41.3092638	-72.9220466	Alliance Theatre
090330	41.449264	-72.8459337	Oakdale Theater
090330	41.309265	-72.1109096	Eugene O'Neil Theater Center
090330	41.4025991	-72.4517538	National Theatre of the Deaf
090330	41.3214856	-73.0898307	Sterling Opera House
090330	41.4795402	-73.2190029	Southbury Playhouse
090330	41.5620431	-72.6523155	Oddfellows Playhouse Youth Theater
090330	41.451488	-72.4620317	Goodspeed Opera House
090330	41.7956552	-72.7150942	Auerbach Auditorium
090330	41.8000995	-72.7142607	Lincoln Theater
090330	41.7978773	-72.7142607	Millard Auditorium
090330	41.7984328	-72.7153719	Wilde Auditorium
090330	38.9101115	-77.039977	New Playwrights Theatre
090330	38.8895564	-77.0021982	Folger Theatre
090330	38.8926119	-77.0299767	Departmental Auditorium
090330	38.88039	-76.9566413	Fort Dupont Summer Theater
090330	38.8945	-76.9499	Senator Theater
090330	38.9241667	-77.0211111	Ira Aldridge Theatre
090330	38.9244444	-77.0211111	Cramton Auditorium
090330	38.9637217	-77.0749778	Chevy Chase Theater
090330	38.8926119	-77.0296989	Andrew W Mellon Auditorium
090330	-14.2836111	-170.6819444	Rex H Lee Auditorium
090330	40.4434408	-74.1343088	Fowler's Theatre
090330	40.1001151	-74.2270882	Little Theater
090330	40.6512141	-74.1932001	Saint Adalbert Auditorium
090330	40.6623249	-74.2120896	Liberty Theatre
090330	40.663436	-74.2143118	Regent Theatre
090330	40.8673217	-74.0962531	Breslin Auditorium
090331	47.2550686	-122.4402375	Pantages Theater
090331	42.3545419	-71.0631066	Savoy Theatre
090331	42.3509308	-71.0792181	Exeter Street Theatre
090331	42.4503624	-73.2512159	Berkshire Public Theater
090331	42.0595471	-70.1744707	The Provincetown Theater
090331	41.8800193	-70.3447863	South Mountain Concert Hall
090331	42.7136915	-73.2073289	Adams Memorial Theatre
090331	42.1045385	-72.5942556	Julia Sanderson Theater
090331	42.3417643	-71.0856071	Boston University Theater
090331	42.3673195	-71.0706069	Mugar Omni Theater
090331	42.0656545	-71.2517199	Orpehum Theatre
090331	41.4542786	-70.6036395	Katherine Cornell Theater
090331	41.4664281	-87.0594743	Memorial Opera House
090331	39.7088889	-86.1347222	Ransburg Auditorium
090331	43.5519253	-69.5659727	Greenwood Opera House
090331	44.2084122	-69.0658704	Camden Opera House
090331	44.1873014	-69.0711488	Rockport Opera House
090331	46.0092191	-68.2716927	Island Falls Opera House
090331	43.2406424	-70.6011644	Ogunquit Playhouse
090331	39.0262205	-77.1630351	Heights Playhouse
090331	39.05622	-77.0788671	Roundhouse Theater Company
090331	39.2175	-76.0697222	Gibson Center and Tawes Theatre
090331	39.0458333	-76.8502778	Avrum Gudelsky Memorial Auditorium
090331	39.5631628	-76.2871797	Edwin Booth Theatre
090331	39.5816667	-77.0022222	Alumni Hall Theatre
090331	38.3483333	-75.6086111	Theatre and Web Development House
090331	20.8922222	-156.5047222	Maui Community Theater
090331	21.31	-157.8580556	Smyth Auditorium
090331	34.9556787	-81.917326	Twitchell Auditorium
090331	33.8998821	-80.052018	Dennis Memorial Auditorium
090331	34.1776163	-82.3779037	Abbeville Opera House
090331	44.5144368	-88.0153816	City Centre Theatre
090331	44.532771	-87.9214896	Theatre Hall
090331	43.8124664	-91.2498591	La Crosse Community Theatre
090331	44.9599685	-89.6262332	Grand Theater
090331	45.4619022	-91.7343363	Lake Seven Movie Theatre
090331	36.96403	-82.95189	Coal Miners Memorial Theater
090331	37.6389665	-84.756614	Pioneer Playhouse
090331	44.2458333	-86.3238889	Ramsdell Theatre Opera House
090331	29.8263889	-82.595	High Springs Community Theater
090331	28.8052778	-81.6308333	Ice House Theatre
090331	25.7247222	-80.2458333	Coconut Grove Playhouse
090331	25.7772222	-80.2361111	Dade County Auditorium
090331	25.7797222	-80.1305556	Ocean Front Auditorium
090331	25.7219444	-80.2797222	Ring Theater
090331	28.5552778	-81.7666667	Clermont-Jenkins City Auditorium
090331	25.9042614	-80.3094952	Barn Theater
090331	28.2494544	-82.7195449	Richey Suncoast Theater
090331	28.9016476	-82.4200969	Citrus County Art League Center and Theater
090331	28.8147222	-81.8855556	Melon Patch Theatre
090331	-34.9297585	138.6103894	Bakehouse theatre
090331	44.1134489	24.3448862	Teatrul Național Caracal
090331	34.9865399	-80.4445096	Austin Auditorium
090331	35.7262688	-77.9110949	Wilson Theatre
090331	36.0009765	-78.9400087	Page Auditorium
090331	36.0598579	-79.8258655	War-Memorial Auditorium-Coliseum
090331	35.2176335	-81.3664727	Little Theater
090331	35.2751288	-81.5367574	Brown Auditorium
090331	35.2337445	-81.3698063	Barnes Auditorium
090331	35.7891	-78.6374	Leggett Theater
090331	33.0815317	-83.2320992	Russell Auditorium
090331	32.0788189	-81.0892786	Lucas Theatre
090331	32.0754857	-81.0920564	Savannah Theatre
090331	33.7656617	-84.3846489	On Stage Atlanta Theatre
090331	32.8654165	-83.6949033	Macon Little Theater
090331	32.4112477	-87.0202675	Eastside-Pickard Auditorium
090331	33.2086111	-87.5680556	Bama Theatre
090331	34.442588	-85.7121891	Fort Payne City Auditorium
090331	40.2030556	-77.1980556	Anita Tuvin Schlechter Auditorium
090331	40.2033333	-77.205	Central Pennsylvania Youth Ballet
090331	40.4367358	-79.9631076	Pittsburgh Playhouse
090331	40.1966667	-75.2386111	Julia Ball Auditorium and Lobby
090331	40.3228519	-78.9225254	Memorial Auditorium
090331	40.1509236	-77.1149797	Allenberry Playhouse
090331	40.4550691	-80.0047756	Hazlett Theater
090331	40.4574971	-79.9732665	Pittsburgh Ballet Theatre
090331	41.245	-77.0016667	Mary L Welch Theatre
090331	40.4368	-79.9798	Actors Civic Theatre
090331	40.309134	-76.098177	Chit Chat Auditorium
090331	40.555055	-75.982502	Hamburg Strand Theatre
090331	40.4369	-79.9829	University of Pittsburgh Theatre
090331	36.7736111	-81.8291667	Studio Theatre
090331	38.4722222	-78.8802778	Guild Theater
090331	36.8691667	-76.1888889	E D Hofheimer Theatre
090331	38.1513889	-79.0691667	James D Francis Auditorium
090331	36.8694444	-76.1894444	E D Hofheimer Theater
090331	38.4380556	-78.8772222	Theatre ll
090331	38.152076	-79.0716959	King Memorial Auditorium and Gymnasium
090331	38.0318058	-78.4769559	Levy Opera House
090401	40.9245435	-73.7884661	Joyce Auditorium
090401	40.8584333	-73.9118031	Hall of Fame Playhouse
090401	40.7631571	-73.9559715	Caspary Auditorium
090401	40.76	-73.9933333	New Dramatists Theater
090401	40.7263889	-73.9911111	Rod Rogers Dance Theatre
090401	40.7425	-74.0011111	Joyce Theatre
090401	40.7258333	-73.9927778	Bouwerie Lane Theatre
090401	40.7330556	-73.9883333	Variety Arts Theatre
090401	40.8186111	-73.5991667	Little Theatre
090401	40.7205556	-73.6508333	Olmsted Theatre
090401	41.0922222	-73.9186111	Rockland Theatre
090401	41.0919444	-73.9202778	Elmwood Community Playhouse
090401	40.7469444	-73.8833333	Jackson Triplex Theatre
090401	40.7719444	-73.9875	Alvin Ailey American Dance Theater
090401	40.8288889	-73.9436111	Dance Theatre of Harlem
090401	40.5852778	-73.9516667	Sheepshead Theatre
090401	41.4441667	-74.4208333	Paramount Theatre
090401	40.8166667	-73.9422222	Renaissance Theater
090401	41.4452778	-74.0152778	Storm King Theatre
090401	40.7672222	-73.5227778	Play House Theatre
090401	40.8505556	-73.9361111	Coliseum Theatre
090401	40.865	-73.9277778	Alpine Theatre
090401	40.8725	-73.4280556	Shore Theatre
090401	40.8697222	-73.4255556	Huntington Theatre
090401	40.6961111	-73.3236111	Babylon Theatre
090401	43.0266667	-74.9866667	Liberty Theatre
090401	43.0261111	-74.9872222	Richmond Theatre
090401	41.6922222	-73.9002778	Juliet Theatre
090401	44.6977778	-73.4547222	Champlain Theatre
090401	43.0138889	-75.0372222	Capitol Theatre
090401	43.9813889	-75.8938889	Little Theatre of Watertown
090401	42.9386111	-74.1919444	Rialto Theatre
090401	41.7983333	-74.7461111	Liberty Theatre
090401	42.9108333	-76.7997222	Strand Theatre
090401	43.3222222	-76.4163889	Kallet-State Theatre
090401	43.1591667	-76.3330556	Palace Variety Theatre
090401	42.53	-75.5233333	Colonia Theatre
090401	42.3255556	-77.6605556	Majestic Theatre
090401	44.6966667	-75.4930556	Star Theatre
090401	44.6980556	-75.4911111	Strand Theatre
090401	42.4530556	-75.0638889	Schines Oneonta Theatre
090401	42.0808333	-78.4302778	Palace Theatre
090401	43.0513889	-74.345	Glove Theatre
090401	42.8669444	-76.9841667	Smith Opera House
090401	42.1069444	-75.9363889	Crest Theatre
090401	42.0877778	-76.8097222	Elmira Theatre
090401	42.0883333	-76.8077778	Colonial Theatre
090401	43.105	-75.2338889	Utica Memorial Auditorium
090401	42.8525	-74.9847222	Capitol Theatre
090401	43.1005556	-74.7736111	Strand Theatre
090401	43.5666667	-76.1272222	Kallet Theatre
090401	43.2122222	-75.46	Capitol Theatre
090401	42.4408333	-79.3322222	Fredonia Opera House
090401	41.7161111	-74.3927778	Shadowland Theatre
090401	42.1561111	-78.7155556	Andrews Theatre
090401	43.0716667	-75.2863889	Players Theatre
090401	42.4833333	-79.3272222	Holy Trinity Auditorium
090401	43.0636111	-76.0705556	Roxie Theatre
090401	42.6611111	-77.0544444	Elmwood Theatre
090401	43.2188889	-78.3863889	Diana Theatre
090401	41.6552778	-74.6872222	Rialto Theatre
090401	42.1225	-77.9483333	Babcock Theatre
090401	43.0475	-76.5638889	Weedsport Theatre
090401	43.0788889	-75.7519444	Avon Theatre
090401	42.3516667	-73.7955556	Coxsackie Theatre
090401	42.9044444	-73.6852778	State Theatre
090401	43.2144444	-77.9383333	Strand Theatre
090401	42.4478	-76.4664	Law Auditorium
090401	42.159	-79.5938	Main Street Theatre
090401	42.7961111	-77.82	Wadsworth Auditorium
090401	40.7772222	-73.0238889	Clare Rose Playhouse
090401	42.1489	-74.6483	Galli Curci Theatre
090401	43.2202778	-76.8133333	Palace Theatre
090401	43.0637	-77.2315	Strand Theatre
090401	41.6866667	-73.8933333	Susan Stein Shiva Theater
090401	42.0605556	-75.4255556	State Theatre
090401	40.6288889	-73.9663889	Kent Theatre
090401	40.6202778	-73.725	Central Theatre
090401	40.8605556	-73.8988889	Paradise Theater
090401	40.7327778	-73.7941667	Bombay Theatre
090401	40.7630556	-73.8786111	Fair Theatre
090401	40.7475	-73.8922222	Eagle Theater
090401	42.0808333	-78.4280556	Cutco Theater
090401	42.9025	-78.8911111	Kavinoky Theatre
090401	40.6333333	-74.0202778	Alpine Theater
090401	42.1561111	-74.5305556	Whipples Theatre
090401	39.4803119	-88.3761589	Burgess-Osborne Auditorium
090401	41.7714187	-88.1456222	Summer Place Theatre
090401	39.5397684	-89.2959222	Taylorville Chautaugua Auditorium
090401	38.79477	-90.0014923	James F Metcalf Student Experimental Theater
090401	41.1103112	-88.8553525	Engle Lane Theater
090401	40.5100359	-88.9936869	Hayden Auditorium
090401	40.5155915	-88.9967425	Stroud Auditorium
090401	40.5067026	-88.9897979	Westhoff Theatre
090401	41.8105844	-89.9656743	Norrish Auditorium
090401	41.9233658	-87.6456097	The Body Politic Theatre
090401	41.9355847	-88.760643	Boutell Memorial Concert Hall
090401	41.7511457	-87.5836584	New Regal Theatre
090401	41.897255	-87.6331086	Moody Bible Auditorium
090401	42.4458545	-87.8306282	Zion Auditorium
090401	42.2505787	-87.8275687	McCormick Auditorium
090401	42.2333569	-87.8311796	Drake Theatre
090401	38.6067153	-89.8153753	Eisenmayer Auditorium
090401	41.6069751	-88.0820049	Philip Lynch Theatre
090401	39.9728422	-83.0043499	Columbus Junior Theatre
090401	40.0689525	-82.5223816	Ace Morgan Theatre
090401	39.3267396	-82.0993109	Memorial Auditorium
090401	41.4883767	-81.9365296	Huntington Playhouse
090401	39.4450615	-83.8293708	Murphy Theatre
090401	40.8620009	-82.3184955	Hugo Young Theatre
090401	41.0808892	-81.50706	Ballet Center
090401	41.1136691	-80.6520196	Stambaugh Auditorium
090401	36.1336688	-86.7941658	Belmont Little Theatre
090401	35.1550895	-89.9873118	McCoy Theater
090401	30.2294	-97.753	Mary Moody Northern Theater
090401	29.4645	-98.4818	Laurie Auditorium
090401	29.7060676	-96.5402489	Stafford Bank and Opera House
090401	29.4499544	-98.4586275	Fort Sam Houston Theatre
090401	30.597966	-98.2725229	The Driftwood Theater 8
090401	32.4523474	-99.734255	Paramount Theater
090401	31.7576087	-106.4894315	Palace Theatre
090401	32.8442937	-96.7863896	McFarlin Memorial Auditorium
090401	30.0818793	-94.0979571	Jefferson Theater
090401	32.7570848	-94.3476927	Jefferson Playhouse
090401	33.5784186	-101.8446108	Cactus Theater
090401	29.1382967	-98.9058616	Devine Opera House
090401	31.7589976	-106.4894315	Plaza Theatre
090401	26.2156288	-98.3264043	Border Theater
090401	29.6618963	-95.1743774	Pasadena Little Theater
090401	34.0975	-118.3280556	Pacific Theatres Cinerama Dome
090401	34.1508414	-117.7020004	Padua Hills Theater
090401	34.1197307	-118.2961872	Greek Theater
090401	34.0561111	-118.2394444	Merced Theatre
090401	34.0683333	-118.1680556	State Playhouse
090401	34.0680556	-118.1672222	Arena Theatre
090401	34.0936111	-118.1291667	Arte Flamenco Dance Theatre
090401	33.9808333	-118.0438889	Vic Lopez Auditorium
090401	38.5422222	-121.4894444	Art Court Theatre
090401	33.8836111	-117.8830556	Mackey Auditorium
090401	33.7586111	-117.8858333	Phillips Hall Theatre
090401	34.0416667	-118.44	Odyssey Theatre
090401	34.0644444	-118.3747222	Wilshire Theatre
090401	34.0911111	-118.3733333	Globe Playhouse
090401	34.0991667	-118.3372222	Stages Trilingual Theater
090401	34.0608333	-118.325	Wilshire Ebell Theater and Club
090401	34.0214018	-118.2856302	Eileen L Norris Cinema Theatre
090401	34.0169543	-118.4973024	American Childrens Theatre
090401	39.2629494	-121.0205041	Nevada Theatre
090401	34.0588986	-118.414801	Shubert Theatre
090401	34.1663956	-118.2317409	Glendale Civic Auditorium
090401	33.9680695	-118.1445141	Ross Auditorium
090401	34.1433407	-118.1564604	Ambassador Auditorium
090401	39.1443365	-121.5916325	Veterans Memorial Auditorium
090401	34.1661178	-118.2317409	Glendale Civic Auditorium
090401	32.7153292	-117.1633665	Spreckels Theater
090401	34.4216639	-119.699857	Lobero Theatre
090401	34.3972172	-119.517623	Seaside Theatre
090401	36.2102439	-121.1332513	War Memorial Auditorium
090401	34.0330678	-118.2984085	North Star Auditorium
090401	34.100009	-118.3392438	Memorial Auditorium
090401	34.0702887	-118.2120173	Sacred Heart Auditorium
090401	34.0619548	-118.3434101	Lindy Opera House
090401	34.1277778	-118.2466667	Calvary Auditorium
090401	38.0688889	-122.2313889	Rizza Auditorium
090401	34.1088889	-118.1936111	Highland Theatre
090401	38.7951793	-120.8907715	Old Coloma Theatre
090401	38.7285141	-120.8007682	Sigwarts Opera House
090401	38.4410213	-120.8549373	Claypipers Theatre
090401	38.3932452	-120.8027135	Ratto Theatre
090401	38.4554671	-122.718876	Luther Burbank Theatre
090401	34.0075117	-118.4025776	Robert Lee Frost Auditorium
090401	38.2999144	-122.2855293	Napa Opera House
090401	38.134087	-120.4624216	Black Bart Playhouse
090401	36.2999502	-119.7870775	Lemoore Civic Auditorium
090401	38.0024226	-122.533588	Veterans Memorial Auditorium
090401	37.5007678	-120.8463164	War Memorial Auditorium
090401	36.5977284	-119.4526253	Reedley Opera House Complex
090401	36.7396713	-119.7884778	Memorial Auditorium
090401	37.7399284	-121.1288273	Harry Knoff Auditorium
090401	37.7402069	-121.4163336	Emma M Baumgardner Theatre
090401	35.3724587	-119.0128789	Bakersfield Civic Auditorium
090401	35.7755092	-119.2392755	Charlotte Chichester Auditorium
090401	36.3357839	-119.2881695	Ice House Theatre
090401	36.0655078	-119.0262128	Memorial Auditorium
090401	33.2297582	-117.1414217	Lawrence Welk Theater
090401	33.7297443	-116.389456	McCallum Theater
090402	51.6276154	-3.9414677	The Palace
090402	51.1340334	6.4506564	Musikpavillon
090404	52.2426356	21.009685	Scena imienia Leona Schillera Teatru Narodowego
090405	19.4534805	-70.7085493	Teatro Victor
090405	44.1132257	24.3434656	Grădina de Vară
090405	19.4525736	-70.7066174	La 37 Por Las Tablas
090406	40.7983796	-76.8751582	Weber Chapel Auditorium
090406	34.101896	-118.3257212	Pantages Theater
090406	13.0669309	80.2457303	Alliance Francais
090406	37.7998138	-122.4103865	Fugazi Hall
090408	-27.1732815	152.9367384	
090408	39.2701411	-84.2578691	
090409	37.7838909	-122.4330487	Fillmore Auditorium
090409	47.1018999	6.8288822	L'heure bleue
090414	38.343017	-0.4948606	Teatro Arniches
090414	51.2155815	4.4102735	Het Paleis
090415	37.7790639	-122.4146525	Orpheum
090415	43.4736753	-111.9825868	Edward's Cinemas
090416	41.091052	-73.9205414	Riverspace Arts
090416	41.0900881	-73.9189192	Tappan Zee Playhouse Theatre
090416	-37.8368579	144.9609503	Napier Street Theatre
090417	53.90961	27.54788	Театр Киноактера
090422	40.0455527	-76.3193251	Green Room Theatre
090422	32.7467856	-117.1110763	Kassab Family Community Theater
090423	37.7882887	-122.4092646	Post Street Theater
090423	36.9748263	-121.5698582	Gavilan College Theater
090423	35.8995797	14.5126333	Manoel Theatre
090425	-33.4356037	-70.6590097	Teatro Teleton
090427	48.996233	21.2424369	Divadlo Čierny Orol
090427	52.9900226	6.9531889	Geert Theis Theater
090430	42.4210026	12.108381	Teatro dell'Unione
090504	53.3090651	-1.3578726	Corner Playhouse
090508	51.6084242	-0.363693	Harrow Arts Centre
090509	57.6366131	18.2921208	Länsteatern
090509	50.7627103	0.2834344	Congress Theatre
090509	50.7633238	0.2852368	Devonshire Park Theatre
090512	12.8951166	77.6022591	Open Air Theatre
090512	51.4196449	-0.1949058	Polka Theatre
090515	39.9530292	-0.0641489	Auditorio
090517	32.2198944	-110.9735311	Leo Rich Theater
090517	32.220105	-110.97487	Tucson Music Hall
090518	43.4824997	-8.2338982	Teatro Jofre
090520	48.7281247	9.6419395	Theater im Bahnhof
090521	49.7502364	13.3696101	Amfiteátr
090523	13.5127867	144.8056278	Sand Castle
090524	41.6567455	-0.8943048	Teatro de la Estación
090524	13.0164331	80.2635512	
090525	53.9927364	11.4371201	
090525	50.5803758	-3.470425	Shaftesbury Theatre
090526	37.0305014	-122.0426461	Campfire Center
090526	52.2293203	20.9698999	Teatr Na Woli
090526	51.6249108	12.3743669	Agora
090527	51.6391543	-0.4679271	Watersmeet
090528	41.2928963	-82.2166866	Hall Auditorium
090530	41.2911231	-82.2191501	Kulas Recital Hall
090531	43.5256441	1.2844485	Ferme de Bidot
090604	53.1232241	23.1660189	Filharmonia Bialystok
090605	13.0705088	80.2366686	MCC Auditorium
090605	13.0683685	80.2387028	MV Rao Concert Hall
090605	35.3748311	136.2622478	長浜文化芸術会館
090606	14.098718	-87.207123	Bellas Artes
090606	50.1251513	8.6422875	Titania
090606	39.875972	-0.5055048	Auditorio Municipal de Navajas (AMUNA)
090607	51.3423119	-0.245235	Adrian Mann Theatre
090608	51.9164889	-0.181721	The Lytton Theatre
090608	46.9049537	6.3546912	Théâtre Bernard Blier
090609	58.1357552	26.5547236	Leigo
090609	43.4311339	-89.7254756	Amphitheater
090614	63.9686179	-22.5761303	Andrews leikhúsið
090615	35.4281393	136.2984771	浅井文化ホール
090616	-33.9634414	137.7147363	Ascot Theatre
090617	45.0057643	-72.0976306	Haskell Opera House
090617	16.8551039	-99.8516938	
090617	16.8312398	-99.9098306	
090618	39.0357368	125.7551578	Moranbong Theatre
090618	51.5394421	-0.903345	The Kenton Theatre
090621	51.120663	13.1177322	
090621	58.5241422	31.2771666	Летняя эстрада
090622	49.9074958	14.2332238	Lesní divadlo
090623	47.2331237	6.0272086	Théatre Bachus
090624	50.0705967	14.416042	Klub Trojická
090625	45.5260977	-73.5360737	Jardin des étoiles
090625	41.509089	15.3319948	Politeama
090626	52.9928134	-2.5162691	Day-Star Theatre
090627	46.9910866	6.9268932	Théâtre du Pommier
090628	32.1694687	34.8274256	בית חיל האוויר
090628	-14.7988947	-39.0326497	Teatro Municipal
090629	45.4482467	9.202023	Teatro Sant'Andrea
090630	47.055957	6.747038	Casino
090701	49.280465	-123.1069861	Cinemark Tinseltown 12
090701	32.1499259	35.2560462	Al Ateek
090702	31.9033565	35.2045149	Al-Kasaba
090702	49.0513458	11.7805535	Stadtparkbühne
090704	12.352611	-1.5369979	
090705	50.4007487	-5.0558664	Lane Theatre
090705	52.2561895	-7.1043172	Band Stand
090706	-2.5981039	29.7408179	Theatre Verdure
090707	34.7722314	10.731359	
090708	40.2836146	-111.6884772	SCERA Center for the Arts
090708	40.3041607	-111.7008881	Hale Center Theater
090710	45.4551612	9.1768476	Teatro i
090711	52.0247069	-0.7076568	Berrill Lecture Theatre
090711	-37.8746353	145.1275911	Mt Waverley Youth Centre
090711	46.4086796	16.1487462	
090711	37.2438533	-122.0311027	Montalvo Art Center
090711	37.4267732	-122.0808103	Shoreline Amphitheater
090712	41.9397755	-87.6526807	Comedy Sportz
090712	44.5463626	11.3600384	Sala Centofiori
090713	-30.3045984	153.1344996	Coffs Harbour Jetty Memorial Theatre
090713	44.7864571	10.34981	Teatro Europa
090714	45.4482227	9.2217984	PIM Spazio Scenico
090714	69.6512633	18.9566119	Kulturhuset
090714	51.2149956	4.4704966	Openluchttheater
090715	58.7083828	13.8229449	Mariestads Teater
090715	48.0399607	14.4232247	AKKU
090716	43.7896218	87.6189208	Halik Tiyatirhanisi (People's Theatre)
090716	41.4497687	12.6310158	Teatro di Villa Adele
090716	59.1348707	12.9221719	
090716	43.2568974	-79.8799341	
090717	47.7393898	8.8440304	
090717	47.7579407	8.8345499	Basilica
090717	34.1438542	-118.1442542	Pasadena Civic Auditorium
090717	42.5466634	1.5145075	Les Fontetes
090717	46.0252556	10.3434775	
090717	52.1634608	13.4821381	Freilichtbühne Waldstadt
090717	53.3873009	-2.59782	Parr Hall
090718	13.7127666	-89.1900201	Teatro de Cámara Roque Dalton
090718	47.3622355	8.5309175	Theater PurPur, Childrens Theatre
090719	43.8209504	11.1381239	Teatro Dante
090719	48.0297489	11.367953	Theater am Hof
090719	49.8821182	12.9803606	KOS Kulturní dům
090720	42.8149334	-73.9514964	Carl B Taylor Auditorium
090722	21.031645	105.8534726	Water Puppet Theater
090722	41.846894	-90.1828922	Clinton Show Boat
090722	55.7988012	-4.3033098	Eastwood Theatre
090723	50.4789848	4.185639	
090723	56.0114886	92.8655811	Театр Пушкина
090724	39.5028056	-119.7978264	Century Parklane 16
090724	52.0268792	-0.6763577	The Stables
090725	63.4715437	10.9298785	
090725	52.2501931	21.0111575	Scena Letnia w Lapidarium
090725	49.8810006	12.9765921	
090726	45.7536946	22.9039764	Teatrul Hunedoara
090726	47.3523071	0.6446511	Espace Malraux
090726	51.4789121	5.649744	Brabant house
090726	38.9384425	-77.0893156	Amphitheater
090726	51.4461185	0.2175522	Orchard Threatre
090727	51.3502281	-2.9629269	Theatre in the Hut
090727	43.8663664	28.600496	Summer Theatre
090728	30.8588883	75.8607366	Auditorium
090728	49.7484306	13.4068766	Divadlo Alfa
090728	34.4122053	-119.8469467	Lotte Lehmann Concert Hall
090728	56.0252014	9.9213529	Bøgescenen
090728	34.8737661	-82.3630203	Unusual Films
090729	50.1067042	14.393072	Dejvické divadlo
090729	52.1295652	4.6621233	Castellum
090729	34.4109358	-119.8457978	Old Little Theatre
090730	51.6625632	35.6434316	МЦ "Комсомолец"
090730	49.2082297	16.5980133	Divadlo Polárka
090731	38.9873086	-77.0945707	bethesda theatre
090801	49.9752272	16.3920657	Roškotovo divadlo
090802	12.987188	79.9710162	Open Air Theatre
090802	52.6824728	-1.826387	Lichfield Garrick
090803	41.9462685	-88.0262198	Marcus Theatre
090803	56.1598519	14.8665489	
090803	4.6404501	-74.0620105	Teatro La Baranda
090804	-34.5798748	-58.4191301	Teatro Sarmiento
090804	32.6604501	51.682487	
090804	55.7427866	12.4911117	Gladsaxe Ny Teater
090805	48.0473063	14.333194	Veranstaltungszentrum Sierninghofen-Neuzeug
090805	52.1947664	8.781694	Naturbühne
090805	30.0718476	-99.247264	The Point Theater
090805	23.1371622	-82.350211	Compañía Retazos
090806	52.0465614	5.6672796	Cultura
090806	52.1479839	-8.0514974	The Booley House
090806	46.0787537	18.2256607	Szabadtéri Szinpad
090807	49.2853872	-122.7909589	Evergreen Cultural Centre
090807	37.9948711	23.6779452	
090808	47.6392499	-122.3987295	Magnolia Theater
090809	42.2481332	-84.4061479	Michigan Theater
090809	41.9279987	-79.9572447	Waterford Drive-inn
090809	13.04749	80.2043888	AVM Theater
090809	18.9251796	72.819899	Tata Theatre
090809	12.9692233	77.5984978	
090809	49.2249036	17.6796838	Malá scéna
090810	-0.2190096	-78.5083808	Variete
090810	49.1455016	20.4357172	Amfiteáter
090810	41.3920095	23.2089597	
090811	29.2103934	-99.7867093	Grand Opera House
090811	43.3223969	-1.9857124	Antzoki Zaharra
090811	50.4085449	16.5108892	Muszla Koncertowa
090811	33.2799693	-117.0239612	
090812	36.4407916	27.3651777	
090812	48.4663134	10.7879462	Freilichtbühne Lützelburg
090812	51.1409051	-0.4857398	Cranleigh Arts Centre
090812	41.4510973	2.2048883	Teatre Municipal Josep Maria de Segarra
090812	53.8645268	27.6593158	Новый театр
090812	43.841742	4.3670657	Mobil Homme Théâtre
090812	52.2863511	-1.5343569	The Loft Theatre
090812	46.0628777	11.1247735	Auditorium Santa Chiara
090813	50.8254243	4.4144534	Comédie Claude Volter
090813	49.4466989	6.6239611	Zirkuszelt
090813	42.6448238	-71.3039012	Merrimack Repatory Theatre
090813	42.6475954	-71.3082185	Boarding House Park
090813	44.0674151	28.6360712	Teatrul de Vară
090814	-41.5134953	173.9552952	The Marlborough Center
090814	23.1368524	-82.3593866	Gran Teatro de La Habana
090815	53.2306344	-0.5390045	Theatre Royal
090815	51.3909723	1.3994074	Tom Thumb Theatre
090816	28.8260559	-81.7837786	AMC Lake Square 12
090816	35.2824904	139.6622092	横須賀HUMAXシネマズ８
090816	39.3477909	-94.2455083	Excelsior Springs High School Performance Art Center
090816	47.7527712	12.7549244	Freilichtbühne
090816	55.1255866	-1.5058251	Phoenix Theatre
090817	49.7865602	8.1949551	Freilichtbühne
090818	46.0217741	-73.4517386	
090819	34.0405759	-118.2591875	Mayan
090820	57.7739698	26.0179165	Culture house Valka
090820	47.7918207	13.0629138	
090820	4.6536018	-74.0620146	Astor Plaza
090821	53.2939818	13.4996616	Puppentheater Lampion
090821	44.83616	-87.3784221	Door County Playhouse
090821	38.1873382	-1.8920705	
090822	30.0297604	-97.875576	Hays CISD Performing Arts Center
090824	53.90607	27.57468	Новый Драмтеатр
090824	45.5855998	11.48716	Teatro comunale "G. Verdi"
090825	52.3205748	4.8743402	Griffioen
090825	51.0224013	4.4847511	't Arsenaal
090825	51.0219478	4.4818072	't Echt Mechels Theater
090825	51.0278916	4.4779791	Nona
090825	40.314989	9.3271121	Anfiteatro "Fabrizio De Andrè"
090825	44.9586479	-123.0089959	L. B. Day Amiphitheatre
090825	44.957087	-123.0101023	Salem Armory
090826	30.536558	-86.4718879	Mattie Kelley Performing Arts Cntr.
090828	58.7223613	30.8482651	ДК
090828	43.0501027	-87.9867372	Times Cinema
090828	43.0606328	-87.9982557	Rosebud Cinema Drafthouse
090828	49.2135874	15.8803201	
090828	42.9237027	1.8409806	Théatre de l'Ourdissoire
090828	52.5398931	13.4132909	Russisches Kammertheater
090828	60.6267765	6.4179681	Utescena
090829	51.5975796	-3.7835889	Theatr y Dywysoges Frenhinol
090829	14.108257	-87.1882737	Teatro La Reforma
090829	48.0108751	16.2321629	Sommerarena im Kurpark
090829	47.8370367	-69.536855	
090830	41.4339576	22.0122027	Dom na Kulturata
090830	50.9280054	-2.9142795	The Warehouse Theatre
090901	51.4791231	0.324823	Thameside Theatre
090901	44.3978483	8.9493101	cinema teatro Instabile
090901	-34.6041084	-58.3898133	Teatro Astral
090901	40.9012397	9.1051691	
090902	42.3875001	-87.8302845	Goodfellow Hall
090902	22.7839049	-81.9164833	Cine Teatro Gloria
090902	42.3643314	-87.8623337	Orlin Trapp Auditorium
090902	42.3628157	-87.8309111	Genesee Theatre
090902	59.2108869	10.939702	Blå Grotte
090904	50.9154633	4.4095646	Stalstudio
090904	44.1230274	4.0853265	Pélousse Paradise
090905	49.3469498	8.2610971	Freilichtbühne
090906	37.444125	-122.1451632	Children's Theater
090906	34.9282573	-82.37256	Paris Mountain Amphitheater
090907	27.0817633	33.8677775	
090909	47.7936414	22.8771635	
090909	30.3088816	-97.8453601	One World Theatre
090911	42.7398466	-78.1328479	New Farman Theatre
090911	52.1798844	8.4284246	Fadenspiel Theater
090911	48.8104838	14.3076773	
090912	42.4920509	27.4675877	Драматичен театър Адриана Будевска
090912	36.7161363	31.5539409	Theatre
090913	51.0508554	13.5317673	Saubachtalhalle
090913	40.6648046	-3.7738223	Auditorio Municipal de Colmenar Viejo
090913	51.1813917	6.386524	Theater im Nordpark TiN
090913	46.9915212	6.9307913	Maison du concert
090913	51.4390163	0.1448427	In the Wings Productions
090914	-22.9083331	-43.1956067	Teatro Gonzaguinha
090914	49.414272	8.1063491	Puppentheater Kurpfalzpark
090914	-36.7852503	174.7676856	Pumphouse
090914	50.8380281	4.363091	Théâtre Molière
090914	57.4644275	-4.2375073	Florians Theatre
090915	44.4899787	-84.4145239	Kirtland Center for the Performing Arts
090915	50.4283228	2.8305989	Le Colisée
090916	62.2774929	21.3801616	Kristiinan teatteri
090916	51.9666185	5.6613321	Junushoff
090917	51.0612281	3.7342868	De Centrale
090917	19.1952788	-96.1364939	Teatro de la Reforma
090918	19.2013059	-96.1402925	Teatro Francisco Javier Clavijero
090919	39.9374921	-0.0984106	Auditorio Municipal
090920	51.8840083	-0.5174123	Little Theatre
090920	43.5262506	13.0637376	Teatro comunale
090921	35.2823427	-120.6630931	San Luis Obispo Little Theater
090921	39.9939286	-83.0065641	Landmark's Gateway Theater
090921	43.2519776	-81.8493737	
090921	41.6118119	2.2868975	Teatre de Ponent
090921	31.4920673	34.4508297	Al-Nojoom Wedding Hall
090922	39.2538093	-76.7107731	UMBC Theatre
090922	45.6815645	18.4040094	Amatersko Kazalište Belišće
090922	31.2972753	34.2439487	Alnada Gallery
090925	53.3467039	83.7737003	Алтайский краевой театр драмы им. Шукшина
090925	40.8246045	-8.3754249	Teatro do Complexo Escolar de Cavião
090925	63.8774887	11.2861951	Inderøy Kultursenter
090925	-25.8205	28.29593	Hollow Tree
090926	46.8044456	6.9407413	Hameau Z'Arts
090926	35.3145477	136.2840614	滋賀県立文化産業交流会館
090927	63.8645138	11.1700933	Øynheim
090927	51.3205449	-0.5600345	Rhoda McGraw Theatre
090928	33.8954533	35.4859425	مسرح المدينة
090928	52.4205616	13.4062915	Theaterzelt
090929	26.319152	99.8522579	
090930	43.0534939	17.653206	
091001	49.7357542	13.3998902	
091002	38.7169936	34.8495015	
091002	59.1537854	25.6646191	Kukenoosi rehi
091003	14.8379479	-91.5188475	Teatro Municipal
091004	34.8562054	-82.4014488	Charles E Daniel Theatre
091005	47.7940841	22.8752284	Filarmonica "Dinu Lipatti"
091007	10.2497774	78.811804	Drama Stage
091007	41.0575815	-94.3641941	Strand Theater
091008	50.6182695	-3.4107572	Blackmore Theatre
091009	45.8885312	13.5019339	Teatro Comunale
091009	47.5589836	19.0886795	Ady Endre Művelődési Központ
091009	39.8011063	-105.5135886	Central City Opera
091009	45.9587111	13.4729817	Teatro Comunale
091009	38.0820212	-0.9475122	Auditorio La Lonja
091009	39.6491014	-105.1717168	
091009	45.1535048	5.7488084	L'Odyssée Amphithéâtre
091010	45.9043621	13.3078197	Teatro Gustavo Modena
091010	38.0852976	-0.9434153	Teatro Circo
091011	47.6605855	-117.4172413	INB Performing Arts Center
091011	45.1730315	5.7332456	Maison de la danse (MC2)
091011	32.2219952	-110.9669229	Rialto Theatre
091012	42.0457061	-88.0373682	The Improv
091012	38.9305672	-77.0324931	Tivoli Theatre
091012	5.5393684	-73.6910514	
091012	41.1119632	1.1405458	Auditori Josep Carreras
091013	40.2854652	-76.6485299	Hershey Theater
091013	-17.8022535	31.0385254	7 Arts
091013	51.6960892	-0.1940804	Wyllyotts Theatre
091014	42.9980391	-96.056171	Northwestern College. Auditorium
091014	46.0686023	14.5420184	SiTi Teater BTC
091015	-37.8351739	144.981223	St Martin's Youth Arts Centre
091015	53.4301669	14.544198	Teatr Mały
091017	52.3643495	6.461281	ZINiN Theater
091018	25.2818476	82.9547013	
091018	43.3906657	4.7993275	
091019	17.9697457	102.6053259	Lao National Opera
091019	34.0958938	-118.7142555	Malibu Creek Open-Air stage
091019	60.1595857	24.934349	
091019	34.1114026	-118.5931782	Theatricum Botanicum
091019	48.8431185	2.3716816	Salle de la Mutuelle RATP
091021	41.0054508	-76.4508965	Gross Auditorium
091021	50.1051135	14.4345501	Studio Alt@ - Hala 30
091022	42.9092679	-2.0643589	Kultur etxea
091023	-36.6036964	-72.5351326	Casa de la Cultura
091023	42.459649	14.2125601	Teatro Michetti
091024	23.1594172	-81.241676	Cabaret Continental
091024	51.7805499	19.4462037	Teatr Mały
091024	58.043285	38.832689	Рыбинский театр кукол
091024	-25.99503	27.95132	Fantasy Park
091024	59.2925647	10.1315439	Solhaug ungdomslokale
091024	50.1164649	14.6217244	Divadlo Horní Počernice
091025	61.3046294	17.0550568	Söderhamns teater
091025	-26.3861033	152.9296991	Amphitheatre
091025	59.2084522	10.1158608	Kodal ungdomslokale
091025	46.9891022	6.9217524	Théàtre de la Poudrière
091026	37.8711229	-122.2697242	The Roda Theatre
091027	50.663633	3.189005	L'aventure
091028	62.0104159	-6.7741397	Tjóðpallur Føroya
091029	39.3436229	22.9244109	
091030	58.5306409	31.2385214	ДК Акрон
091031	28.0639543	-82.4145014	Theatre Arts Rehearsal Building
091101	28.0635302	-82.4149134	Theatre II Building
091101	35.8433069	139.6636144	さいたま市文化センター
091101	52.4608983	13.5130035	SpreeLacArt Kulturwerk Schöneweide
091102	61.1067766	22.1580184	Pyhäjärviteatteri (kesä)
091103	52.4411484	9.7299988	Theatersaal Langenhagen
091103	44.9768155	-93.2759288	State Theatre
091103	44.9779327	-93.2753451	Pantages Theatre
091103	-22.9103866	-43.1739219	Teatro SESI
091103	48.2807236	9.4860645	Naturtheater Hayingen
091103	48.8388516	2.4936317	Scène Watteau
091103	27.3832861	-82.558915	Asolo Repertory Theatre
091103	-37.7837095	145.2576817	George Wood Performing Arts Centre
091104	52.3416799	4.8878971	Rai Theater
091104	45.3950086	8.9824358	
091104	33.7144146	-78.8779703	Broadway Cinema 16
091104	33.7146145	-78.8795238	IMAX 3D Theatre
091106	33.7160583	-78.88813	Palace Theater
091106	-22.9767539	-43.2243328	Teatro do Jóquei
091106	40.4080775	-3.7980029	Auditorio Municipal Volturno
091109	48.1090235	-1.6810877	Théatre de la Parcheminerie
091110	50.4060974	80.2509145	Достоевского
091110	50.4157141	80.2589995	ГДК
091110	53.5705806	-113.4807526	Avenue Theatre
091110	-19.9152029	-43.9344377	104
091110	53.6530967	-2.6336434	Chorley Little Theatre
091110	58.0080208	56.1842977	Студклуб ПГУ
091111	48.8674891	2.3754429	Comédie des 3 Bornes
091111	62.3885872	17.3080252	Sundsvalls Teater
091111	31.7775354	35.2158872	בית אבי חי
091111	48.9430155	2.2486826	Cave Dimière
091111	60.5701172	27.1935246	
091111	40.2097912	0.0300336	Auditorio municipal de Benlloch
091112	31.7718921	35.2246066	מרכז למוסיקה משכנות שאננים
091112	44.20498	-88.4487745	Menasha Theatre
091113	44.9364387	-123.136108	Pentacle Theatre
091113	44.9692709	7.7797938	
091114	48.1037659	-123.4178307	Port Angeles Community Playhouse
091115	52.4641053	4.9533868	Muziektent
091115	-27.0431819	-55.2274676	Anfiteatro
091115	62.0130626	-6.7761689	Sjónleikarhúsið
091116	14.6663171	-17.4394706	Théâtre Daniel Sorano
091117	43.596696	-83.8816534	Van Buren Street Theatre
091117	40.9578479	-72.1902617	Guild Hall
091117	48.4197061	17.7901589	Empírové divadlo
091118	50.02402	22.31712	centrum kultury
091118	32.8077158	-96.7978379	Magnolia Theater@West Village
091118	32.8109621	-96.8008162	Kalita Humphreys (Frank Lloyd Wright) Theater Center
091118	37.9233902	-78.8425056	Earl Hamner Theater
091118	49.0589797	2.0895967	L'Apostrophe
091118	44.9310231	2.4462084	
091119	49.1351592	6.1990698	Cotton Club
091121	53.3449835	-6.2665467	The New Theatre
091121	47.4422139	5.5908472	Théatre
091121	47.3204215	5.0362031	
091121	47.4995846	8.7290603	Marionettentheater im Waaghaus
091121	43.4608946	5.2491555	Théâtre de verdure des Remparts
091121	53.2885756	-6.3715729	Civic Theatre
091122	46.9189316	7.4381187	UP Town
091122	43.6581443	7.1193716	Théatre de Verdure
091122	-26.2516074	28.442771	Springs Civic Theatre
091122	55.9575536	-3.9755574	Cumbernauld Theatre
091122	45.6469873	0.1544164	Théatre
091123	40.3495693	-74.0747015	Two River Theatre Company
091123	40.349001	-74.0702168	Count Basie Theater
091123	40.0980804	-75.4285579	Valley Forge National Historical Park Amphitheater
091123	33.388577	-111.8713919	Theatre Outback 29
091124	36.1473711	-86.8030422	Neely Auditorium
091124	50.6197275	5.9395353	Le Kuursaal
091124	51.5646065	7.3125728	Westfälisches Landestheater
091124	-31.9770724	115.8194362	Octagon Theatre
091124	-31.9768697	115.8193322	Dolphin Theatre
091125	47.8252675	13.0278701	Salzburg Arena
091125	41.9538808	-75.2786255	Capitol Theatre
091126	-37.8446368	144.9993834	Cromwell Street Theatre
091126	20.8892855	-156.5022707	Iao Theater
091127	48.9037116	2.2172074	Bernard-Marie Koltès
091128	41.3097276	-72.931185	University Theater
091128	30.0615684	31.2189826	مسرح الزمالك
091128	45.4732599	-0.1576526	Théâtre du Château
091128	18.6927965	-68.4330599	
091129	41.3477871	-75.6635078	Montage Mountain Amphitheatre
091129	27.4989077	-82.5736971	Players Theater
091129	43.6664097	-79.4040109	Al Green Theatre
091130	19.2416211	73.127545	Acharya Atre
091130	41.4104202	-75.6600344	Scranton Cultural Center
091130	37.695248	15.1054155	Anfiteatro comunale
091201	47.2045675	-1.5755074	Théâtre de Jeanne
091201	51.523472	-0.105511	The Crypt
091201	12.9867764	77.5671966	
091201	51.6696529	-1.2792084	Unicorn Theatre
091201	48.1298041	-1.6562786	TNB Salle Guy Ropartz
091202	48.9509303	2.5712248	Théâtre Louis Aragon
091202	52.9726016	8.4023421	
091202	45.5376042	9.1881646	
091203	48.5718636	7.8115104	
091205	56.2495637	42.1379565	
091207	60.6780096	17.1410857	Folkteatern i Gävleborg
091207	28.0634699	-82.4144865	Teaching Auditorium and Theatre I
091207	-33.8883741	151.1932253	Seymour Centre
091208	51.4035538	0.0143007	The Churchill
091208	31.5320237	76.9048438	Link Theatre
091208	41.4131871	2.019319	Teatre de La Peni - Joventut Catòlica
091209	30.0511719	31.2497195	المسرح القومي
091210	34.0444711	-118.265502	Club Nokia
091210	46.5242906	6.5819422	Grange de Dorigny
091210	46.5222351	6.6214101	Arsenic
091211	39.1618183	-123.2237088	Ukiah Players Theatre
091211	43.3668428	-3.0257592	Txorimalo gaztetxea
091212	50.538987	5.8825681	L'autre rive
091212	43.8367907	4.3534551	Telemac Théâtre
091212	43.8408913	4.3624459	Théâtre du Périscope
091212	43.8322463	4.3534075	Théâtre Christian Liger
091215	47.0247829	28.8375494	Teatrul Dramatic Rus de Stat A. P. Cehov
091215	51.7756273	9.2199276	Freilichtbühne Bökendorf
091216	45.6653101	12.227127	Eden
091216	52.0268286	-0.676117	The Stables Theatre
091217	41.384087	2.164267	Teatre Goya
091217	51.2712846	8.8699309	Freilichtbühne Korbach e.V.
091217	42.6030478	-5.5792691	Auditorio Ciudad de León
091218	-23.4517483	-46.5645215	Teatro Nelson Rodrigues
091219	47.3437067	8.5362957	Fabriktheater
091219	40.0594501	-75.1902097	Sedgewick Theatre
091219	50.7575522	7.1439306	Mort-à-della n.e.V.
091219	50.7430283	7.0960096	Theater Pompeji - Bonner Künstlerhaus
091219	50.7481756	7.0993387	Stiftstheater
091220	45.731658	13.6932224	Kulturni dom Albert Sirk
091222	52.733864	23.587911	Amfiteatr
091222	46.2306251	15.2621725	Slovensko ljudsko gledališče Celje
091222	51.5359833	0.0772176	The Broadway Theatre, Barking
091222	43.4125068	24.6158397	Драматичен Театър Иван Радоев
091223	-23.5554071	-46.6397962	Teatro Imprensa
091224	49.6462368	11.0141743	Mühlentheater
091224	41.4304511	2.188886	SAT
091224	52.9865335	6.5467836	Openluchttheater Tivoli
091225	29.9948883	31.1616668	الزعيم
091226	47.4993723	8.727099	Keller-Theater
091227	48.975981	1.7089118	Salle Jacques Brel
091227	46.0593327	13.2318715	Teatro San Giorgio
091228	65.846852	24.138744	Tornion kesäteatteri
091228	42.5964519	-5.5715506	Teatro Emperador
091230	19.7625199	-70.5168807	Sosua Bay Centre Theatre
091230	46.1437221	14.6739627	Poletno gledališče Studenec
091230	50.8470703	4.3545827	Théatre du Vaudeville
091230	45.6566951	13.7709979	Sala Tripcovich
091231	52.6638144	0.1591561	Angles Theatre
091231	34.9858463	135.7608414	京都劇場 (Kyoto-Gekijo)
091231	45.6543523	13.7699348	Teatro Miela
100101	-34.3873718	-72.0022626	Teatro Pista Municipal
100102	48.9905471	2.2610717	Théâtre Pierre Fresnay
100103	42.7271615	-92.4807525	Players Theatre
100104	52.3026037	4.8592059	Schouwburg Amstelveen
100104	52.3026981	4.8587559	Poppodium P60
100104	20.0457369	-75.7984936	Tropicana
100105	18.9430724	72.8288938	Metro BIG Cinema
100105	50.7758662	14.1920102	Městské Divadlo Děčín
100106	36.9738863	-122.0291224	Santa Cruz Civic Auditorium
100106	50.9825561	5.0555426	Uilenspiegeltheater
100106	51.2185137	4.4160968	Vlaamse Opera
100107	56.4595051	-2.9687856	Caird Hall
100108	47.6260613	-122.5183817	Bainbridge Playhouse
100108	35.8926612	14.4222964	
100108	48.1003231	7.3599544	Théatre de Plein Air
100109	44.5936472	11.0553495	Teatro Dadà
100109	38.0775021	13.442273	Teatro delle Palme
100109	35.7830334	-78.6667414	Thompson Theater
100110	38.8963541	-77.0304994	National Theatre
100110	45.4681245	8.8831965	Teatro Lirico
100110	5.068514	-75.5104788	Centro Cultural y de Convenciones Teatro los Fundadores
100111	59.3614843	10.115697	Høyjord ungdomslokale
100111	48.7746355	2.4865965	Salle Gérard Philippe
100112	50.4597622	80.2089539	ДК КМО
100112	-1.317965	36.7781703	Raila Youth Centre
100112	-1.3114293	36.797071	New Vision Photo Studio
100112	-1.3130671	36.7980606	Dolpnine sports club
100112	-1.3126118	36.7943601	Photo Point
100112	-1.3121884	36.7972317	Gospel music and photos
100112	-1.3114138	36.7941401	Mukaa Photo Studio
100112	43.1354453	-2.0764786	Leidor aretoa
100113	34.0776752	-118.3762668	Coronet Theater
100113	20.0260583	-75.8292137	Teatro Martí
100113	43.1368334	-2.4864163	Espaloia kafe antzokia
100113	26.1696325	-80.2372326	Amphitheater
100114	57.1575022	65.5305379	Театр кукол и масок
100115	58.5310136	31.2303361	Театр Малый / Муз. школа
100115	49.1460738	9.2218372	Theaterforum
100115	-18.9082431	47.5156685	Teatra Monisipaly
100116	60.4555469	22.2701605	Turun Konserttitalo
100116	-26.01241	28.0386253	Rustic Theatre
100116	37.9957001	23.7156102	
100116	53.7808796	11.5065898	Freiluftbühne
100117	-23.944286	-46.3327069	Teatro Municipal de Santos
100117	1.2146178	-77.2823158	Teatro Imperial
100117	53.2235983	6.5689309	NNT Machinefabriek
100117	53.2278831	6.5593122	Prinsentheater
100118	35.2186455	137.0991871	瀬戸市文化センター
100118	53.2154566	6.5621875	USVA
100119	-33.2845256	19.1389253	Saronsberg Teater
100119	43.5638281	1.5252279	Comédie Rive Droite
100120	-29.8591795	31.0266755	Natal Playhouse
100121	45.5976268	8.634257	
100122	52.8364786	-110.8680231	
100122	47.799734	35.1343049	Кінний театр
100122	47.8374408	35.0825812	театр "Vie"
100122	43.2985738	-87.9966692	Cedarburg Performing Arts Center
100123	13.0993988	80.2210877	Kambar Arangam
100123	51.8954973	4.1602693	Bres
100123	59.8602866	5.7555218	Kulturhuset Husnes
100124	-3.7276147	-38.5316739	Teatro José de Alencar
100124	52.4593926	4.642992	Muziektent
100124	52.4567875	4.6310743	Stadsschouwburg
100125	41.8019332	-73.120873	Warner Theatre
100125	48.779989	2.337228	Auditorium Dispan de Floran
100125	49.1025106	11.4400437	Kulturfabrik
100125	43.0326868	-2.4152057	Santa Ana aretoa
100125	49.1096966	6.1671674	Salle Braun
100126	51.1850888	10.0032366	Dachbodentheater
100126	53.3217786	-2.2453583	Wilmslow Green Room Theatre
100127	35.1402183	-90.0554237	The Orpheum
100127	50.773124	15.0518059	Malé divadlo
100128	40.4134549	-3.7035949	Teatro Fígaro Adolfo Marsillach
100128	37.788892	-122.4105288	Marine's Memorial Theater
100129	43.8907715	11.1001677	Teatro Fabbricone
100130	38.5687955	-122.4411866	Pacific Auditorium
100130	-33.7656365	150.6223217	Glenbrook Players Theatre
100131	-37.7977034	144.9687111	Courthouse Theatre
100131	51.5156388	-0.7466082	Norden Farm Centre for the Arts
100131	38.9363949	-77.3608972	Reston Orchestra
100131	38.9136613	-77.0779419	Maison Francaise
100131	45.1838219	5.7104397	Le 102
100131	31.2776098	121.4972584	四平
100131	-25.98921	28.07516	Theate on the Track
100131	43.1124455	3.0949179	Théatre de la Nature
100201	43.1380345	-2.0748912	TOPIC
100201	-22.8065303	-43.2131393	Teatro Lemos Cunha
100202	43.0308191	-2.4136923	Laixan
100202	45.4640488	8.8824269	CinemateatroNuovo
100202	20.0381098	-75.8140039	Teatro Heredia
100203	-3.721691	-38.520324	Espaço Rogaciano Leite Filho
100203	-3.72122	-38.5201952	Anfiteatro Sérgio Motta
100204	33.0462973	-117.2935281	La Paloma
100204	39.8903004	-105.0696711	Madcap Comedy Theater
100204	55.776615	37.6824766	Театр Модернъ
100204	51.7925827	-3.9901264	Amanford Miners' Theatre
100205	56.0354607	9.9328855	Kulturhuset
100205	46.1805606	6.1228365	
100206	40.1841259	44.5179075	Թումանյանի անվան տիկնիկային թատրոն
100206	55.7905761	37.6831415	Московский театр кукол «Жар-птица»
100206	56.0343719	9.9338317	
100207	43.707228	-72.2877561	Filene Auditorium
100207	1.2952796	103.847529	Fort Canning Open Air Green
100207	50.1282225	18.9805277	Teatr Mały
100207	35.9760179	-78.900791	B. N. Duke Auditorium
100208	42.341609	-83.0604001	Masonic Temple
100208	50.7731893	4.3348195	De Moelie
100208	20.0437792	-75.8225598	Anfiteatro "Mariana Grajales"
100209	50.058523	8.1107653	Kultur- und Tagungshaus
100209	-27.3426861	153.0704008	Brisbane Entertainment Centre
100209	-27.342991	153.0697743	Sports Centre
100209	39.9963145	-75.1892376	Robin Hood Dell
100209	42.484668	26.5053357	Куклен театър
100210	44.9487714	-93.2536433	In the Heart of the Beast Puppet and Mask Theatre
100211	48.5654571	7.7591248	Scala
100211	60.462898	26.9372826	Konserttitalo
100212	20.0212203	-75.8320824	Orfeón Santiago
100213	-33.9916983	18.5844487	Zolani center
100213	41.6572432	-0.8890848	Teatro del Mercado
100213	48.0519608	17.1522112	amfiteáter
100214	53.7920581	9.4204455	Theater am Neuendeich
100214	49.192226	16.6096865	Reduta
100215	53.5908988	-113.4208864	Movies 12
100215	53.599791	-113.4079474	Empire Clareview 10 Cinemas
100215	47.3943967	0.6897022	Grand Théatre
100215	45.0317826	7.5243826	teatro parrocchiale
100216	52.3804246	9.7456531	Theaterwerkstatt Hannover
100216	48.1408899	11.5800578	Cuvilliés-Theater
100216	48.9726895	14.4747715	Jihočeské divadlo
100216	53.4309426	-1.3513874	Rotherham Civic
100217	60.186688	24.9479328	Ryhmäteatteri
100218	6.9141916	79.8791071	punchi Theatre
100218	48.5288495	7.7074294	Illiade
100219	57.795765	12.0509939	Angereds Teater
100220	43.2167907	-2.4104262	Herriko Antzokia
100221	51.494364	4.2862034	De Maagd
100221	43.5498854	-79.6662125	
100221	30.0385649	31.2108722	مسرح نجم
100222	49.2013189	16.6091851	Hudební scéna
100222	-34.9709938	138.6087338	Australian Dance Theatre
100222	48.5137935	-2.7610008	La passerelle
100222	-20.3787733	-43.4161744	
100222	9.0304736	38.7407578	Ras Theatre
100223	50.7423666	7.1274857	Kulturzentrum Tapetenfabrik
100223	50.4109101	4.4414817	Eden
100223	56.458498	-2.9878934	Whitehall Theatre
100226	40.419344	-3.6842958	Centro Cultural Casa de Vacas
100227	49.9769023	9.0866313	Puppenschiff Theater im Kronesaal
100227	50.7136689	7.1361395	Freiluft-Theater
100228	60.3529531	5.2895654	Fyllingsdalen Nye Teater
100228	50.888601	10.7439547	
100301	55.599199	13.0012401	Victoria
100301	51.6751906	-4.0420128	Penyrheol Theatre
100301	50.408911	80.2536256	Космос
100301	11.2727178	77.605376	Maharaja Auditorium
100303	45.5972496	9.0198198	CineTeatro San Giuseppe
100303	48.0827884	7.3517345	Comédie de l'Est
100303	48.6532901	13.6318147	Adalbert-Stifter-Halle
100304	7.8788004	98.292099	Simon Cabaret
100304	42.5513791	-70.8788547	Cabot Theatre
100305	48.8618825	18.8600945	MSÚ a Divadlo
100305	46.919356	6.3693667	
100306	35.047932	-85.305775	Memorial Auditorium
100306	38.1356132	-121.2737794	Lodi Stadium 12
100306	53.9270845	-1.8226124	Ilkley Playhouse
100306	59.3310791	18.0317445	Replica
100306	51.7418847	13.9501889	Amphitheater
100306	39.385647	141.1013206	花巻市文化会館
100307	53.3322336	83.7914543	Сказка
100307	53.759839	-2.6961938	Charter Theatre
100307	43.1782491	5.7033659	Théâtre de Verdure
100307	54.686259	-1.2131661	Town Hall Theatre
100308	37.2707022	-76.7066237	Kimball Theatre
100308	6.90678	79.8606719	Lionel Wendt
100308	-32.0556756	115.7472694	Kulcha
100308	48.8386483	-0.8934461	Le Préau
100309	49.7127414	16.2620887	Tyluv dum
100309	45.8923348	12.5940521	Teatro Pileo da Prata
100309	5.0724157	-75.5259689	Mediatorta de Chipre
100310	47.0271025	4.839657	Théatre Municipal
100310	12.9758832	77.5968704	Bal Bhavan Auditorium
100310	5.0564646	-75.4929093	Teatro 8 de Junio
100310	12.9725456	77.5862547	Daly Memorial Hall
100310	43.318078	11.3323532	Teatro Dei Rinnovati
100310	35.1550482	136.9190868	
100310	10.7923145	79.1355732	Saraswati Mahal
100311	45.6410179	9.5031294	Sala della Comunità
100311	30.0609356	31.2140952	مسرح البالون
100311	48.9961564	2.1994729	
100311	5.0327172	-75.4503196	Auditorio
100311	43.3937081	3.692349	Théâtre de la Mer
100312	50.2775535	3.9784181	Théâtre du Manège
100313	12.9756382	77.5837686	Jnana Jyothi Auditorium
100313	49.939189	17.90101	Slezské divadlo Opava
100314	52.3704827	4.8976972	Compagnietheater
100314	53.0987072	49.9759686	"Время тайн"
100315	58.2542514	22.4897165	Kuressaare Linnateater
100315	43.7389908	7.3081724	Théâtre Lino Ventura
100316	60.2241709	25.077039	Lähiöteatteri
100316	53.0249272	9.8762574	Piraten-Show
100316	59.9134439	10.736072	Kristiania Teater
100316	39.9516066	32.7665074	Devlet Tiyatroları Atölye Sahnesi
100316	45.1723072	5.7330397	Maison de la Culture de Grenoble (MC2)
100317	51.0807454	-4.0584073	Queens Theatre
100317	62.3010125	27.1542694	Poleeni
100317	55.7725971	37.6783612	Московский детский театр эстрады
100317	5.057461	-75.4911985	K
100318	5.0626214	-75.4989823	Auditorio Hernando Aristizábal Botero
100318	-18.9086437	47.5270248	Tranompokonolona Analakely
100318	19.1319441	72.9143666	Convocation Hall
100318	30.0975954	31.3483481	الجلاء
100319	44.8996181	-68.6676442	Hauck Auditorium
100319	48.9429311	20.5714114	Spišské divadlo
100319	18.9254219	72.8192178	National Centre for Performing Arts
100319	54.6827702	25.2868349	VU kiemo teatras
100319	19.2663527	-99.1255637	Carlos Pellicer
100320	49.6377873	-1.6228411	Théàtre de Cherbourg
100320	51.7451506	-2.2091507	Cotswold Playhouse
100320	-26.2392383	28.0131213	Lyric Theatre
100320	-26.2383145	28.0134914	Globe theatre
100320	47.5111678	-67.3912657	Théâtre Montcalm
100320	43.0670703	-2.491781	Monterron, Jauregia
100320	45.885721	11.0560551	Teatro "alla Cartiera"
100320	10.7860859	79.133904	Stage
100321	48.967688	2.2865306	Théâtre Marais
100321	28.063783	-15.4632354	Amphitheatre
100321	-27.6436482	153.102128	Logan Entertainment Centre
100322	52.0251735	-0.7109093	The Hub Lecture Theatre
100322	4.6304874	-74.0640561	Auditorio Félix Restrepo S.J.
100322	41.3840976	2.1707056	Poliorama
100322	42.9351423	13.6910354	Teatro Serpente Aureo
100323	34.3763178	-80.0690082	Coker College Theatre
100323	34.3756006	-80.0742868	Center Theatre
100323	42.0721414	-83.9728774	Clinton Theatre
100324	-34.5273193	-58.4606931	Anfiteatro Arturo Illia
100324	44.240811	-76.5729318	Domino Theatre
100325	43.0391094	-87.9295187	Varsity Theatre
100325	39.1018481	-84.50753	Taft Theatre
100325	43.0398321	-87.9316924	Weasler Auditorium
100326	57.4684221	31.1122197	Центр творчества
100326	52.8932925	40.509853	Драматический театр
100327	45.4384862	10.9458343	Cinema-Teatro San Massimo
100327	48.7331687	19.1463027	Štátna opera
100327	45.2893215	18.8066319	Gradsko kazalište Joza Ivakić
100327	46.1319065	3.4560515	Théâtre de Cusset
100327	42.4148739	-71.1573095	Arlington Friends of the Drama
100328	28.392379	-82.666675	Show Palace Dinner Theater
100328	36.1271444	-5.4489301	Teatro Florida de Algeciras
100329	53.4451311	14.5309325	Teatr Letni imienia Heleny Majdaniec
100329	66.4971242	25.7209567	Rovaniemen teatteri
100330	-26.1945578	28.0584986	Alahambra Theatre
100330	49.5933026	17.2504432	Moravské divadlo
100401	60.1754218	24.9584874	Studio Krunikka
100401	60.1621304	24.9395943	Teatteri Takomo
100401	60.1711408	24.8044926	Espoon kaupunginteatteri
100402	48.1532827	19.0897616	
100402	62.892888	27.6650336	Kuopion kaupunginteatteri
100403	45.7781769	-74.0042794	
100403	51.7432718	13.9501236	Stadthalle
100403	50.8993187	14.8348528	Freilichtbühne
100404	-36.3556153	146.3229928	Wangaratta Performing Arts Centre
100404	43.2987879	-0.3649887	Théâtre Monte Charge
100404	43.1354277	13.0673844	
100404	47.6274152	-122.5214451	Bainbridge Cinema
100405	62.6172262	29.8691902	
100405	51.8903236	11.0479725	Nordharzer Städtebundtheater
100406	38.0890694	-0.6500432	Auditori Parc Reina Sofía
100406	40.4202174	-104.9907536	Metro Lux 12 Theater
100406	47.6823294	-122.339774	Green Lake Bath House
100406	46.0711172	13.2292971	Palamostre
100407	55.6808356	12.5762913	CaféTeatret
100407	38.8965108	-77.0293531	Warner Theatre
100407	3.376003	-76.5328365	Plazoleta de Ingenieria
100408	34.4195019	-119.6998307	Paseo Nuevo Metropolitan Theatres
100409	48.723314	21.2561528	Malá scéna
100409	48.7174215	21.2575104	Thália
100409	16.419245	102.8390343	Open-air Theatre
100409	15.1895109	120.5249579	Bobbit Theater
100409	55.9153431	36.8721559	кукольный театр
100409	48.7193276	21.2541372	Bábkové divadlo
100410	49.8114832	73.0805828	театр им. С. Сейфулина
100410	48.6915921	10.9151248	Freilichtbühne
100410	-33.322185	115.6376674	
100410	58.7542561	17.0089152	Culturum Konsertsal Bibliotek
100410	48.9599984	9.1898145	Fischerwört Halle
100410	48.9603753	9.1914721	Sportplatz
100410	34.2163763	-119.0038948	
100410	40.7111061	-112.10847	Empress Theatre
100410	52.9914391	6.5645888	De Schalm
100411	48.5239468	34.6115592	Театр ім. Лесі Українки
100411	50.1019115	8.6424004	Gallustheater
100411	36.9764661	-122.0264033	Vets Hall
100412	43.407167	5.0513077	Théâtre des Salins
100412	44.8876576	-0.565898	
100413	55.7941784	49.1301644	Театр им. К. Тинчурина
100414	50.1474501	8.3289261	Rhein-Main Theater
100414	55.8029156	38.9945841	КДЦ "Зимний театр"
100414	-22.911901	-43.176739	Teatro Serrador - Sala Brigitte Blair
100414	48.5282651	25.0369417	
100414	50.6842033	-1.5293214	Freshwater Memorial Hall
100415	48.0331423	14.2127105	Stadttheater Bad Hall
100415	48.649629	9.1898714	Filderbühne
100416	-40.801472	-62.9846572	
100417	58.461401	22.2344611	Rahvamaja
100417	42.3371561	-83.0460657	Music Hall Center for the Performing Arts
100418	-37.2462348	144.4498035	Bluestone Theatre
100418	-22.8793787	-43.4639312	B.P. Bangu - Cruz e Souza
100418	50.6432539	5.5698163	Opéra Royal de Wallonie
100419	52.3984677	-2.2374933	The Rose Theatre
100419	43.0369179	-87.9291633	Helfaer Theatre
100420	55.7893807	49.1130341	ТЮЗ
100421	56.0054707	-3.6080696	Barony Theatre
100421	48.8553861	2.3625173	Double Fond
100422	-33.4292168	-70.6213564	Circus OK
100422	48.9110723	2.2894886	Théâtre Armande Béjart
100422	48.9109736	2.290304	Studio Théatre d'Asnières
100422	34.7364785	-86.6688347	Touchstar
100423	40.7618324	-74.4265872	F M Kirby Shakespeare Theatre
100424	51.1257047	2.8190847	Oud Gemeentehuis
100424	51.1265666	2.8773316	Oude School
100424	43.0549117	-2.9997161	Amurrio Antzokia
100424	6.8025113	-58.1399644	National Theatre
100425	53.5808911	-2.4308375	The Victoria Hall
100426	55.7215532	37.5907383	Театр Стаса Намина
100426	55.7215411	37.591382	Зеленый театр
100426	49.0962198	-122.0443251	
100428	59.4379693	24.7499149	Eesti Teatriliit
100428	51.0888759	11.6276682	
100428	-37.8112074	144.9457294	Festival Hall
100429	53.4518421	-2.365823	Flixton Academy of Perfoming Arts
100429	51.5122	-2.55522	Olympus Theatre
100430	29.0736544	-110.947408	
100430	51.5208644	-0.4216956	The Beck Theatre
100430	52.6422425	5.0618656	Het Pakhuis
100501	53.5503952	9.9743214	Neues Theater
100501	51.6068818	-1.240403	Cornerstone
100501	41.3824303	-71.8249467	George Kent Performance Hall
100501	32.0844148	34.8024255	יהלום
100501	43.6484507	-72.3188258	Northern Stage
100502	41.8002648	-72.7143301	Lincoln Theater
100503	56.8641113	41.2979895	
100503	21.0241521	105.8579157	Hanoi Opera House
100503	45.1644178	5.7331828	Espace 600
100504	52.4283893	-1.8131029	Dovehouse Theatre
100504	44.4444754	-88.0676189	Walter Theatre
100504	44.4445251	-88.0681607	Webb Theatre
100505	45.7405922	11.260121	San Sebastiano
100505	45.0152353	9.1315771	La Fabbrika della Musica 24
100505	52.3419896	4.8745106	Thomastheater
100508	38.9897673	-94.7878379	The Theatre in the Park
100508	9.0270191	38.7522461	Mega Amphie Theater
100509	40.363696	-4.398233	
100510	45.7687458	11.7359758	Astra
100510	55.7290136	24.3648329	Miltinio dramos teatras
100511	44.899662	-68.666674	Hutchins Concert Hall
100511	4.597347	-74.070088	Escuela Teatro Libre
100511	43.266977	-1.976468	Biteri Kultur Etxea
100511	42.4877598	14.1373336	Auditorium
100512	45.6965218	9.6978545	Pala CreBerg
100513	40.8893794	-98.3742538	Hornady Marshall Auditorium
100513	55.8724512	-4.2787821	The Stand Comedy Club
100513	43.6717129	-79.3861135	The Bram & Bluma Appel Salon
100513	59.4369244	24.7463975	Pärimusteater Loomine
100513	54.4449728	18.5442286	Opera Leśna
100514	14.6103541	121.0620753	AFP Amphitheater
100514	43.6173361	1.2815262	Théatre Musical de Pibrac (TMP)
100514	53.7292944	9.8086254	Waldbühne
100514	53.7143218	-2.092605	Hippodrome Theatre
100514	45.7038545	4.8228857	La Maison du Peuple
100515	56.4646107	10.0328756	Værket
100515	50.6238061	8.6326803	Wettenberger Sammelsurium Vereinshaus
100515	37.4081433	-5.9963668	Teatro Central
100516	48.3846305	-4.490519	Auditorium
100516	52.5125302	9.5314627	Waldbühne Otternhagen
100516	43.5687882	39.7332628	Летний театр
100516	43.5689272	39.7384505	Цирк
100517	50.0400122	15.7798536	Divadlo 29
100517	45.4994448	9.2855542	Cascina Commenda
100517	37.3784664	-5.9912525	Teatro Lope de Vega
100518	30.0460126	31.2463568	جمهورية
100518	29.5562509	-81.1961387	
100518	52.3513545	5.19348	Studio CE
100518	51.337886	6.1459102	Openluchttheater De Doolhof
100518	43.0664782	-2.4867256	Amaia antzokia
100518	55.8598514	-4.2886522	The Clyde Auditorium
100519	32.1911957	34.8214977	
100519	43.5984076	1.4307753	Le Chapeau Rouge
100520	56.4588545	10.0364616	Grand Teatret
100520	49.034793	-122.0038093	Maple Bay Amphitheatre
100520	35.7342962	139.487073	ルネこだいら
100522	59.4383149	24.7431439	Nuku
100522	55.7064033	12.5758124	Republique
100522	59.4403115	24.7454452	Tallinna Linnateater
100522	-23.5612309	-46.6479011	Salao de festas
100522	-23.5441735	-46.5591171	Zoopaloo Buffet
100523	41.9173985	12.4657772	Teatro San Genesio
100523	55.670349	12.5399612	Teatret ved Sorte Hest
100523	43.16029	13.717129	Teatro dell'Aquila
100523	40.0293807	-83.1721938	
100524	42.2674171	-71.0165399	Wollaston Theatre
100524	44.8707175	-0.548444	Théâtre du Pont Tournant
100524	44.3310091	-79.3267044	Amphitheatre
100525	49.4419954	6.6332103	Stadthalle
100525	49.9747803	8.2531403	Schauspielschule
100525	40.8698444	-124.0915879	Arcata Playhouse
100525	30.492904	-92.416516	Liberty Theater
100526	-20.2898134	-40.302845	Teatro Galpão
100527	48.8035136	2.0518492	Gérard Philippe
100529	45.8257685	10.5305601	teatro Santa Croce
100529	41.8596119	12.4955171	Teatro Mongiovino
100530	54.9477438	-1.6017256	Little Theatre
100531	35.6505466	139.7056641	シアター代官山
100601	30.2274916	-92.0169701	Cite des Arts
100601	41.5424903	1.8946065	Gran Teatre de la Passió d'Olesa
100601	40.1320657	-75.0597128	Mitchell Performing Arts Center
100602	47.9238238	-97.0318344	Empire Theatre
100602	44.0231409	-92.4594569	Rochester Civic Theatre
100602	50.4137481	7.8940919	Freilichtbühne
100603	41.5542251	2.40377	La Sala d'Argentona
100604	37.9889358	23.7470974	Λαμπέτη
100604	37.9879803	23.7446619	Φούρνος
100604	41.6844413	-69.9645681	Monomy Theatre
100604	40.0226144	-75.1917647	
100605	-37.4203522	144.5620745	Mountview Theatre
100606	51.1196796	8.612388	Freilichtbühne Hallenberg
100607	37.0569306	35.3590998	Acik hava tiyatrosu
100607	50.9364431	7.0045987	Halle Kalk
100608	52.2040901	21.019483	Laboratorium Dramatu
100609	48.4057706	-4.4893777	Théatre de l'Instant
100609	-34.6037719	-58.3802836	El Nacional
100609	34.6689021	32.7029754	Pissouri Amphitheatre
100609	41.6499669	-4.7281904	Teatro Carrión
100610	38.903758	-77.062453	Horizons Theatre
100610	57.3458493	61.3489329	
100610	37.8037215	-85.4566941	
100610	-33.9340958	18.8612491	HB Thom
100610	49.0855287	-123.0848055	Genesis Theater
100611	41.0051107	-8.6327055	Escola de Musica de Espinho
100611	59.3540137	27.4228423	Jõhvi Kontserdimaja
100611	21.2707852	-157.8031277	Diamond Head Theatre
100613	50.8644675	5.8257247	Openluchttheater Valkenburg
100613	39.1449565	-77.0445675	Olney Theatre
100613	43.9094924	4.0004935	Foyer Désiré Rousset
100614	52.5160106	6.097519	Theater De Spiegel
100614	41.6543409	-4.7247579	Teatro Calderón
100616	55.0469381	58.9741335	ДК Магнезит
100617	34.7223509	-82.2278827	Charter Amphitheatre
100617	43.600148	1.2398024	Tempo
100618	34.1743466	-118.8488915	
100618	45.1760009	4.9995551	Mille-club
100619	-26.1921197	28.0508054	Windybrow Theatre
100619	-44.9384674	168.8326862	
100619	51.157073	4.4444045	Cartouche
100619	60.7086007	46.2981547	Морозовский дом культуры
100620	50.0259347	14.4414297	bývalé lesní divadlo Sokola Krč
100620	37.9663627	23.7197749	
100620	47.2428773	6.0314966	Centre Dramatique National (CDN)
100620	45.4222546	4.9060105	
100620	44.2296603	-76.4839453	Wellington Street Theatre
100621	43.0276476	-87.8980189	Marcus Amphitheater
100622	51.1598568	12.2750804	Freilichtbühne
100623	44.4436272	26.1045563	Teatrul Bulandra
100624	48.7922199	2.3357714	Théâtre de Cachan
100624	43.7729607	1.6868005	Salle René Cassin
100625	41.9829091	2.8253438	Teatre Municipal
100625	41.9749457	2.8116171	Teatre del Centre Cívic Sant Narcís
100626	49.4451028	1.0987648	Chapelle Saint-Louis
100627	33.0093621	35.1001015	
100627	44.4017813	-72.9971258	
100627	43.5883151	-89.803665	Crystal Grand Music Theatre
100627	47.0837753	2.3942491	Théâtre Jacques Cœur
100628	45.822455	13.3339601	Teatro Pasolini
100628	53.9044626	9.8942944	Theater im Kurhaus
100628	43.2365956	3.2599234	
100629	40.9886069	28.8483084	Yunus Emre Kültür Merkezi
100629	44.5895991	10.7380909	Teatro Fabrizio De Andrè
100630	44.8998614	-76.2488633	The Studio Theatre
100630	36.8516184	-121.4029665	Granada Theater
100630	48.7831161	-123.7032581	Cowichan Theatre
100630	49.4439339	1.0900597	Salle Sainte-Croix-des-Pelletiers
100701	54.6848741	-1.2090474	The Studio
100701	51.1796627	71.3387966	
100701	48.9998823	1.6835083	
100701	47.983257	3.391343	Salle Claude Debussy
100701	44.2036296	0.6152459	Théàtre d'Agen
100703	36.9734424	-122.0173211	Broadway Playhouse
100704	59.933617	30.2542495	Домино
100704	43.1858202	-2.4675414	Coliseo Antzokia
100705	42.8679068	-2.6964645	Ibaiondo antzokia
100705	47.5854691	12.692875	Bauerntheater
100705	46.1396314	12.2174026	Teatro Comunale
100705	48.7662675	2.4142584	Théâtre-Cinéma Paul Éluard
100706	40.7935087	-77.860621	Penn State Downtown Theatre Center
100706	52.3840904	4.8839824	Roode Bioscoop
100706	49.4258318	1.0637873	Théatre de la Foudre
100706	43.0344754	-88.0406337	Sea Lion Show
100707	35.1905141	25.0865098	Θέατρο τον Αγρόν
100707	49.9756457	14.3962535	divadlo Jana Kašky
100707	-22.9072655	-43.1764249	Teatro Glauce Rocha
100708	34.530111	135.95712	大衆演劇やまと座
100708	49.6685242	18.6751679	Kulturní Dům Trisia, a.s.
100708	46.1612059	8.7736339	San Materno
100708	52.4006121	4.8968568	ITW
100709	37.4179178	-6.158771	Teatro Municipal
100710	9.864511	-83.9213367	Teatro del CAD
100710	49.6470426	8.7771638	StudioBühne
100710	43.0310377	-2.1880073	
100710	50.211222	-5.4826566	Saint Ives Theatre
100710	44.943269	-93.1370774	SteppingStone Theatre
100711	33.5514339	132.650227	内子座
100712	39.7761473	-98.7860302	
100712	45.8419112	-76.7381739	
100712	39.5625467	-74.2389854	Surflight Theatre
100712	44.9155819	-0.4242236	La Coupole
100713	33.8847163	-84.4590946	Cobb Energy Performing Arts Center
100713	51.0703242	-1.7999544	Salisbury Playhouse
100713	51.0769844	-1.8001475	Studio Theatre
100713	43.2352647	-2.8894364	Social Antzokia
100714	48.0073529	0.198927	L'éphémere
100715	56.7781784	54.1306937	Театр Драмы и Комедии
100715	45.8511806	-72.077279	Théatre des grands chênes
100715	47.0230013	28.8400411	Filarmonia
100715	39.8832001	32.68289	DT Çayyolu Cüneyt Gökçer Sahnesi
100716	34.5009696	-82.0094304	Little River Park Stage
100716	54.6896668	-1.554508	
100718	50.8005972	14.4186828	Kulturní dům
100718	54.6984156	-1.6026056	
100719	44.1352526	12.2485037	Teatro Verdi
100720	38.4699226	23.5968985	
100720	45.2669053	1.7706508	Les Sept Collines
100721	53.1658035	-2.2104632	Daneside Theatre
100721	16.4459481	102.8145068	Open-air Theatre
100721	39.2631077	-121.0189204	
100722	34.849546	-82.402419	Centre Stage
100722	34.8434946	-82.4050404	The Warehouse Theatre
100722	34.8420682	-82.405629	South Carolina Children's Theatre
100722	45.5977806	9.8840263	Teatro Sociale
100723	48.5758436	-3.8290875	
100723	43.0427027	-87.917583	Milwaukee Theatre
100724	46.2552046	5.9880751	Ferme Auberge du Pre Velard (Diner-Spectacle)
100725	-25.4467201	-49.3564917	Teatro Positivo
100725	45.6989415	-0.3267129	Théâtre municipal
100725	-4.2940951	39.5868687	Animation Theatre
100725	47.8362114	-3.4041389	Le Strapontin
100726	46.8217963	-1.3575388	Theatre Richelieu
100727	41.463961	15.5462926	Teatro Umberto Giordano
100727	35.693179	139.5586734	三鷹市芸術文化センター
100728	40.8614277	-84.5689517	Van Wert Civic Theater
100730	51.1149655	9.1049697	Theater am Bunker
100730	54.680751	25.273205	Lietuvos Rusų dramos teatras
100731	44.2596023	12.3494326	Teatro Comunale di Cervia
100801	47.9215645	19.175552	Bánki Viziszinpad
100801	45.8322187	1.2591602	
100801	47.7902439	-3.4143545	Les Arcs
100803	42.8416286	-79.5477321	
100803	43.5371867	1.3438142	Théâtre Paul Éluard
100803	44.7023182	10.6489413	Teatro ReGiò
100803	41.9284839	8.737878	Kallisté
100803	55.9690336	13.5189569	
100804	30.0597079	31.2144337	السيرك الوطني
100804	51.2051293	4.3924676	Monty
100804	53.5212029	-113.4946257	Catalyst Theater Society
100805	34.2805574	-119.2912231	Ventura Concert Theater
100805	34.2810292	-119.2921381	
100805	50.9282603	6.9634869	Musiktheater Werkschutz
100805	54.1551837	-4.4784584	The Gaiety
100805	36.3627947	127.3466309	정심화국제문화회관 (Jeongsimhwa International Cultural Center)
100805	-27.9255312	153.1847097	Zamia Theatre
100805	45.6974158	9.6680644	Auditorium
100806	44.8016164	10.343249	Auditorium Paganini
100806	50.9802659	3.1963027	
100806	51.0633132	14.4432218	Waldbühne Sohland
100807	42.9839878	-81.2480484	The ARTS Project
100807	42.9826614	-81.2462996	Fanshawe College Theatre
100807	42.9841605	-81.2464713	Wolf Performance Hall
100807	43.5999718	13.3253684	Teatro Valle
100808	35.893705	127.7719961	
100808	44.959311	-93.2687097	Open Eye Figure Theater
100808	58.3853539	24.4966363	Endla
100808	39.4708613	-0.3780014	Olympia
100809	51.5076633	-0.1243661	New Players Theatre
100809	19.3642365	-99.1824033	Teatro de los Insurgentes
100809	50.0197524	-66.8665454	Graffiti Café-Théatre
100809	-29.7236486	31.0675594	The Barnyard
100809	48.0244734	-4.5634512	Théâtre Georges Madec
100809	33.8802975	-117.175862	
100810	8.9964424	-79.5252591	Teatro El Circulo
100810	17.0794911	-96.7422697	Teatro Alvaro Carrillo
100810	50.2071356	-66.3902415	
100811	40.6277639	22.972452	Θέατρο Γης
100811	49.5817339	10.6057924	Neustadthalle
100812	45.0478443	-93.799395	Delano 5
100812	50.3581333	9.0559382	Fresche Keller
100812	52.2597854	-7.1069047	Theatre Royal Waterford
100812	48.9725875	14.474733	Jihočeské divadlo
100812	62.5987565	29.7715151	
100812	40.7463369	-74.2609942	South Orange Performing Arts Center
100813	39.3504	-94.9191916	AAFES Theater
100813	62.1083608	-6.7259378	Løkshøll
100813	48.1736188	11.6121129	Amphitheater im Englischen Garten
100814	39.905042	8.5922924	Teatro Antonio Garau
100815	59.9361726	10.7656686	Soria Moria
100815	43.0869232	-96.1669744	TePaske Theatre
100815	31.4314619	73.0861493	Nusrat Fateh Ali Khan Auditorium
100815	48.6772192	2.1331232	Salle Barbara
100816	42.4153964	-6.9855829	Teatro Lauro Olmo
100817	43.5249821	-5.615104	Teatro de la Universidad Laboral
100817	40.4290243	-79.9914731	Pittsburgh City Theatre
100817	40.4290896	-79.9914731	Quantum Theatre
100817	40.4299553	-79.9931254	Rex Theatre
100817	-35.1132685	-71.2795697	Teatro Municipal
100817	45.267443	-72.1551177	Vieux Clocher
100817	34.0094399	-118.4893903	Santa Monica Civic Auditorium
100817	-37.8941787	145.3106157	1812 Theatre
100817	43.3106019	13.3129554	
100818	39.3199292	23.1821149	
100818	59.1233843	11.3849005	Fredrikshald Teater
100818	48.9109565	2.3835925	Théâtre de la Commune
100818	50.0763937	12.3672608	
100819	49.9473425	82.6227617	Театр им. Жамбыла
100819	47.6418945	0.547941	Salle Piegu
100820	50.1019391	8.7673686	Theater t-raum
100820	43.5353025	13.6041886	Teatro Le Cave
100820	48.881814	2.4202616	Le Garde Chasse
100821	50.0895078	14.4341757	Archa
100821	37.7100103	-82.1832801	Delbarton Opry House
100821	4.2391106	-75.2398557	Concha acustica
100822	53.8976183	30.3326661	Могилёвский областной драматический театр
100822	52.4519118	13.5320915	Ratz-Fatz
100822	44.8589879	24.8689949	Teatrul Alexandru Davila
100823	49.9654436	16.9765307	Divadlo Šumperk
100823	43.6286854	3.8158896	Théâtre Jean Vilar
100823	37.5098062	127.061077	코엑스 아티움
100824	49.4500693	2.1009099	Elispace
100824	38.7646768	-123.5198004	Gualala Arts Center
100824	50.3864312	13.1791024	Kulturní dům
100824	45.8518195	10.974984	Auditorium
100825	48.7638076	9.1707416	Theater Rampe
100825	42.0335253	-91.5985546	Liars Theatre
100825	41.9538471	-91.7140896	Wynnsong 12
100825	-1.3188225	36.8877007	MAKUENI VIDEO SHOW
100825	45.5969916	9.8767739	Cinema Teatro Aurora
100826	54.4079344	10.2251553	De Laboer Lachmöwen
100826	43.0821109	-96.1680758	New World Theatre
100826	37.1988444	-112.9898481	Giant Screen Theatre
100826	36.166123	139.5472491	産業文化ホール
100826	49.251514	17.751956	
100826	31.9053339	34.8089631	אולם ויקס
100827	45.9683064	11.2330622	Teatro comunale
100827	45.5534456	9.3063098	Auditorium civico
100828	48.5842094	17.8304294	Malá scéna I. Krasku
100828	52.2786924	-1.5761732	Bridge House Theatre
100828	48.768756	-3.565839	Le Sémaphore
100828	49.3010548	20.6850179	Dom Kultúry
100828	45.9552208	12.8383547	Teatro Pasolini
100828	39.9837128	-75.222779	Mann Music Centre
100829	33.4215141	-94.0449103	Perot Theater
100829	44.8970561	-77.1907099	
100829	45.650897	9.0045282	
100829	62.5696871	23.0990816	Aisamäen kesäteatteri
100830	50.0378225	14.4120542	Konzervatoř Duncan centre
100830	47.3511413	7.9012383	Theaterstudio Olten
100830	45.1840835	0.7610639	Le Palio
100831	47.3740702	8.5268084	Casino-Saal Aussersihl
100831	49.5290209	11.3179981	
100831	-34.9074279	138.5742709	
100901	13.8539169	100.5678432	โรงงานต้นแบบอาหารสัตว์น้ำ
100902	55.7756311	37.658553	Театрально-концертный зал ЦДКЖ
100902	36.0092276	-78.9147934	Baldwin Auditorium
100902	44.9715149	-124.0112783	Program Area
100903	41.6472006	-95.3239029	Vet's Memorial Auditorium
100903	42.3232324	11.6143692	
100903	43.176637	5.61034	Théâtre du Golfe
100903	43.178603	5.607251	Théâtre de Verdure
100903	32.710927	-97.3615801	Hays Theater
100903	41.3529809	-8.7460674	Teatro Municipal de Vila de Conde
100904	59.4515369	24.7303154	Noblessneri valukoda
100904	38.045062	138.4455242	本間家能舞台
100904	50.230148	14.0822762	Slanske divadlo
100904	-34.9236603	138.5688394	Thebarton Theatre
100905	47.3701605	8.5467318	Theater Winkelwiese
100905	47.5934884	12.1212813	Passionspielhaus
100905	37.5170443	127.1248101	우리금융아트홀
100906	51.885438	26.8437408	
100906	36.7281022	-4.4189514	Teatro Cánovas
100907	2.4407898	-76.6045359	Casa de la Cultura
100907	4.524644	-74.353958	
100907	4.5249383	-74.3556349	Aire Libre
100909	4.6484115	-74.0625555	Libre
100909	48.6366838	4.947015	
100910	43.6101904	1.3409164	Auditorium Jean Cayrou
100910	49.261256	-123.138493	Stanley Theatre
100910	47.6939631	-117.4254479	Garland Theater
100912	51.5588402	-0.1771308	New End Theatre
100912	49.9351408	11.5675942	Studiobühne Bayreuth
100913	46.3398461	2.606422	Théatre municipal Gabriel Robinne
100914	37.6138138	15.0197939	Centro Congressi
100914	48.6819582	2.1700413	Centre culturel Boris Vian
100915	60.41696	24.3112727	Kirkkoniemen kesäteatteri
100915	40.2839358	69.6192498	К. Худжанди
100915	-34.994321	117.8575185	Orana Cinema
100915	39.536551	-119.758635	Cinemark Sparks 12
100915	44.3537578	2.5634712	Salle Paul Astruc
100916	53.7590816	87.135382	Синтезис
100916	59.9891856	29.7637069	Драматический театр Балтийского флота
100916	42.0296429	-88.3358329	Marcus Theater
100916	42.0282163	-88.3368844	Lone Star Steakhouse
100916	51.5037302	-0.1018567	Union Theatre
100916	40.2839973	69.6190509	
100917	41.1307458	16.5426009	Teatro Millico
100917	47.3714972	8.5506022	Keller62
100917	52.5765499	-0.2410936	John Clare Theatre
100917	45.5755354	8.5584604	Teatro di Momo
100918	47.368861	8.5456182	Theater Weisser Wind
100919	48.2550714	11.3613058	Hoftheater Bergkirchen
100919	49.3012915	12.8393708	Waldbühne Furth im Wald
100919	33.5813347	-101.874328	Allen Theatre
100919	48.1510653	40.1832799	Дом культуры им.Железнодорожников
100919	53.2240259	6.5641319	Platformtheater
100919	43.8392669	4.3649846	Odéon
100919	45.8269227	4.9573743	L'Allégro
100920	53.554823	9.9792555	Kellertheater Hamburg
100920	4.8102029	-75.6941064	
100920	28.4896359	-16.316628	Orfeon La Paz
100920	60.4850368	15.4380299	Maximteatern
100921	60.2891854	25.0371174	Silkkisali
100921	60.2907893	25.0185201	Tanssiteatteri Raatikko
100921	50.0822725	14.4488087	Palác Akropolis
100921	16.6078638	120.2862197	Ampitheatre
100921	45.0081428	7.5375058	Teatro Sandro Pertini
100922	-6.7673182	39.2350245	Nyerere Movie Theatre
100922	42.5765637	-2.8499683	Bretón
100923	-34.6622409	-58.3632174	Teatro Municipal Roma
100923	37.3610442	-122.1273644	Smithwick Theatre
100924	45.9599892	-66.6370802	The Playhouse
100924	1.11076	103.94923	Rumah Hitam Live Theatre
100924	45.5344325	11.9696775	Centro Civico
100924	37.3601076	-122.1279623	Lohman Theatre
100924	33.2107811	-117.2217644	Moonlight Amphitheatre
100925	46.3165423	6.9691857	Moulin Neuf
100925	49.9780178	12.7024507	Městské divadlo Mariánské Lázně
100925	34.446948	-119.2437477	OV Art Center Theater
100926	59.3276794	18.0253071	
100926	51.6587114	-3.7988315	Neath Little Theatre
100926	35.7844846	-78.6622513	Theater In The Park
100927	40.1013149	23.3101459	
100927	51.9649104	5.6643771	Theater de Wilde Wereld
100928	29.4247247	-98.491046	Aztec Theater
100928	29.4095848	-98.4956475	Jump Start Theater
100928	29.4201	-98.4880573	Magik Children's Theater
100928	40.3835966	0.4091594	Anfiteatro
100929	47.908157	7.2146027	Les Dominicains de Haute-Alsace
100929	46.1917364	-1.4269206	La Maline
100929	-35.2810714	149.1300679	The Playhouse
100929	-35.2820216	149.130599	Canberra Theatre
100929	47.4706573	19.0289451	Karinthy Színház
100930	42.9093441	-2.064442	Gaztetxea
100930	56.0721425	-3.4537203	Carnegie Hall
100930	56.0700465	-3.4579582	Alhambra
100930	37.6177242	15.0788848	Teatro Comunale
100930	46.7800944	6.6422665	Théâtre Benno Besson
101001	46.7851585	6.6380915	La Marive
101001	29.4134598	-98.488239	Conjunto Heritage Taller
101001	47.7442189	-3.3741569	CDDB
101001	54.3481557	-6.6545255	Market Place Theatre
101001	52.6195339	6.044777	
101001	29.4475243	-98.4991407	McAllister Fine Arts Center
101001	37.6221366	15.0791337	
101002	41.9467033	-87.6559403	I.O. Chicago
101002	29.4190747	-98.5154088	Amphitheater
101002	29.4185479	-98.5145397	El Progresso
101002	29.4224456	-98.4893131	Villita Assembly Hall
101003	51.453984	-0.9043018	Woodley Theatre
101003	40.4165062	-3.6998544	Teatro Reina Victoria
101003	18.5024786	73.8906243	Dhanwantari Auditorium
101004	-1.2739635	36.806985	
101004	50.3220231	12.3252601	Freilichtbühne
101005	46.1666971	11.1092026	
101005	37.3810586	-5.9735217	carmen del monte
101005	34.3511551	-86.3027562	The Whole Backstage
101005	29.4481389	-98.5024274	San Pedro Playhouse
101006	38.9051508	-76.9932867	Elstad Auditorium
101006	51.0202135	2.3005904	Palais du Littoral
101006	35.032219	-85.1653504	Cheap Movie Theatre
101006	34.0746776	-118.3442639	Acme Comedy Theatre
101006	43.1632042	-77.4452579	Penfield Theater
101007	47.7538933	7.349632	La Filature
101007	-1.2737509	36.8044661	SLT 1
101007	-1.2738903	36.8044714	SLT 2
101007	28.5415329	-81.3789237	SAK Comedy Lab
101008	40.6942955	-89.5913294	Madison Theater
101008	38.906235	-77.063713	Letelier Theater
101008	48.7287857	21.2584339	Divadlo Cassia
101009	53.3218917	-3.8161993	North Wales
101010	28.5410575	-81.3772987	Mad Cow Theatre
101010	36.5787758	27.1660255	
101010	51.6705655	-8.9908584	
101010	28.5489761	-81.3842995	The Studio Theatre
101011	38.8950706	-77.0691333	Rosslyn Spectrum
101011	50.533167	14.1317797	Divadlo K.H.Machy
101011	52.3668371	4.8657391	
101011	28.6111916	77.2788687	
101011	45.6907079	9.6336869	Spazio Polaresco
101011	43.0978501	-2.382175	
101011	29.5971432	-98.3211352	
101012	49.4458276	1.1137488	L'Almendra
101012	45.3919503	-79.2190936	
101012	35.0360404	-85.1466608	Carmike Wynnsong 10
101012	37.6515039	12.587133	Teatro Garibaldi
101014	37.6636009	14.8352031	Vincenzo Bellini
101015	23.1203786	-82.3939929	Teatro Buendía
101015	49.6068506	8.8147568	Hof Theater Tromm
101016	47.3524918	16.2080739	Kulturzentrum Oberschützen
101016	48.8921377	2.38967	Le Tarmac de la Villette
101017	40.8611479	-8.6218182	Cine-Teatro
101017	35.6931732	139.4199161	アミューたちかわ
101017	55.6898118	37.5406814	Драмтеатр Джигарханяна
101018	37.4375858	-79.1707755	Thoresen Theatre
101018	44.3480586	9.2353879	Auditorium delle Clarisse
101018	55.492562	9.4684029	Dronning Dorothea Teatret
101018	37.439081	-79.1722462	Whiteside Ampitheatre
101019	-31.9469462	115.8239354	Regal Theatre
101019	39.8051289	-83.8891122	Little Art Theatre
101020	36.9325064	31.1661035	Gloria Aspendos Arena
101020	42.4604756	-83.6507164	
101021	48.903358	2.3936897	La Dynamo de Banlieues Bleues
101022	52.2365594	11.0633847	Brunnentheater
101022	42.1824199	2.4897309	
101022	33.3151333	44.3800285	
101023	-22.2344409	166.4659044	Le Mouv'
101023	41.3725398	2.1176215	Teatre Joventut
101023	47.904957	1.9702463	Théâtre des Longues Allées
101023	35.8841736	-106.2995045	
101023	47.8058071	7.1737263	Espace Grün
101023	36.4887247	30.5242479	
101024	47.6569884	-122.3134985	University of Washington Playhouse Theater
101024	21.016475	105.8517155	
101025	42.8776914	74.6090054	Русский Драматический Театр
101025	42.8789116	74.6023363	Кыргызский Драматический Театр
101025	42.7276219	-92.4808753	Neumann Auditorium
101026	61.0497469	26.4760463	Jaalan kesäteatteri
101026	33.3039698	44.432277	العراق المسرح الوطني
101027	39.0144651	-86.9292446	Shawnee Theatre
101027	-34.6033038	-58.3789318	Gran Rex
101027	-34.6036924	-58.3789104	Opera
101027	-34.6032951	-58.3785993	Tabaris
101028	51.1849759	2.8200733	Zaal Ter Duinen
101028	61.0594616	28.1933236	Lappeenrannan kaupunginteatteri
101028	45.6910058	9.6446112	Auditorium Gavazzeni
101029	-1.276828	36.8269005	Sarakasi Dome
101029	56.906432	59.9432624	ДК НТЗ
101029	59.8512311	17.6443244	Parksnäckan
101030	48.3893879	-4.4840831	Cabaret Le Vauban
101030	40.781998	-75.294103	Amphitheater
101030	43.6618695	4.1804932	
101030	48.4338705	2.157952	Théatre Municipal
101031	43.6637099	-79.3943425	Hart House Theatre
101031	50.7362355	4.239144	Het Vondel
101031	56.8427227	60.6106641	Филармония
101031	54.9956491	-7.3194372	Millenium Forum
101101	50.1388849	8.6789586	Haus der Chöre
101101	54.2312773	49.5619239	Театр-студия "Подиум"
101101	55.670273	12.561273	Husets Teater
101101	53.3447654	-6.2543069	Samuel Beckett Theatre
101101	53.3448038	-6.2544249	Players Theatre
101101	53.8721554	-3.0107748	Thornton Little Theatre
101101	32.01519	-80.8427866	Tybee Post Theatre
101101	-32.6265674	-70.7178243	Teatro Centenario Putaendo
101101	49.667625	18.7119033	Kulturní dům
101102	30.8635093	75.9194962	Surjit Cinema
101102	42.4607923	-83.1315501	Go Comedy
101103	50.6304083	-3.3301076	Salterton Playhouse
101104	38.5635832	68.7537962	Таджикская государственная филармония
101104	46.7783825	6.6417001	L'Echandole
101104	44.5953268	-75.1694201	American Theatre
101104	52.3671922	5.2190503	Schouwburg Almere
101104	41.0001222	28.8615359	Bahçelievler Evlendirme Dairesi&Kültür Merkezi
101105	48.8448858	2.3578698	Amphithéâtre Rouelle
101105	21.031366	105.8471858	Nhà hát Tuồng Việt Nam
101105	48.3397694	-122.3471688	Northwest Theatre Arts at the Conway Muse
101105	-16.6763383	-49.2598179	Goiânia Ouro
101105	33.2025242	-117.2411037	Avo Theater
101105	-35.2806694	149.1235823	Llewellyn Hall
101106	52.2371779	21.0328283	Teatr Ateneum imienia Stefana Jaracza
101106	45.511365	10.3213179	Sala Civica Italo Calvino
101107	52.3784453	14.3153122	Theaterforum
101107	48.0193298	8.9414847	Naturbühne Steintäle Fridingen
101107	61.4978801	27.2692277	Näyttämö Linnankorva [summer]
101107	59.9608168	30.3032878	Эра
101107	46.1852424	6.1397084	Théatre des Amis
101108	59.4104943	56.7936	Театр "Бенефис"
101109	-34.5762111	-58.4836005	Teatro 25 de Mayo
101109	50.3307374	13.5498085	
101109	45.9013824	10.7243458	Centro Policulturale Locca
101110	50.720214	-3.5335624	Exeter Little Theatre Co
101110	19.1549228	72.8562728	Movie TIme Hub
101110	49.8105632	73.0864232	Буратино детский театр кукол
101111	40.4183658	-3.7032747	Teatro Muñoz Seca
101111	35.4528706	139.6486806	大さん橋ホール
101111	19.1655121	72.8512018	Anupam
101111	42.9810639	47.5170746	Аварский театр
101112	-39.6450935	176.8450796	Hawkes Bay Opera House
101113	48.8835723	2.2631149	Théâtre de Neuilly
101114	56.8865424	59.8889232	ДК Огнеупорщик
101114	55.6379433	37.4933118	Летняя эстрада
101114	46.4831082	6.3511354	
101115	28.6166339	77.2427321	Shakuntalam
101115	23.6175472	58.4868269	
101115	29.4195124	-98.4879456	Magik Children's Theatre
101115	52.2209476	7.8077345	Krokodiltheater
101117	47.3661745	8.5381221	Tonhalle
101117	12.2913839	76.6465829	Naadabrhma Sangeetha Sabha
101117	56.8255119	60.6252373	Галёрка
101117	50.8792859	6.87945	Bürgerhaus Hürth
101117	24.1620365	-110.3151127	Teatro Benito Juárez
101118	48.9414569	8.4011382	Kleine Bühne
101118	51.3850017	7.7549148	Leonidon
101118	40.0707207	-75.453174	Shire Stage
101118	39.6493029	-121.6478419	Black Box Theatre
101119	49.9960829	8.2807815	Kammerspiele
101119	51.187135	2.8209367	CC De Branding
101119	51.2248785	6.7759949	FFT Juta
101119	33.1221113	-117.079564	Patio Playhouse Community & Youtheatre
101119	39.5739321	2.642267	
101119	-13.5195855	-71.9802096	Teatro Municipal
101121	50.7658583	6.2312468	Burghof Theater
101121	46.5222131	6.6287806	Metropole
101121	33.564195	-7.6304757	
101122	48.9937055	21.2454414	Divadlo Jonáša Záborského
101122	48.9271139	2.0423383	Théâtre de Poissy
101122	50.1234891	8.6413833	Dramatische Bühne
101122	56.9017284	74.3722492	Драмтеатр им. Ульянова
101123	56.8592634	35.910924	Театр юного зрителя
101123	54.3143016	10.1559059	Werftpark-Theater
101124	-16.5035041	-68.1274115	Teatro al Aire Libre
101124	35.0156922	-1.7468273	Multi sport Nedroma
101124	-19.5871564	-65.7590985	Teatro al aire libre
101124	-17.6058385	-66.0236044	Coliseo
101124	48.7987917	132.9177548	Театр кукол "Кудесник"
101125	51.6089861	-3.6582072	Maesteg Town Hall
101125	48.8779452	2.2607329	Guignol
101126	54.7222844	55.9451643	Башкирский государственный театр оперы и балета
101126	33.5173058	-117.0892489	St. Jeanne De Lestonnac Theater
101126	55.766238	-4.1724773	Village Theatre
101127	35.4461413	139.6470963	神奈川県立県民ホール
101127	-39.4902437	176.9146206	Napier Municipal Theatre
101128	43.118665	-87.9057688	Fox-Bay Theater
101129	58.2764412	-134.3943013	Perseverance Theatre
101129	52.8935989	40.5098195	Мичуринский драматический театр
101129	37.4216903	-5.9736044	Centro TNT
101130	45.4337334	4.398144	Théatre Copeau
101130	41.9681414	-71.1845082	Watson Theatre
101201	-36.714624	142.2019631	Wesley Performing Arts Centre
101201	52.9761353	-0.0224371	Blackfriars Theatre & Arts Centre
101201	37.518191	15.0874877	Teatro Zig Zag
101201	52.4934581	13.4456494	corbo Kleinkunstbühne & Café
101201	53.6822325	-1.5028739	Theatre Royal and Opera House
101202	47.3514964	8.3435499	Kellertheater Bremgarten
101202	50.7409912	7.1241685	Marabu
101203	39.1211306	-7.282446	Centro Cultural
101203	56.9012321	74.3730651	
101203	49.3826662	-123.0778572	Ampitheater
101203	54.2736964	-8.4781408	Factory theatre
101204	42.5971855	-71.3519151	Ellen Theatrical
101204	51.0640059	-1.2881635	Saint Swithun's Performing Arts Centre
101205	-22.2260963	166.5175564	Centre Culturel du Mont Dore
101205	-29.7641553	-51.1501964	Teatro Municipal
101205	51.250691	4.4983895	De Kaekelaar
101205	47.7798164	12.4504764	Hefter-Saal
101205	59.9112634	10.7621794	Dramatikkens hus
101205	36.5187796	-5.0437453	Amphitheater
101205	41.6186587	45.9228945	
101205	51.0572979	-1.3122946	New Hall
101205	44.9706458	-93.2493918	Mixed Blood Theatre
101205	56.6734223	12.8631918	Halmstad teater
101206	45.4847061	12.2360055	Teatro Arnaldo Momo
101206	46.9927477	6.9318942	Théâtre du Passage
101206	48.8202959	2.2679715	Guignol
101207	51.2032844	7.1289963	TiC Atelier
101207	41.8018148	123.4301259	Liaoning Grand Theatre
101207	52.5859567	14.646225	Amfiteatr miejski
101208	47.3888128	8.5191262	Schiffbau
101208	60.4500409	22.2738572	
101208	40.7346653	-73.1787556	Broadhollow Theatre
101208	46.9405095	7.790254	Musikschule Langnau
101208	46.9415613	7.7909044	Stellplatz Zirkus Knie
101208	46.9390927	7.7878199	Keller Theatre
101208	46.9422299	7.7856957	Kirchgemeindehaus
101208	53.131717	-6.7421374	Kilcullen Town Hall
101208	38.955858	-94.6287243	Leawood Movie Theater
101208	50.9633434	7.9956404	Stadthalle Kreuztal
101208	62.8885566	27.67825	Kuopion Musiikkikeskus
101208	42.7185709	12.1126586	Teatro Mancinelli
101208	51.2296805	2.9158834	De Nieuwe Post
101209	-22.5899025	17.0828872	Backstage Dinner Theatre
101209	53.1288979	18.0105299	Filharmonia Pomorska im. Ignacego Jana Paderewskiego
101210	51.4084589	-0.3073163	The Rose
101210	41.7975716	-88.4572764	Waubonsee Auditorium
101210	42.2607335	-71.8030706	Hanover Theatre
101211	61.503001	23.7651319	Komediateatteri
101211	48.8595663	8.203138	Kellertheater
101211	68.9699001	33.0874459	Кукольный
101211	46.9943597	6.927857	Matchbox
101211	51.4786811	7.2374101	Schauspielschule Bochum
101211	52.3877211	-0.7351131	Lighthouse Theatre
101211	50.9946351	-1.3624442	Thornden Hall
101211	46.5098612	6.6608663	Maison pulliérane
101211	50.181371	10.2810149	Fränkisches Theater
101212	52.4539871	44.2100587	
101212	48.9142789	2.2996941	Théâtre de Gennevilliers
101212	49.2842748	-123.0366934	Ampitheater / Stage
101213	-34.3494578	-58.7919181	Tomás Seminari
101213	-33.48025	150.1617128	Union Theatre
101213	36.5270981	-6.1925049	Teatro Principal
101213	47.2301365	39.7647089	Академический молодёжный театр
101213	49.9780238	12.7022479	N.V. Gogola
101214	63.4080562	10.469878	BlackBox
101214	27.5155987	-82.5753751	Olympia Theatre
101214	50.608032	5.5507146	Théâtre de l'Aléna
101214	-32.7426381	-60.7326982	Teatro de la Ciudad
101214	49.446672	1.1004854	Théâtre des Deux Rives
101215	42.6562964	-73.7719011	Park Playhouse
101215	37.0890417	-122.0893576	Park Hall
101215	37.1018869	25.3738464	Iakovos Kampanelis
101215	55.7457911	37.8126024	Театр На Перовской
101215	61.491424	23.7383636	Pyynikin kesäteatteri
101215	48.6798601	2.1697195	Théatre de verdure
101216	43.6919493	5.4993776	Théâtre municipal de Pertuis
101216	53.2915232	11.0452375	Kulturkate - Neu Lübtheen
101216	58.0113024	56.2352475	КДЦ
101216	42.6658684	-73.7907	Steamer 10 Theatre
101216	53.3194428	-0.9427736	Retford Little Theatre
101216	51.5198812	45.9980425	
101216	25.4336492	-101.0004532	Teatro de la Ciudad
101216	25.4333874	-100.9996319	Teatro de la Ciudad
101217	-39.5064391	176.9172993	Little Theatre
101217	52.673371	-0.7265584	Queen Elizabeth Theatre
101218	51.0582647	-1.3454521	The Tower Arts Centre
101218	60.4465407	22.2833062	Marionettiteatteri Mundo
101218	35.4610571	139.6269877	横浜BLITZ
101218	-37.4714749	-72.3504426	Casa de La Cultura
101218	-39.4835188	176.8993241	Tabard Theatre
101218	-23.5635941	-46.6544713	Teatro FIESP/CESI/CECI
101218	41.9178043	12.4648273	Teatro Manzoni
101218	45.8827877	22.9004339	Teatrul de Artă
101219	17.4513921	78.3792883	Shilpa Kala Vedika
101219	42.4528956	-76.4815703	Risley Theater
101219	56.6823687	12.8726162	Kulturhuset
101219	-34.6135555	-68.3519784	Teatro Griego
101220	43.6852724	7.2016157	Opéra de la Diacosmie
101220	43.0389251	-87.9109267	Riverside Theater
101220	50.461232	1.76074	
101220	-37.754748	145.001072	Thornbury Theatre
